     2.11           OBSERVATION DATA    G (GPS)             RINEX VERSION / TYPE
teqc  2018Dec12     gpsops              20201108 00:20:10UTCPGM / RUN BY / DATE
Linux 2.6.32-573.12.1.x86_64|x86_64|gcc -static|Linux 64|=+ COMMENT
BIT 2 OF LLI FLAGS DATA COLLECTED UNDER A/S CONDITION       COMMENT
CHAN                                                        MARKER NAME
21611M002                                                   MARKER NUMBER
GGN                 Changchun Observatory,NAOC,CAS          OBSERVER / AGENCY
UC2200511014        ASHTECH UZ-12       CQ00                REC # / TYPE / VERS
CR6200503027        ASH701945E_M    NONE                    ANT # / TYPE
 -2674431.9143  3757145.2969  4391528.8732                  APPROX POSITION XYZ
        0.2500        0.0000        0.0000                  ANTENNA: DELTA H/E/N
     1     1                                                WAVELENGTH FACT L1/2
     7    L1    L2    P1    P2    C1    S1    S2            # / TYPES OF OBSERV
    30.0000                                                 INTERVAL
Forced Modulo Decimation to 30 seconds                      COMMENT
                                                            COMMENT
 SNR is mapped to RINEX snr flag value [0-9]                COMMENT
  L1 & L2: min(max(int(snr_dBHz/6), 0), 9)                  COMMENT
pseudorange smoothing corrections not applied               COMMENT
  2020    11     7     0     0    0.0000000     GPS         TIME OF FIRST OBS
                                                            END OF HEADER
 20 11  7  0  0  0.0000000  0  8G05G06G12G25G09G29G19G02
 -19301564.27049 -15020556.66249  21155346.5644   21155348.7564   21155346.467
        58.0004         54.0004
 -16092706.79748 -12497412.70947  21933130.5054   21933135.7364   21933129.578
        52.0004         47.0004
    347757.26347    319117.58346  24993017.4904   24993021.0854   24993014.682
        46.0004         41.0004
   2672789.97347   2096161.76647  24893153.7524   24893159.9014   24893154.351
        47.0004         42.0004
 -11737394.84548  -9109666.39847  22849109.2814   22849113.2954   22849108.245
        49.0004         44.0004
  -4631024.96648  -3552594.85547  24058684.8114   24058687.7534   24058685.427
        50.0004         45.0004
  -3115007.83547  -2416934.73847  24168045.8514   24168049.1934   24168046.309
        46.0004         42.0004
 -21009332.93949 -16331370.91448  21137508.2724   21137508.7424   21137508.771
        56.0004         51.0004
 20 11  7  0  0 30.0000000  0  8G05G06G12G25G09G29G19G02
 -19353356.78349 -15060914.47449  21145490.9594   21145492.8644   21145490.393
        58.0004         54.0004
 -16029143.36648 -12447882.78747  21945226.3994   21945232.0084   21945225.311
        52.0004         47.0004
    435485.91547    387477.55347  25009712.0404   25009716.5254   25009710.343
        46.0004         42.0004
   2729210.47847   2140125.73547  24903889.3564   24903896.2884   24903889.668
        47.0004         42.0004
 -11667671.42848  -9055336.47847  22862377.2614   22862382.0834   22862377.824
        49.0004         44.0004
  -4725288.19648  -3626046.71647  24040747.6674   24040750.1374   24040748.894
        50.0004         46.0004
  -2995645.67547  -2323925.32647  24190759.3564   24190762.6044   24190760.490
        46.0004         42.0004
 -21027575.33649 -16345585.77648  21134036.8444   21134037.3804   21134037.620
        56.0004         51.0004
 20 11  7  0  1  0.0000000  0  8G05G06G12G25G09G29G19G02
 -19404799.61949 -15100999.80949  21135701.9024   21135703.8194   21135701.983
        58.0004         54.0004
 -15965287.51948 -12398125.00447  21957377.0084   21957383.1514   21957376.606
        52.0004         47.0004
    523341.14447    455936.15947  25026430.5134   25026432.7524   25026429.850
        46.0004         42.0004
   2786008.58047   2184383.96847  24914697.5894   24914705.4234   24914698.572
        47.0004         42.0004
 -11597504.42948  -9000660.91647  22875728.9004   22875734.0564   22875728.642
        49.0004         44.0004
  -4819247.18148  -3699261.49747  24022868.3754   24022870.2374   24022869.040
        50.0004         46.0004
  -2876175.18347  -2230831.48646  24213494.1054   24213496.9224   24213495.587
        46.0004         41.0004
 -21045517.55849 -16359566.73948  21130622.7634   21130623.2124   21130623.327
        56.0004         51.0004
 20 11  7  0  1 30.0000000  0  8G05G06G12G25G09G29G19G02
 -19455892.46649 -15140812.42649  21125978.9784   21125981.0894   21125979.121
        58.0004         54.0004
 -15901139.59848 -12348139.63347  21969584.5334   21969589.6854   21969584.307
        52.0004         47.0004
    611319.69147    524490.86147  25043173.6884   25043174.0144   25043172.891
        46.0004         42.0004
   2843181.57447   2228934.33647  24925577.6874   24925585.4734   24925579.103
        47.0004         43.0004
 -11526896.21048  -8945641.54447  22889165.6574   22889170.8454   22889165.882
        49.0004         44.0004
  -4912899.52948  -3772237.33547  24005046.5404   24005047.6964   24005047.124
        50.0004         45.0004
  -2756599.02247  -2137655.32046  24236248.6354   24236252.4944   24236250.003
        46.0004         41.0004
 -21063158.30949 -16373312.78248  21127265.7864   21127266.1904   21127266.483
        56.0004         51.0004
 20 11  7  0  2  0.0000000  0  8G05G06G12G25G09G29G19G02
 -19506635.59149 -15180352.52749  21116322.7274   21116325.0154   21116322.468
        58.0004         54.0004
 -15836700.02448 -12297927.01647  21981846.5984   21981852.0364   21981846.123
        52.0004         47.0004
    699418.14447    593139.00147  25059937.0264   25059940.0044   25059937.633
        46.0004         42.0004
   2900726.76047   2273774.69747  24936528.4054   24936535.8444   24936527.350
        47.0004         43.0004
 -11455849.19748  -8890280.26847  22902684.7524   22902690.1184   22902684.974
        49.0004         44.0004
  -5006242.29848  -3844971.94947  23987283.4184   23987285.4834   23987282.192
        50.0004         45.0004
  -2636919.41447  -2044398.55946  24259024.4504   24259026.2484   24259025.987
        46.0004         41.0004
 -21080496.63849 -16386823.17548  21123966.5504   21123966.9364   21123966.825
        56.0004         51.0004
 20 11  7  0  2 30.0000000  0  8G05G06G12G25G09G29G19G02
 -19557028.91749 -15219620.05349  21106733.1774   21106735.8194   21106732.984
        58.0004         54.0004
 -15771969.07748 -12247487.34347  21994164.7084   21994169.5154   21994164.047
        51.0004         47.0004
    787633.65447    661878.34547  25076724.2534   25076726.6904   25076726.045
        46.0004         42.0004
   2958641.41248   2318902.96447  24947550.4504   24947555.7654   24947551.577
        48.0004         43.0004
 -11384365.71348  -8834578.87547  22916288.2734   22916294.0084   22916288.466
        49.0004         44.0004
  -5099272.45848  -3917462.96747  23969580.3354   23969582.2144   23969580.971
        50.0004         45.0004
  -2517139.20847  -1951063.39546  24281816.1914   24281819.6804   24281817.607
        45.0004         40.0004
 -21097531.39949 -16400097.02448  21120724.9154   21120725.1824   21120725.590
        56.0004         51.0004
 20 11  7  0  3  0.0000000  0  8G05G06G12G25G09G29G19G02
 -19607071.60049 -15258614.34449  21097210.6674   21097212.9724   21097210.430
        58.0004         54.0004
 -15706947.21348 -12196820.97847  22006538.5234   22006543.7234   22006537.870
        51.0004         47.0004
    875963.00447    730706.39547  25093533.3524   25093535.9694   25093532.834
        46.0004         42.0004
   3016922.76047   2364316.96547  24958640.0734   24958645.7294   24958639.760
        47.0004         42.0004
 -11312448.22248  -8778539.30647  22929973.5704   22929979.3904   22929973.781
        49.0004         44.0004
  -5191987.35748  -3989708.32947  23951937.4054   23951940.1034   23951936.063
        50.0004         45.0004
  -2397260.93947  -1857651.79846  24304628.7144   24304632.1914   24304629.480
        45.0004         40.0004
 -21114261.30949 -16413133.33048  21117541.3144   21117541.6754   21117542.104
        56.0004         51.0004
 20 11  7  0  3 30.0000000  0  8G05G06G12G25G09G29G19G02
 -19656763.77549 -15297335.51449  21087754.5504   21087756.5774   21087754.428
        59.0004         54.0004
 -15641634.79848 -12145928.20847  22018966.6764   22018972.1874   22018966.246
        51.0004         47.0004
    964402.98647    799620.63746  25110361.4274   25110366.0724   25110362.265
        46.0004         41.0004
   3075568.01557   2410014.50757  24969799.0965   24969806.5575   24969799.509
        47.0004         43.0004
 -11240099.09048  -8722163.39947  22943741.7514   22943745.8904   22943741.133
        49.0004         44.0004
  -5284384.69948  -4061706.27147  23934355.0184   23934357.0664   23934355.022
        50.0004         46.0004
  -2277286.92647  -1764165.60446  24327459.2474   24327462.4764   24327461.308
        44.0004         39.0004
 -21130685.21849 -16425931.18848  21114415.7024   21114416.3254   21114416.547
        56.0004         51.0004
 20 11  7  0  4  0.0000000  0  8G05G06G12G25G09G29G19G02
 -19706104.79149 -15335783.04849  21078365.1004   21078367.2044   21078364.925
        59.0004         54.0004
 -15576032.16448 -12094809.30347  22031450.4114   22031456.3214   22031449.622
        52.0004         47.0004
   1052950.23047    868618.44247  25127211.4614   25127216.5024   25127214.403
        46.0004         42.0004
   3134574.57748   2455993.62847  24981028.8014   24981035.4164   24981028.085
        48.0004         43.0004
 -11167320.72148  -8665453.01147  22957591.0934   22957596.0014   22957591.210
        49.0004         44.0004
  -5376461.18048  -4133454.17747  23916833.6884   23916836.0364   23916833.850
        50.0004         46.0004
  -2157220.25047  -1670607.21746  24350308.0284   24350309.6514   24350307.841
        43.0004         38.0004
 -21146802.43049 -16438490.06648  21111348.7614   21111349.5014   21111349.584
        56.0004         51.0004
 20 11  7  0  4 30.0000000  0  8G05G06G12G25G09G29G19G02
 -19755094.89949 -15373957.14749  21069042.5164   21069044.7814   21069042.221
        59.0004         54.0004
 -15510139.73848 -12043464.57247  22043989.6254   22043994.7904   22043988.843
        52.0004         47.0004
   1141601.79747    937697.56546  25144081.6854   25144085.7244   25144080.450
        46.0004         41.0004
   3193939.57347   2502252.00947  24992325.9694   24992331.6354   24992328.289
        47.0004         42.0004
 -11094115.54448  -8608410.04947  22971521.7194   22971526.0344   22971520.919
        49.0004         44.0004
  -5468214.08248  -4204949.94247  23899373.4134   23899376.0104   23899374.623
        50.0004         46.0004
  -2037063.03647  -1576978.27346  24373172.5224   24373175.2184   24373173.523
        42.0004         37.0004
 -21162611.11449 -16450808.52748  21108340.3094   21108341.1404   21108340.825
        56.0004         51.0004
 20 11  7  0  5  0.0000000  0  8G05G06G12G25G09G29G19G02
 -19803733.54549 -15411857.38049  21059787.0294   21059789.0664   21059786.885
        59.0004         54.0004
 -15443957.93048 -11991894.36147  22056583.4934   22056589.0144   22056582.871
        51.0004         47.0004
   1230354.52747   1006855.50047  25160973.3784   25160976.7074   25160974.846
        47.0004         42.0004
   3253660.27847   2548787.58647  25003690.7204   25003696.8414   25003691.623
        47.0004         42.0004
 -11020485.99348  -8551036.42347  22985532.8844   22985537.6844   22985533.106
        49.0004         44.0004
  -5559640.28848  -4276191.14247  23881976.3414   23881978.2204   23881976.012
        51.0004         46.0004
  -1916817.29547  -1483280.37646  24396055.4324   24396057.4274   24396057.180
        42.0004         38.0004
 -21178110.22649 -16462885.76648  21105390.9474   21105391.7464   21105391.614
        56.0004         51.0004
 20 11  7  0  5 30.0000000  0  8G05G06G12G25G09G29G19G02
 -19852020.70749 -15449483.73349  21050598.3884   21050600.3814   21050598.243
        59.0004         54.0004
 -15377487.15648 -11940098.98147  22069232.6444   22069237.7904   22069231.656
        51.0004         47.0004
   1319204.61347   1076089.32847  25177878.6734   25177882.3224   25177878.958
        47.0004         42.0004
   3313733.77547   2595598.07647  25015120.8304   25015127.7914   25015120.581
        47.0004         42.0004
 -10946434.55048  -8493334.03747  22999624.6684   22999629.2444   22999625.322
        49.0004         44.0004
  -5650737.64248  -4347176.07847  23864640.6464   23864643.4824   23864639.975
        51.0004         46.0004
  -1796486.47947  -1389516.16546  24418953.4534   24418956.6274   24418952.872
        43.0004         39.0004
 -21193298.88549 -16474721.10148  21102500.8214   21102501.5104   21102501.594
        56.0004         51.0004
 20 11  7  0  6  0.0000000  0  8G05G06G12G25G09G29G19G02
 -19899956.40249 -15486836.21149  21041476.3774   21041478.5784   21041476.120
        59.0004         54.0004
 -15310727.76648 -11888078.70247  22081935.8454   22081941.5114   22081934.731
        51.0004         46.0004
   1408149.24847   1145396.81747  25194806.0354   25194809.0424   25194806.251
        47.0004         43.0004
   3374157.45847   2642681.39047  25026619.7804   25026625.2344   25026620.807
        47.0004         42.0004
 -10871963.59148  -8435304.75647  23013796.7914   23013800.9884   23013796.122
        48.0004         44.0004
  -5741503.12148  -4417902.40547  23847367.9704   23847370.2344   23847369.971
        51.0004         46.0004
  -1676073.08247  -1295687.60246  24441866.7854   24441870.0524   24441869.345
        43.0004         39.0004
 -21208175.94549 -16486313.62848  21099669.8254   21099670.4404   21099670.572
        56.0004         51.0004
 20 11  7  0  6 30.0000000  0  8G05G06G12G25G09G29G19G02
 -19947539.91249 -15523914.25749  21032421.6044   21032423.7464   21032421.217
        59.0004         54.0004
 -15243680.17248 -11835833.84647  22094694.6234   22094700.4024   22094693.714
        51.0004         46.0004
   1497185.74147   1214775.87347  25211748.8114   25211751.0454   25211749.771
        47.0004         42.0004
   3434928.48947   2690035.40247  25038183.9714   25038189.7404   25038185.878
        47.0004         42.0004
 -10797075.57448  -8376950.49347  23028046.4854   23028051.2644   23028045.558
        48.0004         44.0004
  -5831933.99648  -4488368.00847  23830159.5604   23830161.6954   23830159.507
        51.0004         46.0004
  -1555579.40047  -1201796.47646  24464796.5544   24464798.9424   24464798.005
        43.0004         38.0004
 -21222740.02749 -16497662.27448  21096898.2284   21096899.0274   21096899.264
        56.0004         51.0004
 20 11  7  0  7  0.0000000  0  8G05G06G12G25G09G29G19G02
 -19994771.04749 -15560717.72649  21023433.9924   21023435.9514   21023434.087
        59.0004         54.0004
 -15176344.83848 -11783364.76947  22107507.9184   22107513.8714   22107507.549
        51.0004         46.0004
   1586310.40147   1284223.62646  25228708.6604   25228710.9874   25228712.911
        46.0004         41.0004
   3496043.96947   2737657.86146  25049813.1594   25049818.7484   25049814.312
        46.0004         41.0004
 -10721772.98548  -8318273.18347  23042375.7604   23042380.0794   23042374.974
        48.0004         43.0004
  -5922027.43748  -4558570.68947  23813014.9144   23813017.3344   23813015.824
        51.0004         46.0004
  -1435008.18447  -1107844.93046  24487739.7744   24487741.7974   24487741.338
        43.0004         38.0004
 -21236990.16049 -16508766.29048  21094186.6334   21094187.3584   21094187.319
        56.0004         51.0004
 20 11  7  0  7 30.0000000  0  8G05G06G12G25G09G29G19G02
 -20041649.73749 -15597246.56949  21014513.2664   21014515.0764   21014513.255
        59.0004         54.0004
 -15108722.21048 -11730671.83247  22120376.7884   22120382.4194   22120376.257
        51.0004         47.0004
   1675520.03147   1353737.56846  25245685.3534   25245687.0234   25245685.802
        46.0004         41.0004
   3557501.16247   2785546.52146  25061508.3744   25061513.5634   25061507.953
        46.0004         41.0004
 -10646058.32748  -8259274.79547  23056783.1694   23056788.8374   23056782.130
        48.0004         43.0004
  -6011780.87848  -4628508.44647  23795935.2184   23795937.9464   23795934.610
        51.0004         46.0004
  -1314361.66947  -1013834.72946  24510697.4014   24510701.6764   24510700.166
        43.0004         39.0004
 -21250924.90249 -16519624.53048  21091535.0914   21091535.3804   21091535.346
        56.0004         51.0004
 20 11  7  0  8  0.0000000  0  8G05G06G12G25G09G29G19G02
 -20088175.98049 -15633500.77249  21005659.4834   21005661.1904   21005659.429
        59.0004         54.0004
 -15040812.65348 -11677755.31547  22133299.2414   22133304.7424   22133298.872
        51.0004         46.0004
   1764811.40657   1423315.24356  25262674.3525   25262678.2785   25262675.085
        45.0004         40.0004
   3619297.23447   2833699.24747  25073268.5924   25073274.5454   25073266.971
        46.0004         42.0004
 -10569933.96048  -8199957.14147  23071269.8374   23071274.9694   23071270.117
        48.0004         43.0004
  -6101191.35348  -4698178.92947  23778920.8054   23778923.3304   23778921.088
        51.0004         46.0004
  -1193642.51247   -919767.91546  24533670.8854   24533673.4934   24533672.537
        44.0004         40.0004
 -21264543.15149 -16530236.15948  21088943.5584   21088943.9954   21088944.079
        56.0004         51.0004
 20 11  7  0  8 30.0000000  0  7G05G06G25G09G29G19G02
 -20134349.22349 -15669479.91949  20996873.1024   20996874.9154   20996872.815
        59.0004         54.0004
 -14972616.64648 -11624615.58747  22146276.7394   22146282.3944   22146276.329
        51.0004         47.0004
   3681429.33447   2882113.84546  25085091.0014   25085096.9964   25085090.867
        46.0004         41.0004
 -10493402.44048  -8140322.21747  23085833.5244   23085838.5904   23085833.305
        48.0004         43.0004
  -6190255.84648  -4767579.83647  23761972.7464   23761975.5504   23761972.100
        51.0004         46.0004
  -1072853.24247   -825646.47746  24556657.1104   24556658.4064   24556657.931
        44.0004         40.0004
 -21277843.99649 -16540600.46148  21086412.5174   21086413.0344   21086412.663
        56.0004         51.0004
 20 11  7  0  9  0.0000000  0  7G05G06G25G09G29G19G02
 -20180170.00349 -15705184.42349  20988153.5174   20988155.6044   20988153.501
        59.0004         54.0004
 -14904134.80348 -11571253.13347  22159308.1684   22159313.8624   22159307.479
        51.0004         47.0004
   3743894.47347   2930787.94047  25096979.4594   25096984.9344   25096979.197
        46.0004         42.0004
 -10416466.36048  -8080372.04347  23100474.2444   23100478.4244   23100474.697
        48.0004         43.0004
  -6278972.12248  -4836709.40947  23745091.0154   23745093.5804   23745093.244
        51.0004         46.0004
   -951996.63147   -731472.54446  24579654.9674   24579657.4124   24579655.980
        44.0004         40.0004
 -21290826.40749 -16550716.63648  21083941.8414   21083942.6664   21083942.445
        56.0004         51.0004
 20 11  7  0  9 30.0000000  0  7G05G06G25G09G29G19G02
 -20225637.25849 -15740613.44449  20979501.4504   20979503.5434   20979501.363
        59.0004         54.0004
 -14835367.32648 -11517668.10647  22172394.9294   22172399.9434   22172394.959
        51.0004         47.0004
   3806689.96947   2979719.44047  25108928.4684   25108935.5234   25108928.845
        47.0004         42.0004
 -10339128.09848  -8020108.48547  23115191.2094   23115196.3284   23115191.109
        48.0004         43.0004
  -6367337.46848  -4905565.51547  23728276.3354   23728278.3064   23728276.843
        51.0004         47.0004
   -831075.02447   -637247.98046  24602664.4694   24602667.9384   24602665.490
        44.0004         39.0004
 -21303488.84349 -16560583.47548  21081532.2064   21081532.8954   21081532.863
        56.0004         51.0004
 20 11  7  0 10  0.0000000  0  7G05G06G25G09G29G19G02
 -20270751.19949 -15775767.15649  20970916.6294   20970918.8164   20970916.321
        59.0004         54.0004
 -14766314.70548 -11463860.88447  22185535.3864   22185540.2934   22185535.191
        51.0004         46.0004
   3869812.95947   3028906.13547  25120940.3174   25120946.7834   25120940.884
        47.0004         42.0004
 -10261390.10848  -7959533.45147  23129983.3944   23129989.2704   23129983.386
        48.0004         43.0004
  -6455348.61048  -4974145.62547  23711528.4214   23711530.5654   23711528.208
        51.0004         47.0004
   -710090.73947   -542974.58446  24625687.3584   24625690.4874   24625685.651
        43.0004         38.0004
 -21315830.18549 -16570200.11648  21079183.8454   21079184.4104   21079184.678
        56.0004         51.0004
 20 11  7  0 10 30.0000000  0  7G05G06G25G09G29G19G02
 -20315511.70449 -15810645.48049  20962399.0524   20962401.1604   20962399.043
        59.0004         54.0004
 -14696977.51248 -11409831.91147  22198729.3974   22198734.5114   22198728.830
        51.0004         46.0004
   3933260.51347   3078345.75447  25133013.4794   25133020.5244   25133014.816
        47.0004         42.0004
 -10183254.95148  -7898648.94047  23144852.2834   23144857.2144   23144853.657
        48.0004         43.0004
  -6543003.09348  -5042447.80647  23694848.4764   23694850.0694   23694848.574
        51.0004         47.0004
   -589046.74447   -448654.69746  24648721.3884   24648725.6354   24648721.273
        43.0004         38.0004
 -21327849.69449 -16579565.98148  21076896.7974   21076897.3824   21076897.359
        56.0004         51.0004
 20 11  7  0 11  0.0000000  0  7G05G06G25G09G29G19G02
 -20359918.74049 -15845248.37449  20953948.6524   20953950.7984   20953948.506
        59.0004         54.0004
 -14627356.19348 -11355581.55547  22211977.6954   22211983.3664   22211976.464
        51.0004         46.0004
   3997029.83747   3128036.07547  25145149.3164   25145154.8034   25145150.896
        47.0004         42.0004
 -10104725.23548  -7837456.95847  23159796.9474   23159801.1514   23159797.706
        48.0004         43.0004
  -6630298.26248  -5110470.01847  23678236.1514   23678238.6664   23678235.957
        51.0004         47.0004
   -467945.19047   -354289.91146  24671766.5214   24671769.7784   24671767.773
        43.0004         38.0004
 -21339545.82349 -16588679.85948  21074670.9924   21074671.8874   21074671.361
        56.0004         51.0004
 20 11  7  0 11 30.0000000  0  8G05G06G12G25G09G29G19G02
 -20403972.00349 -15879575.60249  20945565.5604   20945567.5234   20945565.540
        59.0004         54.0004
 -14557451.19348 -11301110.14947  22225280.4234   22225285.4494   22225279.387
        51.0004         46.0004
                                                                  25382001.567

   4061118.06147   3177974.91346  25157345.0314   25157351.0434   25157344.921
        46.0004         41.0004
 -10025803.37348  -7775959.41247  23174814.5984   23174819.5734   23174815.035
        48.0004         43.0004
  -6717231.30848  -5178210.05447  23661692.5544   23661695.3844   23661693.066
        51.0004         46.0004
   -346788.74047   -259882.34446  24694821.5324   24694824.2874   24694821.736
        43.0004         38.0004
 -21350917.58049 -16597540.97948  21072506.9554   21072507.6434   21072508.100
        56.0004         51.0004
 20 11  7  0 12  0.0000000  0  8G05G06G12G25G09G29G19G02
 -20447671.37549 -15913627.06649  20937249.6024   20937251.7414   20937249.512
        59.0004         54.0004
 -14487263.06148 -11246418.12547  22238636.4234   22238642.4034   22238635.812
        51.0004         46.0004
                                                                  25399099.776

   4125522.10547   3228159.83446  25169600.0824   25169607.1264   25169598.952
        46.0004         41.0004
  -9946491.96248  -7714158.34147  23189907.5524   23189912.3984   23189908.263
        48.0004         43.0004
  -6803799.16548  -5245665.53047  23645219.7154   23645222.3414   23645219.369
        51.0004         47.0004
   -225580.27047   -165434.23746  24717887.5084   24717891.2064   24717886.930
        43.0004         38.0004
 -21361964.01549 -16606148.59748  21070404.9834   21070405.6174   21070406.082
        56.0004         52.0004
 20 11  7  0 12 30.0000000  0  8G05G06G12G25G09G29G19G02
 -20491016.42149 -15947402.43749  20929001.4524   20929003.4084   20929001.268
        59.0004         54.0004
 -14416792.16148 -11191505.76047  22252046.4994   22252051.6844   22252046.583
        51.0004         46.0004
    199098.86448    119861.02947  25416202.6784   25416206.3374   25416203.480
        51.0004         43.0004
   4190239.25147   3278588.73247  25181916.0484   25181921.7214   25181914.897
        46.0004         42.0004
  -9866793.42748  -7652055.59147  23205073.1934   23205078.4374   23205073.881
        48.0004         43.0004
  -6889999.43748  -5312834.57647  23628815.9014   23628818.8354   23628816.365
        51.0004         47.0004
   -104321.89547    -70947.26846  24740961.2884   24740965.3624   24740962.913
        42.0004         38.0004
 -21372683.84849 -16614501.71748  21068365.1204   21068365.7204   21068365.696
        56.0004         51.0004
 20 11  7  0 13  0.0000000  0  8G05G06G12G25G09G29G19G02
 -20534007.22749 -15980901.77049  20920820.6854   20920822.8504   20920820.317
        59.0004         54.0004
 -14346039.14548 -11136373.56447  22265510.1924   22265516.8444   22265509.376
        51.0004         46.0004
    289036.05848    189941.86947  25433317.1494   25433321.4454   25433318.151
        49.0004         43.0004
   4255266.45447   3329259.24746  25194289.7154   25194294.8774   25194289.237
        46.0004         41.0004
  -9786710.37148  -7589653.22247  23220313.3814   23220318.3404   23220313.476
        48.0004         43.0004
  -6975829.31448  -5379714.98847  23612482.8894   23612485.8324   23612482.800
        51.0004         47.0004
     16983.94947     23576.68846  24764046.2584   24764048.5044   24764047.170
        43.0004         38.0004
 -21383075.88649 -16622599.41648  21066387.5194   21066388.1354   21066388.351
        56.0004         51.0004
 20 11  7  0 13 30.0000000  0  8G05G06G12G25G09G29G19G02
 -20576643.77649 -16014125.06349  20912706.9824   20912709.4854   20912706.978
        59.0004         54.0004
 -14275004.43248 -11081021.86247  22279028.4084   22279034.1874   22279027.426
        51.0004         46.0004
    379020.58047    260059.61347  25450440.1554   25450444.8094   25450439.770
        47.0004         42.0004
   4320600.95347   3380169.22846  25206722.8134   25206729.7224   25206721.361
        46.0004         41.0004
  -9706245.33148  -7526953.20147  23235625.5754   23235629.7684   23235625.156
        48.0004         43.0004
  -7061285.91748  -5446304.56247  23596222.3964   23596223.6534   23596223.585
        52.0004         47.0004
    138334.37947    118135.39846  24787137.2244   24787141.1224   24787138.839
        43.0004         38.0004
 -21393139.36949 -16630441.09948  21064472.5754   21064473.3144   21064473.447
        56.0004         51.0004
 20 11  7  0 14  0.0000000  0  8G05G06G12G25G09G29G19G02
 -20618926.06149 -16047072.31049  20904661.0864   20904663.4114   20904660.697
        59.0004         55.0004
 -14203688.53748 -11025451.05347  22292598.5084   22292605.2454   22292598.721
        51.0004         46.0004
    469049.67047    330212.08846  25467572.7554   25467576.1794   25467572.041
        46.0004         41.0004
   4386239.73047   3431316.32046  25219213.3144   25219220.5114   25219214.191
        46.0004         41.0004
  -9625400.89648  -7463957.54647  23251009.8704   23251013.6414   23251010.674
        48.0004         43.0004
  -7146366.63448  -5512601.20347  23580031.0534   23580034.0664   23580030.868
        52.0004         47.0004
    259727.24347    212727.15546  24810237.6664   24810240.6694   24810239.088
        43.0004         38.0004
 -21402872.90549 -16638025.68048  21062620.1194   21062621.1624   21062620.642
        56.0004         51.0004
 20 11  7  0 14 30.0000000  0  8G05G06G12G25G09G29G19G02
 -20660853.52449 -16079743.07149  20896682.7284   20896684.7764   20896682.708
        59.0004         55.0004
 -14132091.94148 -10969661.52247  22306223.3744   22306229.0514   22306223.343
        50.0004         46.0004
    559119.77347    400396.54646  25484711.6174   25484716.5874   25484709.756
        46.0004         41.0004
   4452179.94147   3482698.20847  25231761.7054   25231768.4214   25231761.495
        46.0004         42.0004
  -9544179.51248  -7400668.16547  23266465.3444   23266468.9484   23266465.846
        48.0004         43.0004
  -7231068.68248  -5578602.79847  23563913.3164   23563915.1974   23563914.112
        52.0004         47.0004
    381159.83747    307349.87746  24833345.6934   24833349.6414   24833347.745
        43.0004         38.0004
 -21412275.21349 -16645352.15748  21060830.7444   21060831.7584   21060831.142
        56.0004         51.0004
 20 11  7  0 15  0.0000000  0  9G05G06G12G25G09G29G19G13G02
 -20702426.58549 -16112137.66949  20888771.4294   20888773.6664   20888771.050
        59.0004         54.0004
 -14060215.32048 -10913653.79447  22319901.0134   22319906.6304   22319900.535
        50.0004         46.0004
    649227.82347    470610.55646  25501860.3974   25501862.1904   25501860.439
        46.0004         41.0004
   4518418.52447   3534312.64646  25244366.2214   25244372.6854   25244365.007
        46.0004         41.0004
  -9462583.89748  -7337087.17747  23281992.2504   23281995.9734   23281992.485
        48.0004         43.0004
  -7315389.65348  -5644307.44147  23547867.2944   23547869.7974   23547866.753
        52.0004         47.0004
    502629.43747    402001.44746  24856461.6214   24856463.5684   24856461.126
        43.0004         38.0004
   -322412.11847   -191322.92746  23956553.3324   23956556.9154   23956553.162
        47.0004         36.0004
 -21421345.47049 -16652419.90048  21059105.2734   21059105.6134   21059105.837
        56.0004         51.0004
 20 11  7  0 15 30.0000000  0  9G05G06G12G25G09G29G19G13G02
 -20743644.97249 -16144255.89149  20880927.8444   20880930.0264   20880927.324
        59.0004         54.0004
 -13988059.04048 -10857428.14747  22333631.4844   22333637.8024   22333630.724
        50.0004         46.0004
    739370.94947    540851.85346  25519013.4514   25519016.2354   25519013.323
        45.0004         40.0004
   4584952.64347   3586157.35247  25257028.3434   25257035.0684   25257026.485
        46.0004         42.0004
  -9380616.49147  -7273216.48347  23297589.9094   23297594.7144   23297589.027
        47.0004         43.0004
  -7399326.59148  -5709712.84547  23531894.7454   23531897.4054   23531894.169
        52.0004         47.0004
    624133.86347    496680.15646  24879582.1474   24879584.9304   24879583.273
        42.0004         38.0004
   -438512.83047   -281790.93546  23934460.3264   23934463.9454   23934458.657
        43.0004         36.0004
 -21430082.44749 -16659227.94548  21057442.6904   21057443.0944   21057443.450
        56.0004         52.0004
 20 11  7  0 16  0.0000000  0 10G05G06G12G25G09G29G19G07G13G02
 -20784508.17649 -16176097.35849  20873151.9754   20873153.9664   20873151.735
        59.0004         54.0004
 -13915623.66748 -10800985.01847  22347415.3964   22347421.2144   22347415.140
        50.0004         45.0004
    829545.95947    611118.06746  25536174.0944   25536174.9394   25536174.156
        45.0004         40.0004
   4651779.37147   3638230.06646  25269744.6814   25269751.0164   25269742.371
        46.0004         41.0004
  -9298279.82047  -7209058.07047  23313257.6014   23313263.2584   23313258.032
        47.0004         43.0004
  -7482876.70648  -5774816.81247  23515995.6834   23515998.0904   23515995.507
        52.0004         47.0004
    745670.20647    591383.71346  24902710.6614   24902714.8194   24902710.544
        43.0004         38.0004
                                                                  24979355.404

   -554497.49847   -372168.57446  23912389.1904   23912392.7144   23912389.076
        42.0004         36.0004
 -21438484.99449 -16665775.38248  21055843.4024   21055844.1014   21055844.367
        56.0004         51.0004
 20 11  7  0 16 30.0000000  0 10G05G06G12G25G09G29G19G07G13G02
 -20825016.28549 -16207662.11949  20865443.7294   20865445.6104   20865443.896
        59.0004         55.0004
 -13842909.81948 -10744324.89747  22361253.1784   22361258.5214   22361252.110
        50.0004         46.0004
    919749.96047    681406.86446  25553338.9484   25553340.1044   25553340.151
        45.0004         40.0004
   4718895.68347   3690528.42247  25282516.8724   25282522.5524   25282518.488
        47.0004         42.0004
  -9215576.57747  -7144614.00147  23328995.6244   23329000.8284   23328995.392
        47.0004         43.0004
  -7566037.59848  -5839617.50747  23500170.5964   23500172.4534   23500170.624
        52.0004         47.0004
    867236.65147    686110.69846  24925843.8304   24925846.1354   24925845.040
        43.0004         38.0004
   -141972.85848    -87896.84846  24969222.7164   24969225.0734   24969221.306
        48.0004         37.0004
   -670363.15746   -462453.48046  23890341.3554   23890344.6024   23890339.498
        41.0004         37.0004
 -21446552.10549 -16672061.45148  21054308.3514   21054309.1224   21054308.785
        56.0004         52.0004
 20 11  7  0 17  0.0000000  0 10G05G06G12G25G09G29G19G07G13G02
 -20865169.26949 -16238950.14949  20857802.7004   20857804.8464   20857802.717
        59.0004         55.0004
 -13769917.95748 -10687448.14247  22375143.0674   22375148.1364   22375142.850
        50.0004         45.0004
   1009979.67747    751715.66746  25570508.7464   25570511.2124   25570506.567
        45.0004         40.0004
   4786298.69147   3743050.22147  25295342.8464   25295348.9704   25295343.811
        47.0004         42.0004
  -9132509.23947  -7079886.22847  23344802.8114   23344807.6034   23344802.121
        47.0004         42.0004
  -7648806.28448  -5904112.57748  23484419.9034   23484422.6804   23484419.423
        52.0004         48.0004
    988830.31947    780858.91046  24948982.6414   24948984.8234   24948983.882
        43.0004         38.0004
   -194913.46647   -129149.25246  24959147.8634   24959150.7884   24959148.755
        44.0004         37.0004
   -786107.28746   -552643.66146  23868315.5154   23868317.3604   23868314.256
        41.0004         37.0004
 -21454282.62749 -16678085.25148  21052837.6634   21052837.9994   21052838.165
        56.0004         52.0004
 20 11  7  0 17 30.0000000  0 10G05G06G12G25G09G29G19G07G13G02
 -20904967.30549 -16269961.60149  20850229.0224   20850231.4804   20850228.707
        59.0004         54.0004
 -13696648.77248 -10630355.29947  22389085.7754   22389090.9374   22389085.082
        50.0004         45.0004
   1100231.95547    822042.09346  25587684.4424   25587685.7754   25587684.948
        45.0004         40.0004
   4853985.34547   3795793.04346  25308222.5594   25308228.8514   25308224.966
        46.0004         41.0004
  -9049080.47647  -7014876.82047  23360679.3554   23360684.5534   23360679.830
        47.0004         43.0004
  -7731180.16948  -5968299.99048  23468745.0104   23468748.4874   23468745.542
        52.0004         48.0004
   1110448.63747    875626.35246  24972126.3954   24972129.7084   24972126.619
        43.0004         39.0004
   -247543.60847   -170159.73646  24949132.1724   24949134.4184   24949132.719
        43.0004         38.0004
   -901727.16847   -642737.02546  23846313.8784   23846316.7784   23846313.592
        42.0004         37.0004
 -21461675.78649 -16683846.16948  21051430.6084   21051431.2244   21051431.628
        56.0004         52.0004
 20 11  7  0 18  0.0000000  0 10G05G06G12G25G09G29G19G07G13G02
 -20944410.35849 -16300696.45049  20842723.2734   20842725.7594   20842722.933
        59.0004         54.0004
 -13623102.64348 -10573046.64947  22403081.6264   22403085.5724   22403081.057
        50.0004         45.0004
   1190503.60147    892383.63146  25604861.0104   25604865.3984   25604861.202
        44.0004         39.0004
   4921952.84847   3848754.70246  25321156.3404   25321162.1604   25321157.733
        46.0004         41.0004
  -8965292.77547  -6949587.71147  23376623.6644   23376628.8294   23376622.945
        47.0004         43.0004
  -7813156.26048  -6032177.46748  23453145.4014   23453148.3424   23453145.583
        53.0004         48.0004
   1232089.28447    970411.19546  24995272.8724   24995275.7394   24995273.687
        43.0004         38.0004
   -299860.83147   -210926.37246  24939175.9604   24939180.1204   24939174.937
        43.0004         38.0004
  -1017219.98247   -732731.37146  23824335.7724   23824338.8574   23824335.358
        42.0004         37.0004
 -21468730.12449 -16689343.06948  21050087.9654   21050088.9014   21050088.801
        56.0004         52.0004
 20 11  7  0 18 30.0000000  0 10G05G06G12G25G09G29G19G07G13G02
 -20983497.99049 -16331154.33849  20835285.3134   20835287.4754   20835285.312
        59.0004         54.0004
 -13549280.29548 -10515522.76247  22417128.9044   22417133.8604   22417128.241
        50.0004         45.0004
   1280792.14847    962738.28746  25622041.1214   25622046.1834   25622043.490
        43.0004         38.0004
   4990198.07847   3901932.74546  25334142.8224   25334149.3604   25334144.783
        45.0004         40.0004
  -8881148.79147  -6884020.99147  23392635.6274   23392641.3264   23392635.860
        47.0004         43.0004
  -7894732.44748  -6095743.32048  23437622.4884   23437624.4154   23437622.168
        53.0004         48.0004
   1353749.70947   1065211.44446  25018423.6734   25018427.1744   25018425.308
        43.0004         38.0004
   -351862.69547   -251447.32246  24929279.7854   24929283.4594   24929279.921
        43.0004         38.0004
  -1132583.19247   -822624.74446  23802382.7434   23802385.1514   23802385.443
        42.0004         38.0004
 -21475444.87549 -16694575.36048  21048810.1614   21048810.9114   21048811.351
        56.0004         52.0004
 20 11  7  0 19  0.0000000  0 11G30G05G06G12G25G09G29G19G07G13G02
                                                                  25143175.586

 -21022230.40649 -16361335.43949  20827915.0294   20827916.8784   20827914.980
        59.0004         55.0004
 -13475182.21848 -10457784.01747  22431229.2204   22431234.8524   22431228.515
        50.0004         45.0004
   1371094.33357   1033103.57556  25639225.4725   25639229.8445   25639225.153
        43.0004         38.0004
   5058718.17357   3955324.91856  25347181.5355   25347189.6015   25347183.048
        45.0004         41.0004
  -8796651.04447  -6818178.62947  23408715.2924   23408719.7614   23408715.409
        47.0004         43.0004
  -7975905.53048  -6158995.07548  23422175.4744   23422177.5864   23422175.843
        53.0004         48.0004
   1475427.19547   1160025.01046  25041577.9354   25041581.1114   25041579.991
        43.0004         38.0004
   -403546.66147   -291720.53846  24919445.8974   24919448.8854   24919446.233
        43.0004         39.0004
  -1247813.89247   -912414.83946  23780454.6464   23780459.0764   23780454.120
        42.0004         38.0004
 -21481818.84449 -16699542.10148  21047597.4034   21047598.0404   21047598.448
        56.0004         52.0004
 20 11  7  0 19 30.0000000  0 11G30G05G06G12G25G09G29G19G07G13G02
                                                                  25128264.890

 -21060607.54849 -16391239.70049  20820611.8034   20820613.8294   20820611.673
        59.0004         54.0004
 -13400809.04248 -10399830.91047  22445382.3454   22445387.7904   22445381.844
        50.0004         45.0004
   1461406.88057   1103477.01056  25656410.4545   25656414.4325   25656412.284
        42.0004         37.0004
   5127510.00647   4008928.90146  25360271.6524   25360279.7644   25360273.010
        46.0004         41.0004
  -8711802.17447  -6752062.66647  23424861.4854   23424865.5854   23424859.838
        47.0004         42.0004
  -8056673.30848  -6221930.99848  23406805.2964   23406808.6094   23406804.202
        53.0004         48.0004
   1597119.52147   1254850.12046  25064735.9314   25064738.7374   25064738.125
        43.0004         38.0004
   -454910.85147   -331744.56846  24909671.2074   24909674.4114   24909672.479
        44.0004         39.0004
  -1362909.61347  -1002099.76946  23758552.4714   23758555.8864   23758554.869
        42.0004         38.0004
 -21487850.91849 -16704242.43048  21046449.6954   21046450.1504   21046450.383
        56.0004         52.0004
 20 11  7  0 20  0.0000000  0 10G30G05G06G25G09G29G19G07G13G02
   -199836.90148   -115406.53945  25113373.8534   25113383.0914   25113376.799
        49.0004         35.0004
 -21098628.93349 -16420866.74549  20813376.6844   20813378.5914   20813375.882
        59.0004         55.0004
 -13326161.31348 -10341663.86147  22459587.1084   22459592.4454   22459585.482
        50.0004         45.0004
   5196570.74447   4062742.43846  25373414.7474   25373420.9484   25373416.310
        46.0004         41.0004
  -8626604.74047  -6685675.09947  23441074.2294   23441078.2074   23441074.622
        47.0004         42.0004
  -8137032.66248  -6284548.66548  23391513.6574   23391516.1054   23391513.062
        53.0004         48.0004
   1718824.09547   1349684.76846  25087895.4694   25087898.4224   25087897.736
        42.0004         37.0004
   -505952.53947   -371517.31646  24899959.4994   24899961.7114   24899959.166
        44.0004         39.0004
  -1477867.40947  -1091677.23246  23736678.1534   23736680.0994   23736677.449
        43.0004         38.0004
 -21493539.92849 -16708675.43848  21045366.9234   21045367.6774   21045367.629
        56.0004         52.0004
 20 11  7  0 20 30.0000000  0 10G30G05G06G25G09G29G19G07G13G02
   -277963.66547   -176284.50345  25098508.3344   25098513.4964   25098509.584
        44.0004         35.0004
 -21136294.67049 -16450216.66549  20806209.1974   20806211.2524   20806209.187
        59.0004         55.0004
 -13251239.66848 -10283283.37247  22473843.5774   22473850.2864   22473843.597
        50.0004         45.0004
   5265897.28747   4116763.07246  25386608.3014   25386613.6054   25386608.840
        46.0004         41.0004
  -8541061.39947  -6619017.98847  23457353.0494   23457356.5354   23457353.268
        47.0004         42.0004
  -8216981.05548  -6346846.11948  23376300.2254   23376302.2894   23376301.357
        53.0004         48.0004
   1840538.33646   1444526.96446  25111056.5154   25111060.3674   25111058.595
        41.0004         36.0004
   -556669.57747   -411037.10346  24890308.3354   24890310.9884   24890307.702
        44.0004         39.0004
  -1592684.88047  -1181145.33546  23714827.6134   23714831.2554   23714828.930
        43.0004         38.0004
 -21498884.91249 -16712840.37548  21044349.9024   21044350.6004   21044350.155
        56.0004         52.0004
 20 11  7  0 21  0.0000000  0 10G30G05G06G25G09G29G19G07G13G02
   -355970.08946   -237068.66845  25083663.3824   25083670.2044   25083664.302
        41.0004         35.0004
 -21173605.44649 -16479289.98349  20799108.9714   20799111.3014   20799108.758
        59.0004         55.0004
 -13176044.71348 -10224689.92147  22488153.6074   22488159.2454   22488152.619
        50.0004         45.0004
   5335486.58747   4170988.49946  25399849.9214   25399855.6324   25399850.960
        45.0004         40.0004
  -8455174.70247  -6552093.33347  23473695.2164   23473700.9054   23473695.618
        47.0004         42.0004
  -8296516.02648  -6408821.42548  23361165.2634   23361167.3724   23361165.382
        53.0004         48.0004
   1962260.04946   1539374.97546  25134220.8794   25134223.7504   25134220.963
        41.0004         36.0004
   -607059.44847   -450301.93946  24880718.8794   24880721.9614   24880718.311
        44.0004         39.0004
  -1707358.79347  -1270501.61046  23693006.9234   23693010.8594   23693006.575
        43.0004         39.0004
 -21503884.63349 -16716736.27548  21043398.4804   21043399.1674   21043399.131
        56.0004         52.0004
 20 11  7  0 21 30.0000000  0 10G30G05G06G25G09G29G19G07G13G02
   -433853.32146   -297756.88246  25068843.7784   25068852.7514   25068843.062
        41.0004         36.0004
 -21210560.35549 -16508086.00449  20792076.6694   20792079.1254   20792076.647
        59.0004         55.0004
 -13100577.00548 -10165883.94947  22502515.0544   22502520.4754   22502514.345
        50.0004         45.0004
   5405335.92947   4225416.47246  25413141.1734   25413147.9634   25413141.399
        45.0004         41.0004
  -8368947.22847  -6484903.14447  23490103.6844   23490109.2234   23490103.473
        47.0004         42.0004
  -8375635.54848  -6470472.99248  23346109.3184   23346111.5214   23346108.819
        53.0004         48.0004
   2083987.15646   1634227.20546  25157384.6454   25157387.1684   25157384.993
        40.0004         36.0004
   -657119.90247   -489310.06646  24871192.5754   24871194.2574   24871192.597
        44.0004         39.0004
  -1821886.70247  -1359744.06246  23671212.1394   23671215.6144   23671212.891
        44.0004         39.0004
 -21508538.36349 -16720362.57848  21042512.9104   21042513.6754   21042513.692
        56.0004         51.0004
 20 11  7  0 22  0.0000000  0 10G30G05G06G25G09G29G19G07G13G02
   -511610.46246   -358346.78746  25054046.6964   25054054.6534   25054046.505
        41.0004         36.0004
 -21247159.41949 -16536604.74449  20785111.8774   20785114.6204   20785112.142
        59.0004         55.0004
 -13024837.25348 -10106865.98347  22516927.7624   22516932.8124   22516927.488
        50.0004         45.0004
   5475442.00247   4280044.53546  25426482.5984   25426488.8084   25426482.906
        46.0004         41.0004
  -8282381.61247  -6417449.47447  23506577.0364   23506582.5014   23506576.971
        47.0004         42.0004
  -8454335.87548  -6531797.90848  23331132.8494   23331135.4754   23331132.766
        53.0004         48.0004
   2205716.47046   1729081.16645  25180550.5304   25180552.0194   25180550.568
        40.0004         35.0004
   -706848.79147   -528059.82246  24861729.3264   24861730.6684   24861730.563
        44.0004         39.0004
  -1936265.85347  -1448870.63846  23649446.8684   23649449.4604   23649446.064
        44.0004         39.0004
 -21512844.95949 -16723718.38748  21041693.4364   21041694.2094   21041694.021
        56.0004         52.0004
 20 11  7  0 22 30.0000000  0 10G30G05G06G25G09G29G19G07G13G02
   -589238.50546   -418836.09846  25039274.9184   25039279.4604   25039275.076
        41.0004         36.0004
 -21283402.53249 -16564846.12349  20778215.4714   20778217.6774   20778215.375
        59.0004         55.0004
 -12948825.95348 -10047636.42047  22531391.7404   22531397.7014   22531391.409
        50.0004         45.0004
   5545801.99557   4334870.48356  25439870.3395   25439877.4105   25439869.988
        45.0004         41.0004
  -8195480.40747  -6349734.30847  23523114.3664   23523119.8844   23523114.127
        47.0004         42.0004
  -8532614.58748  -6592794.29748  23316236.9704   23316239.6764   23316237.639
        53.0004         48.0004
   2327445.55446   1823934.93145  25203711.9824   25203716.9834   25203714.229
        40.0004         35.0004
   -756243.63147   -566549.28346  24852329.1404   24852332.4554   24852330.195
        44.0004         39.0004
  -2050493.48047  -1537879.14546  23627710.3214   23627712.9254   23627711.234
        44.0004         39.0004
 -21516803.21649 -16726802.75848  21040940.1524   21040941.0544   21040940.886
        56.0004         52.0004
 20 11  7  0 23  0.0000000  0 10G30G05G06G25G09G29G19G07G13G02
   -666734.66546   -479222.64946  25024529.3974   25024533.9714   25024527.420
        41.0004         36.0004
 -21319290.39349 -16592810.67249  20771386.2294   20771388.4564   20771386.346
        59.0004         55.0004
 -12872543.86348  -9988195.85447  22545908.0384   22545913.4724   22545907.260
        50.0004         45.0004
   5616412.83047   4389891.89946  25453307.2844   25453314.5554   25453309.392
        45.0004         41.0004
  -8108246.32447  -6281759.73447  23539714.0354   23539719.1834   23539714.121
        47.0004         42.0004
  -8610469.43848  -6653460.41348  23301421.7524   23301424.4484   23301421.834
        53.0004         48.0004
   2449172.10346   1918786.68845  25226876.7924   25226879.8704   25226877.561
        40.0004         35.0004
   -805302.22747   -604776.72646  24842994.1994   24842997.7644   24842995.197
        44.0004         39.0004
  -2164566.92547  -1626767.50546  23606002.4384   23606004.2244   23606002.747
        44.0004         39.0004
 -21520412.23349 -16729614.99548  21040253.5964   21040254.3894   21040254.474
        56.0004         52.0004
 20 11  7  0 23 30.0000000  0 10G30G05G06G25G09G29G19G07G13G02
   -744095.96046   -539504.07746  25009806.3224   25009812.6504   25009805.993
        41.0004         37.0004
 -21354822.60049 -16620498.09049  20764624.6534   20764626.7234   20764624.489
        59.0004         55.0004
 -12795991.50948  -9928544.69347  22560475.2724   22560479.9584   22560474.876
        50.0004         45.0004
   5687271.50647   4445106.39646  25466791.9204   25466798.7494   25466792.476
        46.0004         41.0004
  -8020681.84247  -6213527.71947  23556377.4374   23556382.8934   23556377.579
        47.0004         42.0004
  -8687897.79748  -6713794.19248  23286687.9814   23286690.1354   23286688.313
        53.0004         49.0004
   2570893.81946   2013634.72645  25250040.2544   25250043.9494   25250041.487
        40.0004         35.0004
   -854022.21647   -642740.30746  24833722.9854   24833726.1454   24833722.420
        44.0004         39.0004
  -2278483.41947  -1715533.58746  23584324.6414   23584328.4194   23584324.608
        44.0004         39.0004
 -21523670.87849 -16732154.20648  21039633.2304   21039634.0674   21039633.737
        56.0004         51.0004
 20 11  7  0 24  0.0000000  0 10G30G05G06G25G09G29G19G07G13G02
   -821319.57246   -599678.17846  24995111.2744   24995117.8554   24995113.398
        41.0004         36.0004
 -21389998.95949 -16647908.23049  20757930.7154   20757932.6384   20757930.516
        59.0004         55.0004
 -12719169.61848  -9868683.49947  22575094.2434   22575099.1814   22575093.061
        50.0004         45.0004
   5758374.92147   4500511.64146  25480323.1284   25480330.4474   25480323.691
        45.0004         41.0004
  -7932789.67547  -6145040.35747  23573103.0994   23573107.8474   23573102.363
        47.0004         42.0004
  -8764896.85448  -6773793.45848  23272035.0054   23272037.9344   23272034.750
        53.0004         49.0004
   2692608.16456   2108476.99955  25273200.1095   25273204.0955   25273202.566
        39.0004         35.0004
   -902401.44647   -680438.35846  24824516.2524   24824520.8304   24824516.162
        44.0004         39.0004
  -2392240.29147  -1804175.28446  23562678.0014   23562680.3324   23562677.972
        44.0004         40.0004
 -21526578.33149 -16734419.76348  21039080.0474   21039080.8194   21039080.737
        56.0004         52.0004
 20 11  7  0 24 30.0000000  0  9G05G06G25G09G29G19G07G13G02
 -21424819.71249 -16675041.27649  20751304.6444   20751306.5734   20751304.525
        59.0004         55.0004
 -12642078.81348  -9808612.77547  22589764.2394   22589769.5674   22589763.729
        50.0004         45.0004
   5829720.12257   4556105.29156  25493898.8665   25493906.1655   25493900.029
        45.0004         41.0004
  -7844572.41647  -6076299.66747  23589889.4854   23589895.2464   23589889.866
        47.0004         42.0004
  -8841463.90848  -6833456.09948  23257464.5404   23257467.4904   23257464.159
        53.0004         48.0004
   2814312.65546   2203311.61945  25296359.9514   25296362.5904   25296362.776
        39.0004         34.0004
   -950437.49747   -717869.00546  24815376.7214   24815378.9924   24815376.138
        44.0004         39.0004
  -2505834.62947  -1892690.35346  23541061.1294   23541063.7624   23541062.324
        44.0004         40.0004
 -21529133.54549 -16736410.84748  21038593.9554   21038594.8294   21038594.312
        56.0004         52.0004
 20 11  7  0 25  0.0000000  0 10G30G05G06G25G09G29G19G07G13G02
   -975341.80846   -719695.22446  24965801.8094   24965808.4284   24965798.887
        41.0004         37.0004
 -21459284.79349 -16701897.17849  20744746.0174   20744748.0974   20744745.702
        59.0004         55.0004
 -12564719.72048  -9748332.98447  22604484.6234   22604491.5234   22604484.465
        50.0004         45.0004
   5901304.11747   4611884.97646  25507520.9994   25507528.8684   25507520.962
        45.0004         40.0004
  -7756032.57447  -6007307.61947  23606738.3234   23606742.9864   23606738.220
        46.0004         42.0004
  -8917596.68948  -6892780.33848  23242977.2304   23242979.6904   23242977.129
        53.0004         49.0004
   2936004.90956   2298136.73355  25319520.4345   25319523.6965   25319519.665
        39.0004         34.0004
   -998128.30847   -755030.63346  24806300.9544   24806303.4254   24806300.875
        44.0004         39.0004
  -2619264.03447  -1981076.87746  23519476.2104   23519480.0244   23519475.917
        45.0004         40.0004
 -21531335.42849 -16738126.60848  21038174.9324   21038175.5864   21038175.611
        56.0004         52.0004
 20 11  7  0 25 30.0000000  0  9G30G05G06G25G09G29G07G13G02
  -1052134.67347   -779533.72246  24951188.3484   24951194.6464   24951189.437
        42.0004         38.0004
 -21493394.13449 -16728475.88049  20738255.1274   20738257.4574   20738255.354
        59.0004         55.0004
 -12487093.06048  -9687844.69747  22619257.1004   22619262.6934   22619256.651
        50.0004         45.0004
   5973123.82657   4667848.29356  25521186.3865   25521195.0495   25521186.414
        45.0004         40.0004
  -7667172.90147  -5938066.35747  23623648.4104   23623652.7654   23623648.121
        46.0004         42.0004
  -8993292.57848  -6951764.13748  23228572.4454   23228575.0664   23228571.985
        53.0004         48.0004
  -1045471.81047   -791921.64546  24797290.7074   24797295.4884   24797290.228
        44.0004         40.0004
  -2732525.80647  -2069332.78146  23497923.4284   23497926.5774   23497924.151
        45.0004         40.0004
 -21533183.17349 -16739566.41548  21037823.2374   21037824.1354   21037824.085
        56.0004         52.0004
 20 11  7  0 26  0.0000000  0  8G30G05G06G09G29G07G13G02
  -1128778.19647   -839255.81646  24936601.9584   24936610.1014   24936602.918
        43.0004         38.0004
 -21527147.86849 -16754777.49049  20731832.3204   20731834.4884   20731831.932
        59.0004         55.0004
 -12409199.44748  -9627148.41447  22634080.3214   22634085.0344   22634079.808
        50.0004         45.0004
  -7577995.97047  -5868577.85247  23640618.1914   23640623.2344   23640616.277
        46.0004         42.0004
  -9068548.68548  -7010405.26248  23214252.2144   23214254.5504   23214252.775
        53.0004         49.0004
  -1092465.64247   -828540.20946  24788349.1894   24788351.0684   24788348.488
        44.0004         39.0004
  -2845616.91347  -2157455.72046  23476402.7374   23476406.0254   23476403.265
        45.0004         40.0004
 -21534675.46849 -16740729.24748  21037539.2584   21037540.2274   21037539.572
        56.0004         52.0004
 20 11  7  0 26 30.0000000  0  8G30G05G06G09G29G07G13G02
  -1205269.45547   -898859.28046  24922045.9444   24922054.4644   24922046.438
        43.0004         38.0004
 -21560546.32849 -16780802.25849  20725476.6254   20725478.7824   20725476.311
        59.0004         55.0004
 -12331039.62048  -9566244.68347  22648953.1304   22648957.7024   22648953.340
        50.0004         45.0004
  -7488504.39747  -5798844.19047  23657647.2504   23657653.2664   23657647.036
        46.0004         42.0004
  -9143362.68048  -7068701.87548  23200015.9794   23200018.0524   23200016.389
        53.0004         49.0004
  -1139107.37047   -864884.38346  24779473.5354   24779475.2724   24779471.719
        44.0004         39.0004
  -2958534.83647  -2245443.70246  23454915.2474   23454918.0504   23454914.865
        45.0004         40.0004
 -21535811.29249 -16741614.31748  21037323.1674   21037324.0534   21037323.753
        56.0004         52.0004
 20 11  7  0 27  0.0000000  0  8G30G05G06G09G29G07G13G02
  -1281605.39747   -958341.75046  24907521.0074   24907527.7344   24907522.260
        43.0004         38.0004
 -21593588.99849 -16806549.79949  20719188.8084   20719191.0654   20719188.589
        59.0004         55.0004
 -12252614.12048  -9505133.93247  22663876.9464   22663882.8414   22663875.792
        49.0004         44.0004
  -7398700.85147  -5728867.42147  23674735.8084   23674741.8454   23674735.359
        46.0004         42.0004
  -9217731.98649  -7126651.97448  23185864.2394   23185866.1264   23185864.387
        54.0004         49.0004
  -1185394.82747   -900952.50846  24770664.7674   24770668.9104   24770664.256
        44.0004         39.0004
  -3071276.46747  -2333294.31246  23433461.0554   23433464.0314   23433460.441
        45.0004         41.0004
 -21536589.74249 -16742220.91148  21037175.1204   21037175.8044   21037176.008
        56.0004         52.0004
 20 11  7  0 27 30.0000000  0  8G30G05G06G09G29G07G13G02
  -1357783.46647  -1017701.21046  24893024.9944   24893030.1534   24893026.104
        43.0004         38.0004
 -21626275.96049 -16832020.16349  20712968.7574   20712970.9024   20712968.871
        59.0004         55.0004
 -12173923.82148  -9443816.84647  22678850.9514   22678856.0514   22678851.000
        49.0004         44.0004
  -7308587.84947  -5658649.51146  23691883.9464   23691890.3014   23691883.381
        46.0004         41.0004
  -9291654.14449  -7184253.66448  23171797.2504   23171799.5734   23171797.434
        54.0004         49.0004
  -1231326.09547   -936743.07946  24761923.1664   24761927.3234   24761923.966
        44.0004         39.0004
  -3183839.52647  -2421005.77646  23412042.0714   23412044.7934   23412041.575
        45.0004         41.0004
 -21537010.08949 -16742548.47348  21037095.0804   21037095.9314   21037095.253
        56.0004         51.0004
 20 11  7  0 28  0.0000000  0  8G30G05G06G09G29G07G13G02
  -1433800.45747  -1076935.16046  24878560.2754   24878565.0754   24878557.887
        43.0004         38.0004
 -21658607.41049 -16857213.50049  20706816.0304   20706818.2504   20706815.672
        59.0004         55.0004
 -12094969.29248  -9382293.86047  22693875.5064   22693881.5644   22693874.450
        49.0004         45.0004
  -7218168.00447  -5588192.51446  23709089.8884   23709096.4444   23709089.452
        46.0004         41.0004
  -9365126.77049  -7241505.05248  23157815.2244   23157817.7084   23157815.611
        54.0004         49.0004
  -1276898.64047   -972254.14246  24753251.8784   24753255.3624   24753252.292
        43.0004         39.0004
  -3296221.15447  -2508575.88646  23390655.6504   23390658.4994   23390655.812
        45.0004         41.0004
 -21537071.11149 -16742596.03148  21037083.4664   21037084.0104   21037084.017
        56.0004         51.0004
 20 11  7  0 28 30.0000000  0  8G30G05G06G09G29G07G13G02
  -1509653.59347  -1136041.51146  24864125.1684   24864131.4024   24864123.735
        43.0004         38.0004
 -21690583.33749 -16882129.81149  20700731.4654   20700733.4284   20700731.440
        59.0004         55.0004
 -12015751.28448  -9320565.57347  22708950.6534   22708955.9834   22708950.398
        49.0004         44.0004
  -7127444.02547  -5517498.53446  23726354.6074   23726360.6414   23726353.805
        46.0004         41.0004
  -9438147.02349  -7298403.95048  23143920.1094   23143922.2864   23143919.936
        54.0004         49.0004
  -1322110.53047  -1007484.17346  24744648.6914   24744651.8584   24744648.149
        43.0004         39.0004
  -3408418.60547  -2596002.48246  23369305.3964   23369309.0944   23369305.057
        45.0004         41.0004
 -21536771.80349 -16742362.80648  21037140.5514   21037141.1584   21037141.172
        56.0004         51.0004
 20 11  7  0 29  0.0000000  0  8G30G05G06G09G29G07G13G02
  -1585339.97247  -1195017.87446  24849721.8834   24849729.1184   24849722.809
        43.0004         38.0004
 -21722203.96049 -16906769.26749  20694714.1614   20694716.3284   20694714.232
        59.0004         55.0004
 -11936270.49848  -9258632.51647  22724075.1254   22724079.8874   22724074.888
        49.0004         44.0004
  -7036418.50147  -5446569.56646  23743675.7984   23743681.5984   23743676.153
        46.0004         41.0004
  -9510712.56049  -7354948.52948  23130111.1684   23130113.1944   23130111.263
        54.0004         49.0004
  -1366959.53347  -1042431.45146  24736113.7484   24736117.2124   24736114.083
        43.0004         39.0004
  -3520429.08347  -2683283.36346  23347990.8654   23347993.9154   23347991.366
        45.0004         41.0004
 -21536111.43349 -16741848.24948  21037266.1464   21037266.5414   21037266.973
        56.0004         51.0004
 20 11  7  0 29 30.0000000  0  8G30G05G06G09G29G07G13G02
  -1660856.60247  -1253862.01846  24835352.0854   24835358.7124   24835351.531
        43.0004         38.0004
 -21753469.05949 -16931131.67949  20688764.3414   20688766.6644   20688764.190
        59.0004         55.0004
 -11856527.65848  -9196495.27747  22739248.9264   22739254.2694   22739248.786
        49.0004         44.0004
  -6945094.08147  -5375407.71146  23761053.9744   23761060.6394   23761053.914
        46.0004         41.0004
  -9582821.08649  -7411136.97048  23116389.3854   23116391.5104   23116389.058
        54.0004         49.0004
  -1411443.51647  -1077094.27646  24727647.8264   24727651.7594   24727648.519
        43.0004         39.0004
  -3632249.94647  -2770416.50646  23326711.2914   23326715.3004   23326711.107
        45.0004         41.0004
 -21535088.52849 -16741051.19248  21037460.7334   21037461.4444   21037461.543
        56.0004         51.0004
 20 11  7  0 30  0.0000000  0  8G30G05G06G09G29G07G13G02
  -1736200.61447  -1312571.66146  24821014.8874   24821020.7854   24821015.118
        43.0004         38.0004
 -21784378.81849 -16955217.21549  20682882.8044   20682884.9574   20682882.658
        59.0004         55.0004
 -11776523.49448  -9134154.38747  22754473.6164   22754478.6764   22754473.536
        49.0004         44.0004
  -6853473.34547  -5304014.98446  23778490.0114   23778495.5464   23778489.830
        46.0004         41.0004
  -9654469.40849  -7466966.82548  23102755.5944   23102757.4284   23102755.578
        54.0004         49.0004
  -1455560.54547  -1111471.17546  24719254.0134   24719256.6424   24719253.445
        43.0004         39.0004
  -3743878.40447  -2857399.71946  23305469.6204   23305472.5104   23305469.959
        45.0004         41.0004
 -21533702.75349 -16739971.37848  21037724.4974   21037725.0624   21037725.270
        56.0004         51.0004
 20 11  7  0 30 30.0000000  0  8G30G05G06G09G29G07G13G02
  -1811369.11447  -1371144.51546  24806709.8904   24806716.2624   24806709.436
        43.0004         38.0004
 -21814933.10649 -16979025.75749  20677068.4714   20677070.7834   20677068.474
        59.0004         55.0004
 -11696258.70448  -9071610.43347  22769748.1514   22769753.1984   22769747.587
        49.0004         44.0004
  -6761559.06147  -5232393.51046  23795981.3684   23795987.0374   23795981.768
        46.0004         41.0004
  -9725655.48549  -7522436.47248  23089209.2344   23089211.1044   23089208.869
        54.0004         49.0004
  -1499308.20547  -1145560.23646  24710929.3764   24710931.8084   24710928.861
        44.0004         39.0004
  -3855311.91147  -2944231.00946  23284264.4704   23284268.4714   23284264.566
        45.0004         41.0004
 -21531952.93149 -16738607.88948  21038057.3484   21038058.3924   21038058.348
        56.0004         51.0004
 20 11  7  0 31  0.0000000  0  8G30G05G06G09G29G07G13G02
  -1886359.17547  -1429578.33746  24792438.5634   24792447.7064   24792438.493
        43.0004         38.0004
 -21845132.31049 -17002557.61349  20671321.5224   20671323.9464   20671321.227
        59.0004         55.0004
 -11615734.04848  -9008863.98347  22785071.6594   22785077.2044   22785072.134
        49.0004         44.0004
  -6669353.55947  -5160545.12346  23813527.3014   23813532.9754   23813526.141
        46.0004         41.0004
  -9796376.69649  -7577543.89548  23075751.2284   23075753.3104   23075750.961
        54.0004         49.0004
  -1542684.46847  -1179359.88146  24702674.3504   24702678.3134   24702672.347
        44.0004         39.0004
  -3966547.59547  -3030908.16446  23263096.9604   23263099.8824   23263097.657
        45.0004         41.0004
 -21529838.16649 -16736960.02248  21038459.9834   21038460.6204   21038460.792
        56.0004         51.0004
 20 11  7  0 31 30.0000000  0  8G30G05G06G09G29G07G13G02
  -1961167.84347  -1487870.84346  24778204.1664   24778210.4984   24778205.201
        43.0004         39.0004
 -21874976.12649 -17025812.53549  20665642.6494   20665645.0874   20665642.657
        59.0004         55.0004
 -11534950.24948  -8945915.60447  22800444.2454   22800449.8404   22800443.994
        49.0004         44.0004
  -6576859.66447  -5088472.02546  23831128.6034   23831132.9544   23831127.772
        46.0004         41.0004
  -9866630.66449  -7632287.24448  23062381.8074   23062384.8864   23062381.520
        54.0004         49.0004
  -1585687.29947  -1212868.56846  24694491.3024   24694495.1174   24694490.627
        44.0004         39.0004
  -4077582.93447  -3117429.19146  23241968.1204   23241969.8464   23241969.007
        46.0004         41.0004
 -21527357.41249 -16735026.96548  21038932.1074   21038932.9244   21038933.228
        56.0004         51.0004
 20 11  7  0 32  0.0000000  0  8G30G05G06G09G29G07G13G02
  -2035792.28947  -1546019.73546  24764002.7584   24764010.4294   24764001.563
        43.0004         39.0004
 -21904464.84649 -17048790.75749  20660031.2204   20660033.4234   20660031.213
        59.0004         55.0004
 -11453908.12448  -8882765.93247  22815865.8674   22815871.8514   22815864.996
        49.0004         44.0004
  -6484079.98247  -5016176.23246  23848783.3634   23848787.5804   23848782.769
        45.0004         40.0004
  -9936415.29149  -7686664.86348  23049102.0244   23049104.7834   23049102.077
        54.0004         49.0004
  -1628314.46847  -1246084.49846  24686379.6884   24686382.7174   24686382.026
        44.0004         39.0004
  -4188414.73747  -3203791.64346  23220876.8834   23220880.0414   23220877.761
        46.0004         41.0004
 -21524509.75349 -16732808.02148  21039474.1764   21039474.8374   21039474.668
        56.0004         51.0004
 20 11  7  0 32 30.0000000  0  8G30G05G06G09G29G07G13G02
  -2110229.55047  -1604022.79046  24749838.0004   24749845.5264   24749838.212
        43.0004         39.0004
 -21933598.46949 -17071492.28149  20654487.1054   20654489.2464   20654486.808
        59.0004         55.0004
 -11372608.36148  -8819415.51247  22831336.8354   22831342.2354   22831336.102
        49.0004         44.0004
  -6391017.09447  -4943659.76746  23866492.8024   23866497.0824   23866492.069
        45.0004         40.0004
 -10005727.78049  -7740674.58448  23035912.5074   23035915.3814   23035912.398
        54.0004         49.0004
  -1670564.06647  -1279006.22446  24678340.2274   24678344.2284   24678339.367
        44.0004         39.0004
  -4299040.94447  -3289993.85546  23199826.8854   23199828.4674   23199824.373
        46.0004         41.0004
 -21521294.57049 -16730302.69848  21040085.6214   21040086.6494   21040086.059
        56.0004         51.0004
 20 11  7  0 33  0.0000000  0  8G30G05G06G09G29G07G13G02
  -2184476.71447  -1661877.72446  24735710.7584   24735716.8804   24735710.198
        44.0004         39.0004
 -21962376.87649 -17093917.00649  20649011.0814   20649012.9674   20649010.969
        59.0004         55.0004
 -11291051.70448  -8755864.90547  22846855.9114   22846861.7054   22846855.536
        49.0004         44.0004
  -6297673.57347  -4870924.61846  23884255.3214   23884260.0534   23884254.615
        45.0004         41.0004
 -10074566.07749  -7794314.79948  23022813.7404   23022815.9804   23022813.944
        54.0004         49.0004
  -1712434.12747  -1311632.18046  24670372.1484   24670376.6874   24670373.113
        44.0004         39.0004
  -4409458.31347  -3376033.33046  23178814.5404   23178816.1134   23178815.128
        45.0004         41.0004
 -21517710.61649 -16727510.02248  21040767.6514   21040768.5534   21040768.494
        56.0004         51.0004
 20 11  7  0 33 30.0000000  0  8G30G05G06G09G29G07G13G02
  -2258530.98047  -1719582.32946  24721618.4354   24721624.3324   24721619.031
        44.0004         39.0004
 -21990800.52449 -17116065.30249  20643601.9684   20643604.0374   20643601.723
        59.0004         55.0004
 -11209239.03148  -8692114.80847  22862424.4684   22862430.3834   22862424.253
        49.0004         44.0004
  -6204052.15847  -4797972.93446  23902070.3224   23902075.3424   23902070.218
        45.0004         41.0004
 -10142927.01149  -7847583.04548  23009805.3804   23009807.6184   23009805.724
        54.0004         50.0004
  -1753922.44147  -1343960.68346  24662476.5814   24662480.0484   24662476.210
        44.0004         39.0004
  -4519664.25247  -3461908.06646  23157842.2454   23157845.4574   23157842.808
        46.0004         41.0004
 -21513756.91149 -16724429.21948  21041520.2194   21041520.7294   21041520.792
        56.0004         51.0004
 20 11  7  0 34  0.0000000  0  8G30G05G06G09G29G07G13G02
  -2332389.35847  -1777134.27346  24707562.1764   24707569.0014   24707562.045
        43.0004         38.0004
 -22018869.43449 -17137937.17849  20638260.6044   20638262.7874   20638260.428
        59.0004         55.0004
 -11127170.98048  -8628165.71347  22878041.6854   22878048.0354   22878041.363
        49.0004         44.0004
  -6110155.30647  -4724806.63546  23919938.4664   23919944.0654   23919938.094
        45.0004         40.0004
 -10210808.47549  -7900477.66948  22996887.6154   22996890.2924   22996887.356
        54.0004         49.0004
  -1795026.92747  -1375990.07746  24654653.8774   24654658.0054   24654654.415
        44.0004         39.0004
  -4629656.16447  -3547616.03146  23136911.3734   23136914.0714   23136911.568
        46.0004         41.0004
 -21509432.69149 -16721059.69548  21042342.9764   21042343.4764   21042344.113
        56.0004         51.0004
 20 11  7  0 34 30.0000000  0  8G30G05G06G09G29G07G13G02
  -2406048.95447  -1834531.35346  24693546.4164   24693552.2244   24693546.419
        43.0004         39.0004
 -22046583.53249 -17159532.59149  20632987.1154   20632988.9864   20632987.021
        59.0004         55.0004
 -11044848.43648  -8564018.33247  22893707.9194   22893712.4634   22893706.672
        49.0004         44.0004
  -6015985.76847  -4651427.83846  23937858.5784   23937864.2474   23937858.356
        45.0004         40.0004
 -10278208.60549  -7952997.22648  22984061.0584   22984063.9574   22984061.018
        54.0004         49.0004
  -1835745.86347  -1407719.05546  24646905.8114   24646909.9924   24646906.457
        44.0004         39.0004
  -4739431.36647  -3633155.11446  23116021.8444   23116024.7734   23116021.579
        46.0004         41.0004
 -21504737.24749 -16717400.90248  21043236.5234   21043236.9914   21043237.283
        56.0004         51.0004
 20 11  7  0 35  0.0000000  0  8G30G05G06G09G29G07G13G02
  -2479506.97747  -1891771.30746  24679567.7104   24679573.8444   24679568.298
        43.0004         38.0004
 -22073943.05349 -17180851.69849  20627780.3594   20627782.6984   20627780.274
        59.0004         55.0004
 -10962272.14548  -8499673.21047  22909421.3414   22909426.6124   22909420.985
        49.0004         44.0004
  -5921546.11847  -4577838.54846  23955828.9874   23955835.5954   23955830.009
        45.0004         40.0004
 -10345124.45849  -8005139.45148  22971327.4614   22971330.5094   22971327.508
        54.0004         49.0004
  -1876076.91047  -1439145.76946  24639231.4634   24639234.6164   24639232.519
        44.0004         39.0004
  -4848987.12047  -3718523.18446  23095173.6434   23095177.0684   23095173.337
        45.0004         41.0004
 -21499669.42249 -16713451.95048  21044200.9614   21044201.4264   21044201.555
        56.0004         51.0004
 20 11  7  0 35 30.0000000  0  8G30G05G06G09G29G07G13G02
  -2552760.45547  -1948851.90246  24665628.0114   24665633.3324   24665627.746
        43.0004         38.0004
 -22100948.17949 -17201894.65549  20622641.6494   20622643.9364   20622641.684
        59.0004         55.0004
 -10879442.92248  -8435131.00147  22925183.4524   22925188.7324   22925181.932
        48.0004         44.0004
  -5826838.96147  -4504040.82746  23973851.7924   23973858.2324   23973852.734
        45.0004         40.0004
 -10411553.59949  -8056902.39848  22958686.2544   22958689.5974   22958686.441
        54.0004         50.0004
  -1916018.31747  -1470268.87146  24631631.0724   24631634.5244   24631632.250
        44.0004         39.0004
  -4958320.81947  -3803718.23546  23074368.2004   23074371.3064   23074368.814
        45.0004         41.0004
 -21494228.64349 -16709212.39148  21045236.3024   21045236.9134   21045236.867
        56.0004         51.0004
 20 11  7  0 36  0.0000000  0  8G30G05G06G09G29G07G13G02
  -2625806.44247  -2005770.80946  24651726.0334   24651735.4544   24651725.568
        43.0004         38.0004
 -22127598.85949 -17222661.40949  20617570.1574   20617572.2984   20617569.935
        60.0004         55.0004
 -10796361.56748  -8370392.32747  22940992.6454   22940999.2714   22940991.691
        48.0004         44.0004
  -5731866.82347  -4430036.63646  23991924.8074   23991931.2424   23991924.133
        45.0004         40.0004
 -10477494.01849  -8108284.52648  22946138.2744   22946141.5204   22946137.802
        54.0004         49.0004
  -1955568.14547  -1501086.86846  24624105.5014   24624108.4664   24624105.677
        44.0004         40.0004
  -5067429.57547  -3888738.01546  23053606.1754   23053608.0164   23053606.351
        45.0004         40.0004
 -21488413.79249 -16704681.36548  21046342.7324   21046343.3464   21046343.523
        56.0004         51.0004
 20 11  7  0 36 30.0000000  0  8G30G05G06G09G29G07G13G02
  -2698642.17047  -2062525.86546  24637868.9824   24637873.3274   24637868.524
        43.0004         38.0004
 -22153895.38049 -17243152.19549  20612566.1314   20612568.1204   20612566.114
        60.0004         55.0004
 -10713028.86548  -8305457.80647  22956851.0014   22956856.5544   22956849.749
        48.0004         43.0004
  -5636632.46547  -4355828.10046  24010048.4254   24010053.2784   24010049.140
        45.0004         40.0004
 -10542943.20249  -8159283.87748  22933684.4304   22933686.4684   22933684.476
        54.0004         50.0004
  -1994724.22047  -1531598.06946  24616655.3894   24616657.2134   24616655.023
        44.0004         40.0004
  -5176310.83347  -3973580.52946  23032887.1704   23032889.1654   23032886.093
        45.0004         41.0004
 -21482224.02949 -16699858.19048  21047520.7714   21047521.6774   21047521.420
        56.0004         51.0004
 20 11  7  0 37  0.0000000  0  8G30G05G06G09G29G07G13G02
  -2771264.70247  -2119114.83046  24624048.1524   24624055.3474   24624047.582
        43.0004         38.0004
 -22179837.44249 -17263366.78449  20607629.4454   20607631.6374   20607629.251
        60.0004         55.0004
 -10629445.67048  -8240328.09247  22972756.4564   22972762.0234   22972755.183
        48.0004         44.0004
  -5541138.41347  -4281417.20246  24028220.5394   24028226.5604   24028220.182
        45.0004         40.0004
 -10607898.95149  -8209898.71948  22921323.5024   22921326.3114   22921323.045
        54.0004         50.0004
  -2033484.70847  -1561800.98546  24609277.9274   24609281.4494   24609277.789
        44.0004         40.0004
  -5284961.76447  -4058243.57346  23012210.0754   23012214.0784   23012210.981
        46.0004         41.0004
 -21475658.66649 -16694742.32948  21048769.7724   21048770.7234   21048770.432
        56.0004         51.0004
 20 11  7  0 37 30.0000000  0  8G30G05G06G09G29G07G13G02
  -2843671.11447  -2175535.31846  24610269.0064   24610273.6594   24610269.893
        42.0004         38.0004
 -22205425.45349 -17283305.48249  20602760.3184   20602762.5714   20602760.161
        60.0004         55.0004
 -10545612.78548  -8175003.81347  22988708.6514   22988714.7324   22988708.589
        48.0004         43.0004
  -5445387.29047  -4206806.00346  24046441.5934   24046447.1044   24046440.605
        45.0004         40.0004
 -10672359.09949  -8260127.39648  22909057.1364   22909059.2904   22909057.061
        54.0004         50.0004
  -2071847.56547  -1591694.07546  24601977.8554   24601981.3184   24601978.120
        45.0004         40.0004
  -5393379.65947  -4142725.03746  22991579.8164   22991582.6534   22991579.910
        46.0004         41.0004
 -21468716.88849 -16689333.16048  21050090.9094   21050091.7244   21050091.544
        56.0004         51.0004
 20 11  7  0 38  0.0000000  0  8G30G05G06G09G29G07G13G02
  -2915858.56447  -2231785.26146  24596532.2984   24596538.1614   24596534.114
        42.0004         37.0004
 -22230659.59549 -17302968.43449  20597958.2674   20597960.6814   20597958.303
        60.0004         55.0004
 -10461531.00248  -8109485.58647  23004709.3974   23004714.6164   23004709.151
        48.0004         43.0004
  -5349381.66247  -4131996.47946  24064710.4664   24064715.6964   24064710.850
        45.0004         40.0004
 -10736321.08449  -8309967.89548  22896885.2164   22896887.9244   22896885.325
        54.0004         49.0004
  -2109810.46347  -1621275.52946  24594753.2704   24594757.3604   24594753.175
        45.0004         40.0004
  -5501561.64047  -4227022.66546  22970993.6524   22970996.8144   22970994.423
        46.0004         41.0004
 -21461397.43749 -16683629.69048  21051483.6924   21051484.5634   21051484.647
        56.0004         51.0004
 20 11  7  0 38 30.0000000  0  8G30G05G06G09G29G07G13G02
  -2987824.25147  -2287862.29646  24582837.0554   24582843.6974   24582837.787
        42.0004         37.0004
 -22255539.96049 -17322355.71349  20593223.7074   20593225.9144   20593223.645
        60.0004         55.0004
 -10377201.22848  -8043774.11447  23020756.6864   23020762.7414   23020756.558
        48.0004         43.0004
  -5253124.13247  -4056990.65546  24083027.2414   24083032.4274   24083028.401
        45.0004         40.0004
 -10799782.63649  -8359418.45748  22884808.8244   22884811.5154   22884809.078
        54.0004         49.0004
  -2147372.69847  -1650544.78046  24587604.6454   24587608.9924   24587605.986
        44.0004         40.0004
  -5609505.39747  -4311134.68446  22950452.9984   22950455.0164   22950452.485
        46.0004         41.0004
 -21453700.00749 -16677631.69548  21052948.5814   21052949.2014   21052949.230
        56.0004         51.0004
 20 11  7  0 39  0.0000000  0  8G30G05G06G09G29G07G13G02
  -3059565.21547  -2343764.28346  24569186.3094   24569192.0214   24569187.334
        42.0004         38.0004
 -22280066.53349 -17341467.32149  20588556.3924   20588558.5564   20588556.502
        60.0004         55.0004
 -10292624.29248  -7977870.05347  23036850.6814   23036857.0634   23036850.992
        48.0004         43.0004
  -5156617.39047  -3981790.63446  24101391.5374   24101397.6884   24101392.045
        45.0004         40.0004
 -10862741.41149  -8408477.22348  22872827.7704   22872830.9564   22872828.247
        54.0004         49.0004
  -2184531.54147  -1679499.68746  24580533.9334   24580535.9564   24580535.010
        44.0004         39.0004
  -5717208.30647  -4395059.03546  22929958.0584   22929959.6714   22929957.793
        46.0004         41.0004
 -21445623.66549 -16671338.45348  21054485.6594   21054486.2984   21054486.141
        56.0004         51.0004
 20 11  7  0 39 30.0000000  0  8G30G05G06G09G29G07G13G02
  -3131078.58947  -2399488.89146  24555575.5734   24555583.4884   24555577.549
        42.0004         38.0004
 -22304239.45449 -17360303.35749  20583956.4854   20583958.6274   20583956.067
        60.0004         55.0004
 -10207801.02648  -7911774.03947  23052992.2814   23052998.2944   23052992.203
        48.0004         43.0004
  -5059863.93847  -3906398.41046  24119803.0534   24119809.0094   24119801.514
        45.0004         40.0004
 -10925195.56349  -8457142.79948  22860944.0714   22860946.2604   22860943.793
        54.0004         50.0004
  -2221285.18147  -1708138.86746  24573540.2894   24573543.6464   24573539.396
        44.0004         39.0004
  -5824667.47147  -4478793.46046  22909509.1934   22909511.0924   22909509.362
        46.0004         41.0004
 -21437167.48249 -16664749.23148  21056094.6134   21056095.6634   21056095.048
        56.0004         51.0004
 20 11  7  0 40  0.0000000  0  8G30G05G06G09G29G07G13G02
  -3202361.46847  -2455033.90046  24542013.7454   24542018.6294   24542012.259
        42.0004         38.0004
 -22328059.11849 -17378864.12149  20579423.8044   20579425.8054   20579423.864
        60.0004         55.0004
 -10122732.23348  -7845486.72347  23069180.9034   23069186.6774   23069180.778
        48.0004         43.0004
  -4962866.41847  -3830816.00546  24138260.5524   24138267.0994   24138259.977
        45.0004         40.0004
 -10987142.16549  -8505412.87348  22849155.9874   22849158.5704   22849156.311
        54.0004         50.0004
  -2257631.74947  -1736460.85046  24566624.4304   24566627.6504   24566622.592
        43.0004         38.0004
  -5931880.07047  -4562335.75747  22889105.8844   22889108.9984   22889106.072
        46.0004         42.0004
 -21428330.61949 -16657863.36548  21057776.2094   21057777.1034   21057776.889
        56.0004         51.0004
 20 11  7  0 40 30.0000000  0  8G30G05G06G09G29G07G13G02
  -3273411.07147  -2510397.13346  24528491.7204   24528497.4274   24528494.036
        43.0004         38.0004
 -22351525.51349 -17397149.61449  20574958.4054   20574960.2994   20574958.113
        60.0004         55.0004
 -10037418.87048  -7779008.83947  23085414.7014   23085422.1764   23085413.673
        48.0004         43.0004
  -4865627.41147  -3755045.41746  24156764.2724   24156769.6634   24156764.449
        44.0004         40.0004
 -11048579.34149  -8553285.98348  22837464.5154   22837466.9184   22837464.510
        54.0004         50.0004
  -2293569.53847  -1764464.30346  24559785.2504   24559787.1454   24559785.719
        43.0004         38.0004
  -6038843.71547  -4645684.06746  22868750.6964   22868755.0854   22868752.166
        46.0004         41.0004
 -21419112.33449 -16650680.29448  21059530.3294   21059531.1614   21059531.080
        56.0004         51.0004
 20 11  7  0 41  0.0000000  0  8G30G05G06G09G29G07G13G02
  -3344224.56947  -2565576.37446  24515016.6804   24515022.9174   24515017.784
        43.0004         39.0004
 -22374638.75349 -17415159.91749  20570560.0514   20570562.1724   20570559.854
        60.0004         55.0004
  -9951861.76547  -7712341.01947  23101695.8754   23101701.6744   23101695.212
        47.0004         43.0004
  -4768149.49247  -3679088.65746  24175313.5744   24175319.8904   24175314.063
        44.0004         40.0004
 -11109504.81649  -8600760.37948  22825870.3034   22825873.1034   22825871.154
        54.0004         50.0004
  -2329096.66647  -1792147.74646  24553024.5424   24553029.0784   24553021.143
        43.0004         39.0004
  -6145555.51647  -4728836.14446  22848445.5714   22848447.3854   22848445.953
        46.0004         41.0004
 -21409512.02649 -16643199.54948  21061357.4564   21061358.0404   21061358.236
        56.0004         51.0004
 20 11  7  0 41 30.0000000  0  8G30G05G06G09G29G07G13G02
  -3414799.01947  -2620569.35246  24501586.9654   24501593.2694   24501588.218
        44.0004         39.0004
 -22397399.32149 -17432895.41449  20566228.8654   20566231.0654   20566228.612
        60.0004         56.0004
  -9866061.83247  -7645483.97047  23118022.7124   23118029.1684   23118022.193
        47.0004         43.0004
  -4670435.28147  -3602947.77246  24193909.1234   24193913.6464   24193909.554
        44.0004         40.0004
 -11169916.76949  -8647834.62248  22814374.9234   22814377.4534   22814375.256
        54.0004         50.0004
  -2364211.04447  -1819509.57446  24546342.4474   24546346.1184   24546341.140
        44.0004         39.0004
  -6252013.22647  -4811790.23647  22828187.5584   22828189.3804   22828187.474
        46.0004         42.0004
 -21399528.48249 -16635420.17348  21063257.3104   21063257.6274   21063258.108
        55.0004         51.0004
 20 11  7  0 42  0.0000000  0  8G30G05G06G09G29G07G13G02
  -3485131.61647  -2675373.89946  24488202.3904   24488209.5624   24488202.851
        44.0004         39.0004
 -22419806.76449 -17450355.74549  20561964.9664   20561966.9094   20561964.443
        60.0004         56.0004
  -9780019.91347  -7578438.37147  23134396.4904   23134402.2914   23134395.151
        47.0004         43.0004
  -4572487.31847  -3526624.73946  24212548.3024   24212553.0924   24212549.476
        44.0004         40.0004
 -11229812.48249  -8694506.59048  22802977.2884   22802979.5204   22802977.299
        54.0004         50.0004
  -2398911.11147  -1846548.56446  24539739.6844   24539742.8614   24539737.429
        44.0004         40.0004
  -6358213.78647  -4894543.92647  22807979.5244   22807980.5594   22807977.649
        46.0004         42.0004
 -21389161.17149 -16627341.74848  21065230.3454   21065230.7664   21065231.316
        55.0004         51.0004
 20 11  7  0 42 30.0000000  0  8G30G05G06G09G29G07G13G02
  -3555219.41747  -2729987.67846  24474866.5174   24474872.2994   24474867.301
        44.0004         39.0004
 -22441861.55449 -17467541.29049  20557767.8194   20557769.8794   20557767.604
        60.0004         56.0004
  -9693736.83347  -7511204.84347  23150815.9064   23150822.4014   23150815.738
        47.0004         43.0004
  -4474308.12847  -3450121.52446  24231231.6314   24231236.0234   24231230.800
        44.0004         40.0004
 -11289189.82749  -8740774.65448  22791678.2774   22791679.9914   22791678.470
        54.0004         50.0004
  -2433195.01147  -1873263.27346  24533215.8764   24533217.8164   24533215.351
        45.0004         40.0004
  -6464154.50947  -4977095.14147  22787816.7424   22787821.7604   22787818.126
        47.0004         42.0004
 -21378409.35149 -16618963.70548  21067275.9644   21067276.6254   21067277.082
        55.0004         51.0004
 20 11  7  0 43  0.0000000  0  8G30G05G06G09G29G07G13G02
  -3625059.74347  -2784408.59846  24461575.5574   24461582.1994   24461576.454
        44.0004         39.0004
 -22463563.71349 -17484452.05949  20553638.0504   20553640.2454   20553637.630
        60.0004         56.0004
  -9607213.60747  -7443784.20047  23167280.1694   23167287.0764   23167279.993
        47.0004         43.0004
  -4375900.43347  -3373440.26346  24249957.9354   24249962.3924   24249958.223
        44.0004         40.0004
 -11348046.94149  -8786637.32948  22780477.6614   22780479.9204   22780477.674
        54.0004         50.0004
  -2467060.96047  -1899652.28946  24526771.6984   24526774.3244   24526771.448
        45.0004         41.0004
  -6569832.78947  -5059441.85847  22767708.4184   22767710.8554   22767708.116
        47.0004         42.0004
 -21367272.20649 -16610285.41748  21069395.2664   21069396.2064   21069395.941
        55.0004         51.0004
 20 11  7  0 43 30.0000000  0  8G30G05G06G09G29G07G13G02
  -3694649.63147  -2838634.40746  24448332.9244   24448339.8304   24448333.758
        44.0004         40.0004
 -22484913.62949 -17501088.34349  20549575.1544   20549577.5874   20549574.952
        60.0004         56.0004
  -9520451.07447  -7376177.07547  23183790.8954   23183797.9124   23183791.101
        47.0004         42.0004
  -4277266.72147  -3296582.86646  24268726.7684   24268732.5734   24268726.785
        45.0004         40.0004
 -11406381.61249  -8832092.92248  22769376.8754   22769379.3774   22769376.729
        54.0004         50.0004
  -2500507.40447  -1925714.40946  24520406.6404   24520409.7164   24520406.193
        45.0004         40.0004
  -6675246.03647  -5141582.03447  22747648.3794   22747650.1574   22747648.882
        47.0004         42.0004
 -21355749.14249 -16601306.40748  21071588.0744   21071588.8164   21071588.822
        55.0004         51.0004
 20 11  7  0 44  0.0000000  0  8G30G05G06G09G29G07G13G02
  -3763986.37847  -2892662.94646  24435139.1484   24435143.8714   24435138.937
        44.0004         40.0004
 -22505911.34649 -17517450.19749  20545579.6614   20545581.6314   20545579.512
        60.0004         56.0004
  -9433450.22647  -7308384.26847  23200346.8334   23200352.3274   23200345.013
        47.0004         42.0004
  -4178409.61347  -3219551.39946  24287538.4114   24287544.0864   24287538.386
        45.0004         40.0004
 -11464191.80949  -8877139.83448  22758375.8994   22758378.5214   22758375.721
        54.0004         50.0004
  -2533532.49547  -1951448.20946  24514121.1744   24514124.8504   24514121.982
        45.0004         40.0004
  -6780391.56447  -5223513.60447  22727641.2784   22727643.0104   22727640.835
        47.0004         42.0004
 -21343839.34549 -16592026.03948  21073854.5384   21073855.3364   21073855.298
        55.0004         51.0004
 20 11  7  0 44 30.0000000  0  9G30G05G06G09G15G29G07G13G02
  -3833066.97647  -2946491.92446  24421993.2744   24421998.9974   24421994.609
        45.0004         40.0004
 -22526557.05049 -17533537.75549  20541650.8774   20541652.8314   20541650.587
        60.0004         56.0004
  -9346211.81747  -7240406.33047  23216947.4104   23216953.0724   23216947.197
        47.0004         42.0004
  -4079331.54447  -3142347.76946  24306391.9294   24306397.3284   24306392.496
        44.0004         40.0004
   -296666.01348   -220044.67247  25301653.2534   25301655.8504   25301653.451
        49.0004         42.0004
 -11521474.78349  -8921775.92148  22747475.4664   22747477.7414   22747475.572
        55.0004         50.0004
  -2566134.31447  -1976852.18746  24507917.4974   24507921.1174   24507918.505
        44.0004         40.0004
  -6885266.42647  -5305234.24947  22707683.4134   22707685.0394   22707683.525
        47.0004         42.0004
 -21331542.13749 -16582443.79448  21076194.5014   21076195.2304   21076195.204
        55.0004         51.0004
 20 11  7  0 45  0.0000000  0  9G30G05G06G09G15G29G07G13G02
  -3901888.75047  -3000119.21146  24408896.1244   24408902.5794   24408896.163
        45.0004         40.0004
 -22546851.21249 -17549351.37749  20537789.0584   20537790.9604   20537789.197
        60.0004         56.0004
  -9258736.91947  -7172244.11847  23233592.7714   23233600.0274   23233591.771
        47.0004         42.0004
  -3980035.27747  -3064974.10146  24325287.5184   24325293.0074   24325288.029
        44.0004         40.0004
   -416863.87048   -313705.30947  25278780.2574   25278782.9884   25278780.428
        48.0004         43.0004
 -11578229.10549  -8966000.06348  22736675.9584   22736677.7194   22736675.546
        55.0004         50.0004
  -2598311.22047  -2001925.05246  24501795.2814   24501796.7254   24501794.941
        44.0004         40.0004
  -6989868.46447  -5386742.26647  22687777.7664   22687781.0304   22687778.163
        47.0004         42.0004
 -21318856.90449 -16572559.20348  21078608.4014   21078609.0954   21078609.157
        55.0004         51.0004
 20 11  7  0 45 30.0000000  0  9G30G05G06G09G15G29G07G13G02
  -3970448.84547  -3053542.64046  24395848.9994   24395855.8224   24395849.533
        45.0004         40.0004
 -22566793.41349 -17564890.74549  20533994.1394   20533996.1464   20533993.705
        60.0004         56.0004
  -9171026.40247  -7103898.32447  23250285.2494   23250290.6294   23250284.811
        47.0004         43.0004
  -3880523.22247  -2987432.28146  24344224.7704   24344230.9624   24344223.798
        44.0004         40.0004
   -537025.39148   -407337.63747  25255914.5144   25255917.5344   25255914.939
        48.0004         43.0004
 -11634452.83049  -9009810.74548  22725977.0714   22725978.9134   22725977.436
        55.0004         50.0004
  -2630061.54947  -2026665.53446  24495752.6744   24495756.5004   24495752.547
        44.0004         39.0004
  -7094194.98347  -5468035.61747  22667924.4144   22667927.8464   22667925.778
        47.0004         42.0004
 -21305782.68149 -16562371.50148  21081096.4934   21081097.0404   21081096.714
        55.0004         51.0004
 20 11  7  0 46  0.0000000  0  9G30G05G06G09G15G29G07G13G02
  -4038744.38647  -3106759.91746  24382853.1954   24382860.3224   24382853.120
        45.0004         40.0004
 -22586384.24549 -17580156.32349  20530266.0804   20530268.0204   20530266.042
        60.0004         56.0004
  -9083081.17347  -7035369.62447  23267019.7484   23267027.0064   23267018.286
        47.0004         43.0004
  -3780797.95547  -2909724.32046  24363201.5004   24363207.9764   24363199.717
        44.0004         39.0004
   -657148.75648   -500940.22247  25233055.4824   25233059.2434   25233055.302
        48.0004         43.0004
 -11690143.27949  -9053205.89648  22715379.6074   22715381.1864   22715380.702
        55.0004         50.0004
  -2661383.50647  -2051072.20946  24489792.7574   24489794.2654   24489792.434
        44.0004         40.0004
  -7198243.24247  -5549112.14247  22648126.2344   22648128.4654   22648126.029
        47.0004         43.0004
 -21292318.91049 -16551880.25248  21083658.3154   21083658.9404   21083659.006
        55.0004         51.0004
 20 11  7  0 46 30.0000000  0  9G30G05G06G09G15G29G07G13G02
  -4106772.65247  -3159768.92946  24369908.0834   24369914.8024   24369907.125
        45.0004         40.0004
 -22605624.00749 -17595148.34849  20526604.7604   20526606.6934   20526605.115
        60.0004         56.0004
  -8994902.23947  -6966658.82347  23283800.0914   23283805.8204   23283799.501
        47.0004         42.0004
  -3680862.07247  -2831852.24146  24382218.4864   24382223.8484   24382219.258
        44.0004         39.0004
   -777231.79148   -594511.39847  25210204.4114   25210208.6234   25210205.467
        48.0004         43.0004
 -11745298.58349  -9096184.04548  22704883.7284   22704885.8434   22704883.350
        55.0004         50.0004
  -2692275.62947  -2075143.94046  24483913.6924   24483917.5034   24483913.229
        44.0004         40.0004
  -7302010.61547  -5629969.78447  22628379.0624   22628382.2794   22628379.043
        47.0004         43.0004
 -21278464.92249 -16541084.93948  21086294.5794   21086295.5854   21086295.314
        55.0004         51.0004
 20 11  7  0 47  0.0000000  0  9G30G05G06G09G15G29G07G13G02
  -4174530.73247  -3212567.43346  24357013.0864   24357020.5554   24357013.412
        44.0004         40.0004
 -22624512.61049 -17609866.73949  20523010.4204   20523012.5444   20523010.121
        60.0004         56.0004
  -8906490.50147  -6897766.61147  23300624.4974   23300630.5634   23300624.507
        47.0004         42.0004
  -3580718.05647  -2753817.98846  24401276.5184   24401280.8744   24401276.884
        44.0004         39.0004
   -897272.48848   -688049.61447  25187362.1644   25187365.0794   25187361.849
        48.0004         43.0004
 -11799917.01749  -9138743.85548  22694489.8904   22694492.3304   22694489.599
        55.0004         50.0004
  -2722736.23347  -2098879.46246  24478116.7194   24478119.9024   24478116.908
        45.0004         40.0004
  -7405494.20048  -5710606.30847  22608687.0894   22608689.5974   22608685.847
        48.0004         43.0004
 -21264219.89149 -16529984.92248  21089005.3904   21089006.3374   21089006.425
        55.0004         51.0004
 20 11  7  0 47 30.0000000  0  9G30G05G06G09G15G29G07G13G02
  -4242015.82147  -3265153.24246  24344172.1014   24344177.5824   24344172.812
        44.0004         40.0004
 -22643050.47849 -17624311.82149  20519482.7424   20519485.0274   20519482.503
        60.0004         56.0004
  -8817846.86147  -6828693.72147  23317493.0714   23317497.5604   23317492.530
        47.0004         42.0004
  -3480368.52647  -2675623.60546  24420373.7144   24420377.4774   24420374.376
        44.0004         40.0004
  -1017268.72948   -781553.18347  25164527.5024   25164530.3584   25164527.382
        48.0004         43.0004
 -11853996.43349  -9180883.66948  22684198.9124   22684200.9834   22684199.040
        55.0004         50.0004
  -2752763.71447  -2122277.46646  24472403.1064   24472406.0964   24472403.066
        45.0004         40.0004
  -7508691.39748  -5791019.68047  22589048.7264   22589051.5434   22589048.754
        48.0004         43.0004
 -21249583.19949 -16518579.71348  21091790.9254   21091791.5204   21091791.748
        55.0004         51.0004
 20 11  7  0 48  0.0000000  0  9G30G05G06G09G15G29G07G13G02
  -4309225.17047  -3317524.17946  24331383.3514   24331389.4204   24331383.017
        44.0004         40.0004
 -22661237.74049 -17638483.71949  20516021.9504   20516023.9544   20516021.601
        60.0004         56.0004
  -8728972.37647  -6759440.91647  23334404.8044   23334410.9274   23334405.238
        47.0004         42.0004
  -3379816.00047  -2597271.04946  24439508.0794   24439511.6514   24439509.072
        44.0004         39.0004
  -1137218.32448   -875020.41047  25141702.2074   25141704.6714   25141701.140
        48.0004         43.0004
 -11907534.91349  -9222601.95548  22674010.4034   22674012.9894   22674010.714
        55.0004         50.0004
  -2782356.24547  -2145336.57546  24466771.8564   24466774.1984   24466771.020
        45.0004         40.0004
  -7611600.20648  -5871208.31347  22569465.7544   22569469.2864   22569466.691
        48.0004         43.0004
 -21234554.38749 -16506868.95548  21094650.7344   21094651.6014   21094651.617
        55.0004         51.0004
 20 11  7  0 48 30.0000000  0  9G30G05G06G09G15G29G07G13G02
  -4376156.07647  -3369678.15246  24318646.9354   24318652.3484   24318643.991
        44.0004         39.0004
 -22679074.36949 -17652382.39449  20512627.6664   20512629.7404   20512627.867
        60.0004         56.0004
  -8639868.12147  -6690009.08547  23351361.0414   23351367.1974   23351359.765
        47.0004         42.0004
  -3279063.13547  -2518762.39746  24458681.1144   24458684.7134   24458680.131
        44.0004         39.0004
  -1257119.53947   -968449.94847  25118885.7644   25118888.3144   25118885.473
        47.0004         43.0004
 -11960530.11949  -9263896.92048  22663926.2084   22663928.6524   22663926.401
        55.0004         50.0004
  -2811512.49747  -2168055.70346  24461222.2654   24461226.6464   24461222.668
        45.0004         40.0004
  -7714217.93447  -5951170.14847  22549938.0894   22549941.7024   22549938.401
        47.0004         43.0004
 -21219132.84949 -16494852.18248  21097585.4894   21097586.0434   21097586.339
        55.0004         51.0004
 20 11  7  0 49  0.0000000  0  9G30G05G06G09G15G29G07G13G02
  -4442805.61647  -3421612.89546  24305963.1424   24305969.4894   24305963.933
        44.0004         39.0004
 -22696560.73049 -17666008.13549  20509300.1964   20509302.1414   20509300.146
        60.0004         56.0004
  -8550534.80947  -6620398.76747  23368360.7154   23368366.3314   23368360.453
        47.0004         42.0004
  -3178112.26947  -2440099.44746  24477889.6784   24477895.5664   24477890.124
        44.0004         39.0004
  -1376969.68747  -1061839.67347  25096077.8824   25096081.9854   25096078.415
        47.0004         42.0004
 -12012980.07949  -9304767.00448  22653945.1604   22653947.0804   22653945.408
        55.0004         50.0004
  -2840230.66347  -2190433.48246  24455758.8114   24455762.0004   24455756.918
        45.0004         40.0004
  -7816541.25048  -6030902.57547  22530467.0284   22530469.5034   22530467.231
        48.0004         43.0004
 -21203317.84349 -16482528.81348  21100594.9254   21100595.4684   21100595.529
        55.0004         51.0004
 20 11  7  0 49 30.0000000  0  9G30G05G06G09G15G29G07G13G02
  -4509170.98447  -3473326.18546  24293333.7214   24293339.8494   24293334.918
        44.0004         39.0004
 -22713697.15949 -17679361.19949  20506039.0404   20506041.1274   20506038.981
        60.0004         56.0004
  -8460973.59747  -6550610.85147  23385403.6854   23385409.9114   23385402.688
        47.0004         42.0004
  -3076965.93947  -2361284.18546  24497137.3004   24497143.8764   24497137.758
        44.0004         39.0004
  -1496767.16347  -1155188.34847  25073281.6364   25073285.4804   25073282.077
        47.0004         42.0004
 -12064883.27849  -9345211.06148  22644068.4004   22644071.2344   22644068.744
        55.0004         50.0004
  -2868509.31247  -2212468.77746  24450376.5784   24450380.9144   24450375.813
        45.0004         40.0004
  -7918568.12448  -6110404.01347  22511052.8794   22511056.2854   22511053.037
        48.0004         43.0004
 -21187108.37849 -16469898.06948  21103679.4574   21103680.0494   21103679.871
        55.0004         51.0004
 20 11  7  0 50  0.0000000  0  9G30G05G06G09G15G29G07G13G02
  -4575249.53547  -3524815.99146  24280760.4404   24280767.1274   24280759.096
        44.0004         39.0004
 -22730483.61649 -17692441.56549  20502845.0284   20502846.7124   20502844.931
        60.0004         56.0004
  -8371185.40647  -6480646.10047  23402490.0454   23402496.2994   23402489.574
        47.0004         42.0004
  -2975626.85147  -2282318.72246  24516421.9784   24516427.3774   24516422.009
        44.0004         40.0004
  -1616509.85247  -1248494.34047  25050493.5054   25050497.8214   25050495.872
        47.0004         42.0004
 -12116237.78649  -9385227.55448  22634295.8254   22634298.8664   22634295.843
        55.0004         50.0004
  -2896347.00247  -2234160.48846  24445079.2824   24445083.0014   24445078.555
        45.0004         40.0004
  -8020295.84948  -6189672.34947  22491694.5054   22491696.4734   22491694.430
        48.0004         43.0004
 -21170504.02349 -16456959.61148  21106839.2184   21106839.7994   21106839.671
        55.0004         51.0004
 20 11  7  0 50 30.0000000  0  9G30G05G06G09G15G29G07G13G02
  -4641038.34947  -3576080.04046  24268240.2774   24268245.2254   24268241.429
        44.0004         39.0004
 -22746920.41549 -17705249.46749  20499717.1304   20499719.1754   20499717.455
        60.0004         56.0004
  -8281171.19447  -6410505.20347  23419618.5164   23419624.9134   23419617.963
        47.0004         42.0004
  -2874097.29747  -2203204.84446  24535740.7884   24535749.7874   24535741.067
        44.0004         40.0004
  -1736195.52547  -1341755.87347  25027718.8994   25027724.4944   25027718.653
        46.0004         42.0004
 -12167041.32849  -9424814.73148  22624628.7334   22624630.9314   22624628.543
        55.0004         50.0004
  -2923741.98647  -2255507.23146  24439866.2134   24439869.7194   24439866.762
        45.0004         40.0004
  -8121721.69448  -6268705.45247  22472394.2124   22472396.2704   22472393.403
        48.0004         43.0004
 -21153504.43149 -16443713.18148  21110073.8704   21110074.5354   21110074.745
        55.0004         50.0004
 20 11  7  0 51  0.0000000  0  9G30G05G06G09G15G29G07G13G02
  -4706534.73147  -3627116.21546  24255776.8254   24255783.2814   24255777.862
        44.0004         39.0004
 -22763007.82549 -17717785.11749  20496655.7494   20496657.9134   20496655.580
        60.0004         56.0004
  -8190932.03247  -6340189.03447  23436789.9884   23436796.6404   23436790.391
        46.0004         42.0004
  -2772379.90647  -2123944.61446  24555096.9364   24555105.2034   24555096.502
        44.0004         39.0004
  -1855821.98547  -1434971.26747  25004955.1654   25004959.3044   25004953.619
        47.0004         42.0004
 -12217292.63249  -9463971.58448  22615066.0174   22615068.4174   22615065.756
        55.0004         50.0004
  -2950692.73447  -2276507.80246  24434738.0004   24434741.5954   24434736.907
        44.0004         40.0004
  -8222843.27848  -6347501.47947  22453151.1084   22453153.9454   22453150.631
        48.0004         43.0004
 -21136108.82149 -16430158.16848  21113384.3064   21113385.1034   21113384.867
        55.0004         50.0004
 20 11  7  0 51 30.0000000  0  9G30G05G06G09G15G29G07G13G02
  -4771735.92847  -3677922.33046  24243368.4734   24243375.4024   24243368.695
        44.0004         39.0004
 -22778745.96049 -17730048.59849  20493660.7374   20493663.0834   20493660.548
        60.0004         56.0004
  -8100468.93547  -6269698.34947  23454005.1034   23454011.3514   23454003.706
        46.0004         42.0004
  -2670477.15347  -2044539.95046  24574489.3134   24574495.8344   24574489.570
        44.0004         39.0004
  -1975387.13547  -1528138.92747  24982202.5254   24982206.5764   24982200.945
        47.0004         42.0004
 -12266989.36849  -9502696.31948  22605608.9024   22605610.9544   22605608.732
        55.0004         50.0004
  -2977197.65547  -2297161.00046  24429694.8444   24429697.0054   24429693.977
        44.0004         40.0004
  -8323657.87148  -6426058.27947  22433965.3144   22433968.1324   22433966.089
        48.0004         43.0004
 -21118316.80849 -16416294.27048  21116770.0004   21116770.6774   21116770.907
        55.0004         50.0004
 20 11  7  0 52  0.0000000  0  9G30G05G06G09G15G29G07G13G02
  -4836639.14747  -3728496.28146  24231019.2884   24231026.1984   24231018.039
        43.0004         39.0004
 -22794135.31249 -17742040.30449  20490732.4694   20490734.5024   20490732.380
        60.0004         56.0004
  -8009782.85947  -6199033.92747  23471262.4984   23471268.5204   23471262.221
        46.0004         42.0004
  -2568391.55547  -1964992.79746  24593916.0814   24593922.8554   24593915.268
        44.0004         39.0004
  -2094889.04847  -1621257.28147  24959461.8044   24959466.7514   24959462.985
        47.0004         43.0004
 -12316129.74849  -9540987.53948  22596257.8484   22596260.2784   22596258.279
        55.0004         50.0004
  -3003255.64647  -2317465.93946  24424736.7934   24424739.1384   24424736.848
        45.0004         40.0004
  -8424162.87548  -6504373.85847  22414840.8364   22414844.1404   22414840.785
        48.0004         43.0004
 -21100127.59549 -16402120.86748  21120231.3734   21120231.9064   21120232.129
        55.0004         50.0004
 20 11  7  0 52 30.0000000  0  9G30G05G06G09G15G29G07G13G02
  -4901241.66147  -3778835.90746  24218725.4424   24218731.6404   24218724.986
        44.0004         39.0004
 -22809175.63049 -17753760.03449  20487870.2714   20487872.3814   20487870.354
        60.0004         56.0004
  -7918874.83747  -6128196.55846  23488561.8764   23488567.5894   23488561.121
        46.0004         41.0004
  -2466125.64147  -1885305.15446  24613376.1024   24613382.7194   24613373.654
        44.0004         39.0004
  -2214325.75847  -1714324.81847  24936734.0194   24936738.1584   24936735.442
        47.0004         42.0004
 -12364711.88549  -9578843.74948  22587013.3284   22587014.9014   22587012.487
        55.0004         50.0004
  -3028864.84547  -2337421.15946  24419863.4254   24419866.1674   24419863.084
        45.0004         41.0004
  -8524355.67748  -6582446.17147  22395774.4334   22395776.4304   22395774.048
        48.0004         43.0004
 -21081540.69149 -16387637.57148  21123768.4094   21123768.9284   21123769.142
        55.0004         50.0004
 20 11  7  0 53  0.0000000  0  9G30G05G06G09G15G29G07G13G02
  -4965540.82347  -3828939.11546  24206489.3834   24206495.5814   24206490.447
        44.0004         39.0004
 -22823867.78549 -17765208.46449  20485074.2904   20485076.6814   20485074.164
        60.0004         56.0004
  -7827745.97447  -6057187.07146  23505902.2904   23505908.7814   23505901.806
        46.0004         41.0004
  -2363681.88047  -1805478.92146  24632870.4264   24632877.1234   24632870.157
        43.0004         39.0004
  -2333694.91347  -1807339.74647  24914018.8194   24914021.8384   24914019.577
        47.0004         42.0004
 -12412733.79649  -9616263.41748  22577874.7394   22577877.0464   22577875.201
        55.0004         50.0004
  -3054023.87047  -2357025.59446  24415075.3134   24415078.9824   24415075.996
        46.0004         41.0004
  -8624234.05648  -6660273.46747  22376768.4014   22376771.7644   22376768.115
        48.0004         43.0004
 -21062555.51149 -16372843.93048  21127380.9734   21127381.7004   21127381.430
        55.0004         50.0004
 20 11  7  0 53 30.0000000  0  9G30G05G06G09G15G29G07G13G02
  -5029533.76547  -3878803.71746  24194311.1124   24194319.4714   24194311.933
        44.0004         39.0004
 -22838211.64949 -17776385.49249  20482344.8194   20482346.9734   20482344.812
        60.0004         56.0004
  -7736397.18047  -5986006.25046  23523285.9664   23523292.0934   23523286.683
        46.0004         41.0004
  -2261062.71447  -1725515.99546  24652399.9634   24652404.1954   24652400.569
        43.0004         38.0004
  -2452994.58247  -1900300.53647  24891317.1384   24891320.5264   24891316.385
        47.0004         42.0004
 -12460193.74849  -9653245.18248  22568843.1944   22568845.6264   22568843.918
        55.0004         50.0004
  -3078731.52647  -2376278.30146  24410373.2474   24410377.0744   24410372.467
        46.0004         41.0004
  -8723795.11548  -6737853.50747  22357822.4004   22357825.3244   22357822.755
        48.0004         43.0004
 -21043171.45649 -16357739.47448  21131069.6214   21131070.5624   21131070.261
        55.0004         50.0004
 20 11  7  0 54  0.0000000  0  9G30G05G06G09G15G29G07G13G02
  -5093217.79947  -3928427.64446  24182194.3174   24182200.8564   24182193.586
        44.0004         39.0004
 -22852207.50049 -17787291.34949  20479681.8144   20479683.5964   20479681.795
        60.0004         56.0004
  -7644829.54047  -5914654.88646  23540710.9524   23540715.7564   23540710.715
        46.0004         41.0004
  -2158270.63147  -1645418.33446  24671959.7694   24671965.8214   24671960.986
        43.0004         39.0004
  -2572222.67347  -1993205.51247  24868628.5084   24868632.8014   24868628.646
        47.0004         42.0004
 -12507090.28849  -9689787.94048  22559919.2694   22559921.7914   22559919.350
        55.0004         51.0004
  -3102986.24047  -2395178.07146  24405757.2894   24405761.9584   24405757.354
        46.0004         41.0004
  -8823036.67148  -6815184.57047  22338937.7984   22338938.9834   22338936.770
        48.0004         43.0004
 -21023388.12149 -16342323.90648  21134834.1254   21134835.3244   21134835.055
        55.0004         50.0004
 20 11  7  0 54 30.0000000  0  9G30G05G06G09G15G29G07G13G02
  -5156590.35447  -3977808.82646  24170135.1294   24170140.7734   24170136.397
        44.0004         40.0004
 -22865855.66149 -17797926.27549  20477084.4994   20477086.4714   20477084.471
        60.0004         56.0004
  -7553044.17247  -5843133.87346  23558177.0354   23558182.3074   23558177.194
        46.0004         41.0004
  -2055308.18147  -1565187.92046  24691554.2644   24691559.8684   24691554.334
        43.0004         38.0004
  -2691377.04347  -2086053.04147  24845954.1054   24845958.2044   24845954.540
        47.0004         43.0004
 -12553421.73449  -9725890.35948  22551103.0894   22551105.0454   22551103.380
        55.0004         51.0004
  -3126786.45047  -2413723.69046  24401229.2194   24401233.2494   24401228.839
        46.0004         41.0004
  -8921955.89648  -6892264.46747  22320113.3354   22320115.8084   22320113.448
        48.0004         44.0004
 -21003205.05349 -16326596.84948  21138675.0444   21138675.6434   21138675.561
        55.0004         50.0004
 20 11  7  0 55  0.0000000  0  9G30G05G06G09G15G29G07G13G02
  -5219648.48547  -4026944.99146  24158134.5014   24158139.7844   24158135.271
        44.0004         40.0004
 -22879156.22349 -17808290.34349  20474553.1654   20474555.3624   20474552.964
        60.0004         56.0004
  -7461041.99347  -5771443.91546  23575684.6704   23575690.1574   23575683.168
        46.0004         41.0004
  -1952177.72947  -1484826.58746  24711178.1894   24711183.5274   24711179.920
        43.0004         38.0004
  -2810455.47148  -2178841.40447  24823294.9834   24823298.4344   24823295.404
        48.0004         43.0004
 -12599186.17049  -9761550.95148  22542394.1874   22542396.2324   22542394.625
        55.0004         51.0004
  -3150130.98447  -2431914.24446  24396787.3164   24396789.2264   24396787.443
        45.0004         41.0004
  -9020550.13148  -6969091.12147  22301350.8854   22301355.0634   22301351.831
        48.0004         44.0004
 -20982621.63749 -16310557.83248  21142592.0184   21142592.8114   21142592.799
        55.0004         50.0004
 20 11  7  0 55 30.0000000  0  9G30G05G06G09G15G29G07G13G02
  -5282389.73747  -4075834.21946  24146196.0394   24146202.0224   24146196.244
        44.0004         40.0004
 -22892109.25449 -17818383.61249  20472088.4814   20472090.5934   20472088.277
        60.0004         56.0004
  -7368824.14447  -5699585.89746  23593233.2834   23593239.7104   23593233.679
        46.0004         41.0004
  -1848881.86747  -1404336.37646  24730834.6134   24730840.7194   24730836.430
        43.0004         38.0004
  -2929455.77848  -2271568.84347  24800649.4654   24800652.9154   24800649.133
        48.0004         43.0004
 -12644381.86849  -9796768.38648  22533793.8904   22533795.7204   22533794.462
        55.0004         51.0004
  -3173018.64547  -2449748.78446  24392432.5354   24392433.8744   24392432.453
        45.0004         40.0004
  -9118817.09548  -7045662.76247  22282651.8624   22282654.9734   22282652.769
        49.0004         44.0004
 -20961637.12149 -16294206.27448  21146585.5234   21146586.0104   21146586.223
        55.0004         50.0004
 20 11  7  0 56  0.0000000  0  9G30G05G06G09G15G29G07G13G02
  -5344811.27147  -4124474.34546  24134317.5044   24134323.2614   24134317.527
        45.0004         40.0004
 -22904715.06449 -17828206.32049  20469689.7194   20469691.6334   20469689.592
        60.0004         56.0004
  -7276391.71247  -5627560.66846  23610821.7574   23610828.3754   23610820.027
        46.0004         41.0004
  -1745422.98947  -1323719.12746  24750522.5934   24750527.6994   24750522.690
        43.0004         38.0004
  -3048376.21348  -2364234.05247  24778019.1304   24778023.0534   24778018.060
        48.0004         43.0004
 -12689007.13349  -9831541.31748  22525301.2534   22525304.0354   22525301.091
        55.0004         50.0004
  -3195447.64547  -2467225.94846  24388163.7844   24388165.6674   24388164.567
        45.0004         40.0004
  -9216754.24348  -7121977.39847  22264015.1504   22264017.9264   22264015.970
        49.0004         44.0004
 -20940251.17149 -16277541.90948  21150654.7234   21150655.6524   21150655.414
        55.0004         50.0004
 20 11  7  0 56 30.0000000  0  9G30G05G06G09G15G29G07G13G02
  -5406910.38747  -4172863.24746  24122499.6984   24122507.3314   24122499.778
        45.0004         40.0004
 -22916974.16349 -17837758.86249  20467356.9224   20467358.8904   20467356.699
        60.0004         56.0004
  -7183745.69647  -5555369.01046  23628451.6914   23628459.1854   23628450.749
        45.0004         41.0004
  -1641803.55547  -1242976.75746  24770240.4594   24770246.2984   24770242.224
        43.0004         38.0004
  -3167214.59348  -2456835.30347  24755404.9924   24755409.0784   24755404.217
        48.0004         43.0004
 -12733060.08949  -9865868.29048  22516918.2904   22516920.6364   22516918.639
        55.0004         50.0004
  -3217416.83547  -2484344.80046  24383982.2874   24383985.2984   24383982.730
        45.0004         40.0004
  -9314359.00348  -7198033.02247  22245442.0344   22245444.5294   22245441.682
        49.0004         44.0004
 -20918463.58649 -16260564.58848  21154800.7564   21154801.7394   21154801.430
        55.0004         50.0004
 20 11  7  0 57  0.0000000  0  9G30G05G06G09G15G29G07G13G02
  -5468684.48147  -4220998.86046  24110743.8194   24110750.2714   24110743.894
        45.0004         40.0004
 -22928886.70649 -17847041.36049  20465089.6734   20465092.0254   20465089.632
        60.0004         56.0004
  -7090887.20847  -5483011.79146  23646122.4774   23646129.1784   23646120.988
        46.0004         41.0004
  -1538026.02047  -1162111.18646  24789987.5574   24789995.0064   24789989.178
        43.0004         38.0004
  -3285968.76148  -2549370.93547  24732806.8364   24732810.2414   24732807.415
        48.0004         43.0004
 -12776539.49249  -9899748.33948  22508644.5784   22508647.1074   22508644.140
        55.0004         51.0004
  -3238924.98247  -2501104.41946  24379889.5794   24379892.5094   24379889.944
        45.0004         40.0004
  -9411628.80748  -7273827.64947  22226932.5404   22226934.8834   22226931.738
        49.0004         44.0004
 -20896273.69949 -16243273.79348  21159023.5184   21159024.5184   21159023.621
        55.0004         50.0004
 20 11  7  0 57 30.0000000  0  9G30G05G06G09G15G29G07G13G02
  -5530130.85647  -4268879.08446  24099052.6634   24099058.2044   24099053.423
        45.0004         41.0004
 -22940453.02349 -17856054.07449  20462888.7854   20462891.1654   20462888.301
        60.0004         56.0004
  -6997817.33247  -5410489.86246  23663832.4834   23663839.6424   23663831.580
        46.0004         41.0004
  -1434092.78747  -1081124.28446  24809764.7464   24809773.2894   24809765.736
        43.0004         38.0004
  -3404636.80048  -2641839.47347  24710225.4254   24710228.8114   24710225.698
        48.0004         43.0004
 -12819443.30949  -9933179.88848  22500480.2094   22500482.4424   22500479.195
        55.0004         50.0004
  -3259970.86247  -2517503.80246  24375883.3524   24375888.0974   24375883.550
        44.0004         39.0004
  -9508561.21248  -7349359.36347  22208486.4734   22208489.3434   22208486.311
        49.0004         44.0004
 -20873680.93949 -16225669.06848  21163322.7534   21163323.8754   21163323.465
        55.0004         50.0004
 20 11  7  0 58  0.0000000  0  9G30G05G06G09G15G29G07G13G02
  -5591246.86347  -4316501.89346  24087421.9774   24087428.0454   24087422.911
        45.0004         41.0004
 -22951673.10349 -17864796.99149  20460753.9904   20460755.8584   20460753.744
        60.0004         56.0004
  -6904537.10847  -5337804.03946  23681583.8154   23681591.3194   23681583.919
        46.0004         41.0004
  -1330006.30347  -1000017.97046  24829572.3824   24829579.8234   24829572.012
        42.0004         38.0004
  -3523216.35248  -2734239.07147  24687661.1714   24687663.7834   24687662.531
        48.0004         43.0004
 -12861770.16749  -9966161.85148  22492425.6164   22492427.9054   22492425.187
        55.0004         51.0004
  -3280552.99147  -2533541.83446  24371967.4224   24371972.0114   24371967.358
        45.0004         40.0004
  -9605153.81348  -7424626.29747  22190105.0774   22190108.4914   22190105.038
        49.0004         44.0004
 -20850684.90149 -16207750.09448  21167698.6904   21167699.8624   21167699.073
        55.0004         50.0004
 20 11  7  0 58 30.0000000  0  9G30G05G06G09G15G29G07G13G02
  -5652029.85747  -4363865.21946  24075855.0944   24075861.3504   24075854.516
        45.0004         40.0004
 -22962547.78449 -17873270.77049  20458684.4964   20458686.4184   20458684.426
        60.0004         56.0004
  -6811047.72147  -5264955.21046  23699374.7324   23699381.4354   23699374.212
        46.0004         41.0004
  -1225769.10047   -918794.21346  24849407.6644   24849416.2974   24849408.534
        42.0004         37.0004
  -3641705.49548  -2826568.25547  24665113.5194   24665116.3114   24665113.435
        48.0004         43.0004
 -12903518.51349  -9998693.03148  22484481.6444   22484483.5964   22484481.801
        55.0004         51.0004
  -3300669.99247  -2549217.44846  24368139.7944   24368142.9044   24368138.997
        45.0004         40.0004
  -9701403.77748  -7499626.24647  22171789.2874   22171791.9194   22171789.818
        49.0004         45.0004
 -20827285.21549 -16189516.58748  21172151.2674   21172152.4594   21172152.435
        55.0004         50.0004
 20 11  7  0 59  0.0000000  0  9G30G05G06G09G15G29G07G13G02
  -5712477.20647  -4410967.01646  24064353.0014   24064357.9674   24064352.073
        45.0004         41.0004
 -22973076.77449 -17881475.17749  20456681.0914   20456683.1084   20456680.696
        60.0004         56.0004
  -6717350.18847  -5191944.21746  23717204.2604   23717211.3554   23717204.498
        46.0004         41.0004
  -1121383.46947   -837454.80046  24869273.2904   24869280.0554   24869272.604
        42.0004         37.0004
  -3760101.99647  -2918825.25547  24642581.8834   24642585.3704   24642585.890
        47.0004         42.0004
 -12944686.66749 -10030772.11248  22476647.1964   22476648.9254   22476647.765
        55.0004         50.0004
  -3320321.18647  -2564530.09246  24364400.8264   24364403.4694   24364399.222
        45.0004         40.0004
  -9797309.16948  -7574357.69147  22153539.3744   22153541.9344   22153539.136
        49.0004         44.0004
 -20803481.48449 -16170968.23748  21176681.4064   21176682.1694   21176682.085
        55.0004         50.0004
 20 11  7  0 59 30.0000000  0  9G30G05G06G09G15G29G07G13G02
  -5772586.26047  -4457805.16146  24052914.0314   24052920.2794   24052913.284
        45.0004         40.0004
 -22983260.58749 -17889410.62449  20454743.2504   20454745.1824   20454743.133
        60.0004         56.0004
  -6623445.65347  -5118771.91246  23735074.5824   23735081.3164   23735074.031
        46.0004         41.0004
  -1016851.91047   -756001.68746  24889163.9684   24889170.5844   24889163.557
        42.0004         37.0004
  -3878404.02557  -3011008.58756  24620069.1155   24620074.5615   24620068.637
        46.0004         41.0004
 -12985273.39649 -10062398.12848  22468923.4304   22468926.3634   22468923.465
        55.0004         50.0004
  -3339505.07547  -2579478.62646  24360750.5664   24360752.7734   24360749.279
        45.0004         41.0004
  -9892867.19048  -7648818.44647  22135354.9864   22135357.9444   22135355.580
        49.0004         45.0004
 -20779273.23549 -16152104.69048  21181288.0284   21181289.0024   21181288.561
        55.0004         50.0004
 20 11  7  1  0  0.0000000  0  9G30G05G06G09G15G29G07G13G02
  -5832354.42947  -4504377.71846  24041540.0024   24041546.2774   24041539.678
        45.0004         40.0004
 -22993099.54549 -17897077.34449  20452870.8044   20452872.7464   20452870.571
        60.0004         56.0004
  -6529335.25447  -5045439.19146  23752982.8814   23752989.3394   23752982.222
        46.0004         41.0004
   -912176.89847   -674436.79646  24909083.8434   24909090.8234   24909083.043
        42.0004         37.0004
  -3996609.39447  -3103116.62747  24597575.5454   24597580.0454   24597577.395
        46.0004         42.0004
 -13025276.86449 -10093569.67148  22461311.4954   22461313.3704   22461312.155
        55.0004         50.0004
  -3358220.03247  -2594061.75246  24357189.5884   24357191.8134   24357188.993
        45.0004         41.0004
  -9988075.49248  -7723006.71047  22117237.6184   22117240.0234   22117237.934
        49.0004         44.0004
 -20754660.00749 -16132925.58148  21185971.7574   21185972.4854   21185972.271
        55.0004         50.0004
 20 11  7  1  0 30.0000000  0  9G30G05G06G09G15G29G07G13G02
  -5891779.01347  -4550682.55046  24030232.0844   24030238.0524   24030232.676
        45.0004         40.0004
 -23002593.89449 -17904475.53849  20451064.0614   20451065.9834   20451063.922
        60.0004         56.0004
  -6435020.00247  -4971946.85646  23770930.3304   23770936.4434   23770930.707
        46.0004         41.0004
   -807360.65147   -592761.85646  24929029.6854   24929036.2724   24929029.052
        42.0004         37.0004
  -4114715.70447  -3195147.54747  24575101.3514   24575106.2224   24575101.769
        47.0004         42.0004
 -13064695.37049 -10124285.40548  22453810.5904   22453812.5834   22453810.914
        55.0004         51.0004
  -3376465.40947  -2608278.97046  24353717.1154   24353719.4054   24353717.272
        45.0004         41.0004
 -10082931.37748  -7796920.36147  22099187.3464   22099190.1504   22099187.202
        49.0004         45.0004
 -20729641.55749 -16113430.71048  21190732.6524   21190733.1344   21190733.077
        55.0004         50.0004
 20 11  7  1  1  0.0000000  0  9G30G05G06G09G15G29G07G13G02
  -5950857.50547  -4596717.69946  24018990.2014   24018995.5464   24018989.397
        45.0004         40.0004
 -23011743.45149 -17911605.05849  20449323.0454   20449324.8684   20449322.916
        60.0004         56.0004
  -6340501.15047  -4898295.85046  23788917.2444   23788922.3624   23788917.278
        46.0004         41.0004
   -702405.70347   -510978.84546  24949001.1894   24949008.6324   24949002.839
        42.0004         38.0004
  -4232721.07748  -3287099.80047  24552646.1204   24552650.1204   24552646.664
        48.0004         43.0004
 -13103528.03249 -10154544.62148  22446420.9474   22446423.0154   22446421.139
        55.0004         51.0004
  -3394240.08047  -2622129.38746  24350333.9054   24350336.6354   24350333.832
        45.0004         40.0004
 -10177432.84248  -7870557.83447  22081203.9454   22081206.9144   22081203.732
        49.0004         45.0004
 -20704217.74649 -16093619.97148  21195571.0784   21195571.5574   21195571.694
        55.0004         50.0004
 20 11  7  1  1 30.0000000  0  9G30G05G06G09G15G29G07G13G02
  -6009587.25947  -4642481.09946  24007814.3524   24007819.6154   24007815.786
        45.0004         40.0004
 -23020548.89349 -17918466.43849  20447647.1584   20447649.3244   20447646.508
        60.0004         56.0004
  -6245779.79747  -4824487.05746  23806942.0714   23806948.2904   23806941.100
        46.0004         41.0004
   -597314.44847   -429089.60046  24968999.8434   24969004.6844   24969000.701
        42.0004         38.0004
  -4350623.36948  -3378971.75147  24530209.8804   24530214.0614   24530207.849
        49.0004         45.0004
 -13141773.11649 -10184345.99548  22439143.2694   22439145.1224   22439143.261
        55.0004         51.0004
  -3411542.64547  -2635611.95046  24347041.1294   24347044.9184   24347040.078
        45.0004         40.0004
 -10271577.12048  -7943916.98447  22063288.3694   22063290.8404   22063288.283
        49.0004         45.0004
 -20678387.81149 -16073492.75848  21200485.8024   21200486.8034   21200486.705
        55.0004         50.0004
 20 11  7  1  2  0.0000000  0  9G30G05G06G09G15G29G07G13G02
  -6067965.64047  -4687970.70546  23996704.4784   23996711.3504   23996703.645
        45.0004         40.0004
 -23029010.13849 -17925059.60249  20446036.9434   20446039.0474   20446036.614
        60.0004         56.0004
  -6150857.02347  -4750521.31346  23825004.3074   23825010.9314   23825004.808
        46.0004         41.0004
   -492089.14947   -347095.90646  24989024.2534   24989029.2654   24989023.894
        42.0004         38.0004
  -4468420.50648  -3470761.77847  24507794.5464   24507797.6844   24507793.566
        50.0004         45.0004
 -13179428.74349 -10213688.04848  22431977.0104   22431979.4374   22431976.985
        55.0004         50.0004
  -3428371.86247  -2648725.64946  24343838.0054   24343842.1744   24343837.106
        45.0004         40.0004
 -10365361.82848  -8016995.95447  22045441.9404   22045445.0754   22045442.775
        49.0004         45.0004
 -20652151.18049 -16053048.64448  21205478.5774   21205479.4614   21205479.670
        55.0004         50.0004
 20 11  7  1  2 30.0000000  0  9G30G05G06G09G15G29G07G13G02
  -6125990.19247  -4733184.61946  23985663.0564   23985669.5664   23985663.268
        45.0004         40.0004
 -23037127.86449 -17931385.10449  20444492.1474   20444494.3274   20444491.936
        60.0004         56.0004
  -6055734.01347  -4676399.52546  23843105.8154   23843112.8924   23843105.677
        45.0004         41.0004
   -386732.33247   -264999.72846  25009072.4174   25009076.8394   25009073.254
        42.0004         37.0004
  -4586110.58948  -3562468.39647  24485398.8924   24485402.3234   24485397.227
        50.0004         46.0004
 -13216493.80249 -10242569.92548  22424923.2504   22424926.2024   22424923.225
        55.0004         50.0004
  -3444726.85547  -2661469.83246  24340725.9324   24340730.6144   24340725.926
        45.0004         40.0004
 -10458784.57748  -8089792.88547  22027664.2244   22027667.8704   22027664.847
        49.0004         45.0004
 -20625508.02849 -16032287.76448  21210548.6214   21210549.6304   21210549.353
        54.0004         50.0004
 20 11  7  1  3  0.0000000  0  9G30G05G06G09G15G29G07G13G02
  -6183658.26847  -4778120.74046  23974688.7994   23974695.1644   23974688.624
        44.0004         40.0004
 -23044902.51549 -17937443.26949  20443012.8614   20443014.9024   20443012.463
        60.0004         56.0004
  -5960411.89547  -4602122.59046  23861245.6974   23861253.3344   23861245.229
        45.0004         41.0004
   -281246.31547   -182802.87446  25029147.2354   25029150.7164   25029147.536
        42.0004         37.0004
  -4703691.26248  -3654089.75447  24463023.4964   24463027.4864   24463023.482
        50.0004         45.0004
 -13252967.30949 -10270990.84048  22417982.4434   22417985.4224   22417982.488
        55.0004         50.0004
  -3460606.21647  -2673843.38946  24337704.6044   24337708.6884   24337705.121
        45.0004         40.0004
 -10551842.95948  -8162305.88047  22009955.8514   22009958.6924   22009956.314
        49.0004         45.0004
 -20598457.53549 -16011209.48048  21215695.7844   21215697.1054   21215696.332
        54.0004         50.0004
 20 11  7  1  3 30.0000000  0  9G30G05G06G09G15G29G07G13G02
  -6240967.28747  -4822777.09546  23963784.3114   23963789.8504   23963784.252
        44.0004         40.0004
 -23052334.33749 -17943234.29549  20441598.7304   20441600.7814   20441598.519
        60.0004         56.0004
  -5864891.83347  -4527691.42546  23879422.2674   23879429.6814   23879422.352
        45.0004         40.0004
   -175633.41247   -100507.13446  25049243.7604   25049247.0254   25049244.039
        42.0004         37.0004
  -4821160.72448  -3745624.43147  24440669.8774   24440673.9374   24440669.262
        50.0004         45.0004
 -13288847.45949 -10298949.40048  22411155.2724   22411157.7874   22411155.418
        55.0004         51.0004
  -3476009.23347  -2685845.76046  24334774.8544   24334777.7644   24334773.498
        45.0004         41.0004
 -10644534.47748  -8234533.02147  21992316.8734   21992320.1424   21992317.448
        49.0004         45.0004
 -20570999.37349 -15989813.53448  21220921.1364   21220922.2544   21220921.835
        54.0004         50.0004
 20 11  7  1  4  0.0000000  0  9G30G05G06G09G15G29G07G13G02
  -6297914.77647  -4867151.72746  23952947.7424   23952953.0234   23952947.318
        45.0004         40.0004
 -23059423.20149 -17948758.08349  20440249.7604   20440251.7284   20440249.194
        60.0004         56.0004
  -5769175.01047  -4453106.94746  23897637.2154   23897642.7824   23897635.704
        45.0004         40.0004
    -69896.12247    -18114.45146  25069366.5254   25069368.9054   25069365.653
        42.0004         37.0004
  -4938516.69148  -3837070.68847  24418337.8974   24418341.7284   24418337.538
        50.0004         45.0004
 -13324133.02849 -10326444.66048  22404441.0174   22404443.0494   22404440.689
        55.0004         51.0004
  -3490934.67247  -2697475.96746  24331935.1774   24331936.7174   24331933.131
        45.0004         41.0004
 -10736856.78148  -8306472.44347  21974748.9534   21974751.1994   21974748.724
        50.0004         45.0004
 -20543133.96449 -15968100.25348  21226224.1024   21226224.8114   21226224.320
        54.0004         50.0004
 20 11  7  1  4 30.0000000  0  9G30G05G06G09G15G29G07G13G02
  -6354498.14347  -4911242.64546  23942180.0224   23942186.1914   23942180.594
        45.0004         40.0004
 -23066169.33249 -17954014.80149  20438966.0214   20438968.1584   20438965.526
        60.0004         56.0004
  -5673262.58147  -4378370.02446  23915887.8184   23915893.8694   23915886.933
        45.0004         40.0004
     35963.30547     64373.41146  25089510.3734   25089512.4714   25089510.534
        42.0004         37.0004
  -5055756.82048  -3928426.68147  24396028.3294   24396031.5094   24396027.574
        49.0004         44.0004
 -13358822.64449 -10353475.53848  22397839.9494   22397841.8744   22397839.869
        55.0004         51.0004
  -3505381.50247  -2708733.21446  24329185.5434   24329188.2454   24329184.713
        45.0004         41.0004
 -10828807.55348  -8378122.36747  21957250.9214   21957253.5434   21957251.422
        50.0004         45.0004
 -20514860.70149 -15946069.16348  21231604.3374   21231605.0584   21231604.243
        54.0004         50.0004
 20 11  7  1  5  0.0000000  0  9G30G05G06G09G15G29G07G13G02
  -6410714.80047  -4955047.83546  23931481.7354   23931488.4784   23931482.341
        45.0004         40.0004
 -23072573.55249 -17959005.10149  20437747.2454   20437749.4024   20437747.101
        60.0004         56.0004
  -5577155.67747  -4303481.56246  23934175.8474   23934183.8674   23934175.794
        45.0004         40.0004
    141942.52247    146954.60546  25109677.1804   25109681.6764   25109676.370
        42.0004         37.0004
  -5172878.97448  -4019690.74447  24373740.5404   24373743.9744   24373740.513
        49.0004         44.0004
 -13392915.11249 -10380041.11048  22391352.0634   22391354.4734   22391352.005
        55.0004         51.0004
  -3519348.69847  -2719616.70546  24326528.2684   24326530.0094   24326528.231
        45.0004         41.0004
 -10920384.26948  -8449480.81147  21939826.0804   21939827.0334   21939825.493
        50.0004         45.0004
 -20486179.14949 -15923719.92448  21237061.9634   21237063.1374   21237062.522
        54.0004         50.0004
 20 11  7  1  5 30.0000000  0  9G30G05G06G09G15G29G07G13G02
  -6466562.37147  -4998565.39846  23920854.3994   23920859.3144   23920854.574
        45.0004         40.0004
 -23078635.77549 -17963728.90749  20436593.6944   20436595.6394   20436593.373
        60.0004         56.0004
  -5480855.52147  -4228442.52846  23952502.0004   23952509.2834   23952501.561
        44.0004         40.0004
    248039.15047    229627.28946  25129865.8824   25129871.0294   25129866.277
        42.0004         37.0004
  -5289881.39248  -4110861.47947  24351475.7714   24351478.2734   24351476.464
        48.0004         43.0004
 -13426409.13849 -10406140.36348  22384978.7154   22384980.8404   22384979.005
        55.0004         51.0004
  -3532835.44347  -2730125.79246  24323960.7954   24323964.0034   24323960.083
        45.0004         41.0004
 -11011584.78648  -8520546.11447  21922469.7304   21922472.9224   21922469.974
        50.0004         45.0004
 -20457088.97449 -15901052.28048  21242597.8374   21242598.6014   21242598.206
        54.0004         50.0004
 20 11  7  1  6  0.0000000  0  9G30G05G06G09G15G29G07G13G02
  -6522038.29447  -5041793.35146  23910297.9114   23910303.7274   23910296.955
        45.0004         40.0004
 -23084356.36949 -17968186.51349  20435505.1124   20435507.1504   20435504.915
        60.0004         56.0004
  -5384363.28347  -4153253.83046  23970865.7804   23970870.7254   23970866.019
        44.0004         39.0004
    354250.86647    312389.65646  25150078.5154   25150081.7644   25150078.112
        42.0004         37.0004
  -5406761.88248  -4201937.14447  24329233.6714   24329237.3114   24329232.772
        48.0004         43.0004
 -13459303.48749 -10431772.32648  22378719.2924   22378721.4004   22378719.429
        55.0004         51.0004
  -3545840.52347  -2740259.54446  24321484.3784   24321489.2074   24321486.024
        45.0004         41.0004
 -11102406.61548  -8591316.34347  21905187.2834   21905189.8824   21905186.985
        50.0004         45.0004
 -20427589.80749 -15878065.93948  21248211.0394   21248211.9184   21248211.818
        54.0004         50.0004
 20 11  7  1  6 30.0000000  0  9G30G05G06G09G15G29G07G13G02
  -6577139.99747  -5084729.72546  23899811.0224   23899818.3834   23899812.234
        45.0004         40.0004
 -23089735.84849 -17972378.31049  20434481.3184   20434483.4784   20434481.267
        60.0004         56.0004
  -5287680.13147  -4077916.35746  23989263.1424   23989269.6034   23989262.534
        44.0004         39.0004
    460575.39547    395239.93646  25170310.9374   25170314.6144   25170311.526
        42.0004         37.0004
  -5523518.30648  -4292916.06347  24307016.3864   24307018.9224   24307015.192
        48.0004         43.0004
 -13491596.90549 -10456936.02848  22372573.8094   22372576.5644   22372573.976
        56.0004         51.0004
  -3558363.05347  -2750017.29446  24319103.2454   24319106.6814   24319104.693
        45.0004         41.0004
 -11192847.57048  -8661789.77847  21887976.6194   21887979.1754   21887977.071
        50.0004         45.0004
 -20397681.59349 -15854760.85248  21253902.8244   21253903.6584   21253903.644
        54.0004         50.0004
 20 11  7  1  7  0.0000000  0  9G30G05G06G09G15G29G07G13G02
  -6631865.08747  -5127372.65346  23889398.0154   23889404.2704   23889398.086
        45.0004         40.0004
 -23094774.39349 -17976304.44549  20433522.4964   20433524.7244   20433522.385
        60.0004         56.0004
  -5190807.28947  -4002431.09546  24007697.0104   24007703.3944   24007698.615
        44.0004         39.0004
    567010.34346    478176.25846  25190564.6214   25190570.8594   25190565.008
        41.0004         36.0004
  -5640148.73447  -4383796.80947  24284821.6804   24284824.3324   24284820.245
        47.0004         42.0004
 -13523288.27249 -10481630.60948  22366542.9174   22366546.0724   22366543.226
        56.0004         51.0004
  -3570402.23847  -2759398.40646  24316812.3724   24316814.7754   24316812.905
        45.0004         41.0004
 -11282905.41048  -8731964.68647  21870839.0514   21870842.3384   21870839.844
        50.0004         45.0004
 -20367364.28649 -15831137.00648  21259672.1564   21259672.7764   21259672.444
        54.0004         50.0004
 20 11  7  1  7 30.0000000  0  9G30G05G06G09G15G29G07G13G02
  -6686211.04047  -5169720.12846  23879057.3694   23879062.5614   23879057.511
        45.0004         41.0004
 -23099472.22249 -17979965.08449  20432628.6454   20432630.9224   20432628.522
        60.0004         56.0004
  -5093745.94647  -3926798.92046  24026166.9314   24026173.7144   24026166.832
        44.0004         39.0004
    673553.45346    561196.86146  25210837.8594   25210843.0784   25210838.203
        41.0004         36.0004
  -5756651.11147  -4474577.73547  24262651.0534   24262655.7834   24262650.793
        47.0004         42.0004
 -13554376.18449 -10505854.95448  22360626.9464   22360630.1804   22360626.380
        56.0004         51.0004
  -3581956.98147  -2768402.03546  24314613.5704   24314616.0304   24314613.859
        45.0004         41.0004
 -11372577.31048  -8801838.85047  21853775.4354   21853778.3674   21853775.363
        50.0004         45.0004
 -20336637.40049 -15807193.99948  21265518.8984   21265520.1604   21265519.602
        54.0004         50.0004
 20 11  7  1  8  0.0000000  0  9G30G05G06G09G15G29G07G13G02
  -6740175.48147  -5211770.31046  23868786.5924   23868792.4874   23868787.357
        45.0004         40.0004
 -23103829.52349 -17983360.37549  20431799.4214   20431801.5334   20431799.165
        60.0004         56.0004
  -4996497.38347  -3851020.88046  24044672.8294   24044679.9784   24044671.660
        44.0004         39.0004
    780202.36046    644299.85646  25231134.3744   25231140.6654   25231133.784
        41.0004         36.0004
  -5873023.24547  -4565257.14447  24240505.6984   24240510.3514   24240504.309
        47.0004         42.0004
 -13584859.92849 -10529608.53448  22354826.0384   22354828.7794   22354826.177
        56.0004         51.0004
  -3593026.71247  -2777027.76446  24312505.8094   24312510.5774   24312506.211
        45.0004         41.0004
 -11461861.36548  -8871410.79847  21836785.0394   21836788.0164   21836785.131
        50.0004         45.0004
 -20305500.66949 -15782931.62448  21271443.8574   21271445.2344   21271444.256
        54.0004         50.0004
 20 11  7  1  8 30.0000000  0  9G30G05G06G09G15G29G07G13G02
  -6793755.86447  -5253521.25646  23858590.8404   23858597.8264   23858591.327
        45.0004         41.0004
 -23107846.95449 -17986490.83749  20431034.8134   20431036.9854   20431034.805
        60.0004         56.0004
  -4899062.71647  -3775097.81246  24063214.5794   24063220.6004   24063214.514
        44.0004         40.0004
    886954.84146    727483.58045  25251448.0064   25251453.5334   25251447.508
        40.0004         35.0004
  -5989263.16047  -4655833.55847  24218386.2984   24218390.8464   24218383.335
        47.0004         43.0004
 -13614737.68249 -10552889.89848  22349140.8244   22349143.3804   22349140.981
        56.0004         51.0004
  -3603609.70747  -2785274.22746  24310493.2344   24310495.6774   24310492.108
        45.0004         41.0004
 -11550754.79848  -8940678.37947  21819869.2864   21819871.7334   21819869.108
        50.0004         45.0004
 -20273953.93849 -15758349.77148  21277447.1414   21277448.4084   21277447.841
        54.0004         50.0004
 20 11  7  1  9  0.0000000  0  9G30G05G06G09G15G29G07G13G02
  -6846949.71147  -5294970.99846  23848468.9274   23848474.3804   23848469.641
        45.0004         41.0004
 -23111524.26549 -17989356.26849  20430334.9594   20430337.3784   20430334.481
        60.0004         56.0004
  -4801443.07647  -3699030.63246  24081791.0504   24081798.7914   24081790.500
        44.0004         40.0004
    993808.61146    810746.26145  25271779.4964   25271787.0104   25271780.858
        40.0004         35.0004
  -6105368.48148  -4746305.12147  24196293.4634   24196296.9054   24196292.641
        48.0004         44.0004
 -13644008.65549 -10575698.44948  22343570.7784   22343573.2444   22343570.741
        55.0004         51.0004
  -3613706.15247  -2793141.55546  24308572.0184   24308574.4914   24308570.977
        45.0004         41.0004
 -11639255.64648  -9009640.03547  21803027.7264   21803030.4324   21803028.082
        50.0004         46.0004
 -20241997.16149 -15733448.40048  21283528.6054   21283529.5014   21283529.376
        54.0004         50.0004
 20 11  7  1  9 30.0000000  0  9G30G05G06G09G15G29G07G13G02
  -6899754.71747  -5336117.73946  23838421.0064   23838426.4764   23838421.286
        46.0004         41.0004
 -23114862.43549 -17991957.43449  20429699.7014   20429702.1534   20429699.361
        60.0004         56.0004
  -4703639.92047  -3622820.43746  24100400.9784   24100408.6244   24100400.691
        44.0004         40.0004
   1100761.27446    894085.98945  25292133.1854   25292141.0964   25292133.366
        40.0004         35.0004
  -6221337.46948  -4836670.48547  24174224.8324   24174228.3204   24174224.877
        49.0004         45.0004
 -13672672.09449 -10598033.59448  22338116.3184   22338118.8554   22338116.097
        56.0004         51.0004
  -3623314.92847  -2800628.88146  24306742.4484   24306745.1664   24306742.199
        45.0004         40.0004
 -11727361.86748  -9078294.20047  21786261.6334   21786265.0374   21786261.977
        50.0004         45.0004
 -20209629.98249 -15708227.23048  21289688.1054   21289688.6854   21289688.703
        54.0004         50.0004
 20 11  7  1 10  0.0000000  0  9G30G05G06G09G15G29G07G13G02
  -6952168.45747  -5376959.58746  23828445.7484   23828452.0384   23828446.723
        46.0004         41.0004
 -23117861.27049 -17994294.18549  20429129.3724   20429131.2584   20429128.981
        60.0004         56.0004
  -4605654.34247  -3546468.07646  24119046.8224   24119055.4094   24119046.316
        45.0004         40.0004
   1207810.60646    977501.03445  25312502.5944   25312509.2664   25312504.145
        40.0004         35.0004
  -6337167.78848  -4926927.83047  24152183.4554   24152186.4054   24152183.616
        50.0004         46.0004
 -13700726.63449 -10619894.27948  22332778.1444   22332780.1494   22332779.010
        56.0004         51.0004
  -3632435.17447  -2807735.54046  24305006.8714   24305010.3154   24305006.735
        45.0004         41.0004
 -11815070.87148  -9146638.85347  21769571.2864   21769574.4614   21769571.487
        50.0004         46.0004
 -20176852.42549 -15682686.29748  21295925.3804   21295926.1644   21295926.044
        54.0004         50.0004
 20 11  7  1 10 30.0000000  0  8G30G05G06G15G29G07G13G02
  -7004188.41247  -5417494.59746  23818546.6664   23818553.2064   23818547.017
        45.0004         41.0004
 -23120521.33249 -17996366.95749  20428622.9604   20428625.0184   20428622.667
        60.0004         56.0004
  -4507487.50347  -3469974.52146  24137729.0934   24137734.4334   24137729.015
        44.0004         40.0004
  -6452857.39548  -5017075.54647  24130168.0534   24130171.5054   24130168.333
        51.0004         46.0004
 -13728171.35349 -10641279.78148  22327555.1874   22327557.4104   22327556.232
        56.0004         51.0004
  -3641065.65747  -2814460.56646  24303364.6094   24303367.1284   24303363.191
        45.0004         41.0004
 -11902380.39448  -9214672.23047  21752957.3274   21752959.6934   21752957.403
        50.0004         46.0004
 -20143664.17349 -15656825.34648  21302240.8504   21302242.0124   21302241.601
        54.0004         50.0004
 20 11  7  1 11  0.0000000  0  9G30G05G06G09G15G29G07G13G02
  -7055812.29047  -5457720.97846  23808722.6134   23808729.6104   23808724.087
        46.0004         41.0004
 -23122842.99249 -17998176.04249  20428181.3304   20428183.3864   20428181.188
        60.0004         56.0004
  -4409140.83347  -3393340.80546  24156444.2924   24156449.3214   24156444.510
        45.0004         40.0004
   1422190.47356   1144550.22255  25353297.3025   25353304.0775   25353299.887
        39.0004         35.0004
  -6568404.52648  -5107112.25747  24108180.0374   24108183.0074   24108181.308
        51.0004         46.0004
 -13755005.10549 -10662189.20848  22322449.0774   22322451.2464   22322449.350
        56.0004         51.0004
  -3649206.21047  -2820803.85146  24301815.8314   24301817.5394   24301814.507
        45.0004         40.0004
 -11989288.26548  -9282392.63247  21736419.6544   21736421.9544   21736419.591
        50.0004         46.0004
 -20110065.33949 -15630644.46548  21308634.3904   21308635.4904   21308634.942
        54.0004         49.0004
 20 11  7  1 11 30.0000000  0  8G30G05G06G15G29G07G13G02
  -7107037.76147  -5497636.91746  23798976.1194   23798981.0794   23798975.641
        46.0004         41.0004
 -23124826.43349 -17999721.57349  20427803.8534   20427805.7774   20427803.533
        60.0004         56.0004
  -4310615.48547  -3316567.85146  24175192.3214   24175198.2524   24175191.720
        45.0004         40.0004
  -6683806.89048  -5197036.17747  24086219.6514   24086223.4294   24086220.547
        51.0004         47.0004
 -13781226.76949 -10682621.68048  22317459.3464   22317461.0714   22317458.904
        56.0004         51.0004
  -3656855.56747  -2826764.37946  24300359.3774   24300363.2844   24300361.142
        45.0004         40.0004
 -12075792.33848  -9349798.38647  21719957.9234   21719960.0674   21719958.107
        51.0004         46.0004
 -20076055.66949 -15604143.43948  21315106.0944   21315107.1914   21315106.637
        54.0004         49.0004
 20 11  7  1 12  0.0000000  0  8G30G05G06G15G29G07G13G02
  -7157862.24647  -5537240.40046  23789304.1724   23789310.2434   23789305.066
        45.0004         41.0004
 -23126471.75749 -18001003.64649  20427490.8204   20427492.8174   20427490.707
        60.0004         56.0004
  -4211912.59447  -3239656.56046  24193974.8994   24193980.8564   24193973.875
        45.0004         40.0004
  -6799062.13248  -5286845.43947  24064287.1674   24064290.9854   24064287.788
        51.0004         47.0004
 -13806835.77049 -10702576.74248  22312585.5874   22312587.8114   22312584.910
        56.0004         51.0004
  -3664013.21347  -2832341.77846  24298998.3434   24298999.8564   24298999.478
        45.0004         40.0004
 -12161890.05548  -9416887.51247  21703573.7844   21703576.1754   21703573.797
        51.0004         46.0004
 -20041634.92849 -15577322.09248  21321656.5124   21321657.1354   21321657.028
        54.0004         49.0004
 20 11  7  1 12 30.0000000  0  8G30G05G06G15G29G07G13G02
  -7208283.61847  -5576529.73146  23779709.5464   23779715.1024   23779709.386
        46.0004         41.0004
 -23127779.60049 -18002022.74149  20427241.5994   20427243.9474   20427241.374
        60.0004         56.0004
  -4113033.58047  -3162608.05246  24212790.6714   24212796.7204   24212788.522
        45.0004         40.0004
  -6914168.67848  -5376538.85447  24042383.2734   24042386.9904   24042383.097
        51.0004         46.0004
 -13831830.90649 -10722053.47548  22307829.6804   22307831.4484   22307829.964
        56.0004         51.0004
  -3670678.28347  -2837535.34546  24297729.8974   24297732.0564   24297731.025
        45.0004         40.0004
 -12247579.49848  -9483658.49547  21687267.8664   21687270.5604   21687268.370
        51.0004         46.0004
 -20006803.34949 -15550180.62048  21328284.6384   21328285.2044   21328285.558
        54.0004         49.0004
 20 11  7  1 13  0.0000000  0  8G30G05G06G15G29G07G13G02
  -7258299.47147  -5615503.09046  23770191.1574   23770197.4384   23770191.747
        46.0004         41.0004
 -23128750.16949 -18002779.03349  20427057.0584   20427059.2254   20427057.101
        60.0004         56.0004
  -4013979.60847  -3085423.17746  24231639.3514   24231645.5414   24231638.703
        44.0004         39.0004
  -7029124.41048  -5466114.76447  24020508.0174   24020511.1514   24020506.863
        51.0004         46.0004
 -13856211.80149 -10741051.58948  22303189.6334   22303192.5794   22303189.081
        56.0004         51.0004
  -3676850.40047  -2842344.78446  24296555.0164   24296557.9524   24296556.435
        45.0004         40.0004
 -12332858.45648  -9550109.62647  21671039.7444   21671042.1144   21671040.537
        51.0004         46.0004
 -19971560.37349 -15522718.58048  21334991.0994   21334991.8864   21334991.817
        54.0004         49.0004
 20 11  7  1 13 30.0000000  0  8G30G05G06G15G29G07G13G02
  -7307907.44547  -5654158.62646  23760751.4174   23760758.5274   23760750.511
        46.0004         41.0004
 -23129383.92449 -18003272.86849  20426936.4474   20426938.7074   20426936.359
        60.0004         56.0004
  -3914752.01547  -3008103.02646  24250523.4464   24250529.1464   24250523.463
        44.0004         39.0004
  -7143926.90548  -5555571.24147  23998661.1144   23998665.0794   23998661.478
        50.0004         45.0004
 -13879976.82149 -10759569.79048  22298667.5274   22298670.3744   22298666.928
        56.0004         51.0004
  -3682528.83547  -2846769.54246  24295473.7354   24295477.4034   24295473.601
        45.0004         40.0004
 -12417724.60148  -9616239.08547  21654889.6964   21654892.6694   21654889.480
        51.0004         46.0004
 -19935906.09049 -15494936.04448  21341775.8284   21341776.7534   21341776.349
        54.0004         49.0004
 20 11  7  1 14  0.0000000  0  8G30G05G06G15G29G07G13G02
  -7357105.24947  -5692494.54746  23751389.7024   23751395.5074   23751390.495
        45.0004         41.0004
 -23129680.95249 -18003504.31749  20426879.9014   20426882.0944   20426880.039
        60.0004         56.0004
  -3815352.06447  -2930648.57846  24269437.6504   24269445.1384   24269437.658
        44.0004         40.0004
  -7258573.96348  -5644906.56347  23976845.6484   23976848.9234   23976845.519
        50.0004         45.0004
 -13903125.37449 -10777607.63848  22294262.4244   22294265.3074   22294262.569
        56.0004         51.0004
  -3687712.77947  -2850808.99246  24294488.8334   24294491.5024   24294488.041
        45.0004         41.0004
 -12502175.73948  -9682045.16147  21638819.3364   21638822.2554   21638819.905
        51.0004         46.0004
 -19899840.64349 -15466833.11948  21348638.6984   21348640.1654   21348638.964
        54.0004         49.0004
 20 11  7  1 14 30.0000000  0  8G30G05G06G15G29G07G13G02
  -7405890.60947  -5730509.06446  23742105.6424   23742112.4444   23742105.650
        45.0004         40.0004
 -23129641.84549 -18003473.84149  20426887.1544   20426889.5044   20426887.123
        60.0004         56.0004
  -3715780.95047  -2853060.74646  24288385.7154   24288391.3134   24288385.733
        44.0004         39.0004
  -7373063.81448  -5734119.40547  23955058.8644   23955062.2294   23955058.556
        50.0004         45.0004
 -13925656.77749 -10795164.59348  22289974.8084   22289977.3954   22289974.565
        56.0004         51.0004
  -3692401.33947  -2854462.42146  24293596.0024   24293599.5424   24293596.340
        45.0004         41.0004
 -12586209.64548  -9747526.12447  21622828.7664   21622830.8194   21622828.322
        51.0004         46.0004
 -19863363.94849 -15438409.73948  21355580.2534   21355581.3214   21355581.290
        54.0004         49.0004
 20 11  7  1 15  0.0000000  0  8G30G05G06G15G29G07G13G02
  -7454261.19847  -5768200.39746  23732901.0314   23732907.3284   23732899.824
        45.0004         41.0004
 -23129266.84349 -18003181.63649  20426958.6934   20426960.9564   20426958.599
        60.0004         56.0004
  -3616040.05847  -2775340.62446  24307365.4934   24307371.8414   24307365.109
        43.0004         39.0004
  -7487394.37648  -5823208.11547  23933301.8074   23933304.9624   23933301.402
        49.0004         43.0004
 -13947570.25149 -10812240.04448  22285805.0154   22285807.6544   22285805.075
        56.0004         51.0004
  -3696594.24947  -2857729.65046  24292797.6894   24292802.2764   24292796.214
        45.0004         41.0004
 -12669824.19948  -9812680.32647  21606917.2654   21606919.8754   21606917.120
        51.0004         46.0004
 -19826476.01049 -15409665.90248  21362599.8964   21362600.7424   21362600.510
        54.0004         49.0004
 20 11  7  1 15 30.0000000  0  8G30G05G06G15G29G07G13G02
  -7502214.77147  -5805566.81846  23723775.6314   23723781.7764   23723776.692
        45.0004         41.0004
 -23128556.18249 -18002627.87449  20427093.8974   20427096.2514   20427093.803
        60.0004         56.0004
  -3516130.60747  -2697489.15546  24326377.2964   24326384.3514   24326376.940
        43.0004         38.0004
  -7601563.52548  -5912171.04147  23911575.8484   23911578.3154   23911576.034
        48.0004         43.0004
 -13968864.87449 -10828833.27248  22281753.1374   22281754.9994   22281753.423
        56.0004         51.0004
  -3700290.83447  -2860610.11746  24292094.0004   24292097.7814   24292094.877
        45.0004         41.0004
 -12753017.36748  -9877506.16647  21591086.1364   21591088.4284   21591086.263
        51.0004         46.0004
 -19789176.53549 -15380601.39148  21369697.3004   21369698.7244   21369697.827
        54.0004         49.0004
 20 11  7  1 16  0.0000000  0  8G30G05G06G15G29G07G13G02
  -7549749.00847  -5842606.46246  23714731.1124   23714735.8214   23714731.964
        46.0004         41.0004
 -23127510.02049 -18001812.67749  20427293.1154   20427295.3924   20427292.752
        60.0004         56.0004
  -3416053.88147  -2619507.37246  24345421.6184   24345427.0224   24345420.787
        43.0004         38.0004
  -7715569.31048  -6001006.65847  23889881.7814   23889884.2204   23889880.802
        49.0004         44.0004
 -13989540.15649 -10844943.88948  22277818.7784   22277820.7804   22277819.814
        56.0004         51.0004
  -3703490.47047  -2863103.35446  24291486.3364   24291487.3024   24291486.544
        45.0004         41.0004
 -12835786.89348  -9942001.90347  21575335.6364   21575338.3314   21575335.896
        51.0004         46.0004
 -19751465.54649 -15351216.21848  21376873.8714   21376874.8474   21376874.557
        54.0004         49.0004
 20 11  7  1 16 30.0000000  0  8G30G05G06G15G29G07G13G02
  -7596861.80147  -5879317.70246  23705765.4604   23705770.8754   23705764.760
        46.0004         41.0004
 -23126128.82649 -18000736.42449  20427556.0534   20427558.0634   20427556.061
        60.0004         56.0004
  -3315811.25447  -2541396.29946  24364497.8904   24364505.6104   24364495.441
        43.0004         38.0004
  -7829409.57348  -6089713.28947  23868218.8824   23868221.8894   23868218.937
        49.0004         45.0004
 -14009594.87549 -10860570.95348  22274002.2994   22274004.6084   22274002.496
        56.0004         51.0004
  -3706192.54647  -2865208.88446  24290971.4624   24290974.0754   24290972.119
        45.0004         40.0004
 -12918130.74948 -10006165.94347  21559665.9864   21559668.7324   21559666.075
        51.0004         46.0004
 -19713343.31849 -15321510.60348  21384127.9064   21384129.0624   21384128.606
        54.0004         49.0004
 20 11  7  1 17  0.0000000  0  8G30G05G06G15G29G07G13G02
  -7643550.93047  -5915698.82846  23696879.8834   23696886.9494   23696881.443
        46.0004         41.0004
 -23124413.46249 -17999399.77849  20427882.3044   20427884.4734   20427882.226
        60.0004         56.0004
  -3215404.03547  -2463156.96346  24383603.8374   24383610.9174   24383601.917
        43.0004         38.0004
  -7943082.01948  -6178289.14247  23846587.4284   23846590.8824   23846587.274
        50.0004         45.0004
 -14029028.68049 -10875714.19448  22270304.0274   22270306.3044   22270304.471
        56.0004         51.0004
  -3708396.63947  -2866926.37946  24290552.2514   24290554.1274   24290552.040
        45.0004         40.0004
 -13000046.70248 -10069996.55147  21544078.0844   21544080.7254   21544078.142
        51.0004         47.0004
 -19674809.68949 -15291484.41648  21391460.8274   21391461.9394   21391461.667
        54.0004         49.0004
 20 11  7  1 17 30.0000000  0  8G30G05G06G15G29G07G13G02
  -7689813.89547  -5951747.88146  23688076.7884   23688083.1844   23688076.625
        46.0004         41.0004
 -23122363.45849 -17997802.37949  20428272.6224   20428274.6924   20428272.667
        60.0004         56.0004
  -3114833.46847  -2384790.31846  24402742.3764   24402749.6464   24402743.246
        42.0004         37.0004
  -8056584.89948  -6266732.90147  23824988.4504   23824991.4974   23824989.033
        50.0004         45.0004
 -14047840.83649 -10890373.03748  22266724.3434   22266726.9114   22266724.914
        56.0004         51.0004
  -3710102.20147  -2868255.42046  24290226.7744   24290229.8994   24290226.964
        45.0004         40.0004
 -13081532.55348 -10133492.01247  21528572.1004   21528573.8884   21528571.702
        51.0004         47.0004
 -19635864.55749 -15261137.57548  21398872.0724   21398872.8294   21398872.722
        54.0004         49.0004
 20 11  7  1 18  0.0000000  0  8G30G05G06G15G29G07G13G02
  -7735648.75247  -5987463.34946  23679354.5974   23679361.3324   23679355.885
        46.0004         41.0004
 -23119979.64949 -17995944.86449  20428726.2654   20428728.2314   20428726.144
        60.0004         56.0004
  -3014100.90046  -2306297.49746  24421911.7824   24421917.2474   24421910.012
        41.0004         36.0004
  -8169916.33548  -6355043.03747  23803422.4114   23803425.0604   23803421.643
        50.0004         46.0004
 -14066030.69449 -10904546.97648  22263262.9034   22263265.4024   22263263.475
        56.0004         51.0004
  -3711308.79047  -2869195.63446  24289998.1864   24290001.3064   24289998.194
        45.0004         40.0004
 -13162586.46948 -10196650.90547  21513147.6974   21513150.5424   21513148.099
        51.0004         47.0004
 -19596508.12949 -15230470.24448  21406361.3824   21406362.2174   21406362.149
        54.0004         49.0004
 20 11  7  1 18 30.0000000  0  8G30G05G06G15G29G07G13G02
  -7781053.24147  -6022843.45246  23670714.4994   23670721.2534   23670715.161
        46.0004         41.0004
 -23117262.26549 -17993827.42549  20429243.5404   20429245.3464   20429243.527
        60.0004         56.0004
  -2913207.64546  -2227679.38646  24441111.0354   24441117.6574   24441109.881
        41.0004         36.0004
  -8283074.17648  -6443217.92647  23781888.5454   23781891.8574   23781889.687
        51.0004         46.0004
 -14083597.61549 -10918235.50548  22259919.9104   22259922.1644   22259920.212
        56.0004         51.0004
  -3712015.64447  -2869746.43646  24289863.1214   24289866.3984   24289864.052
        45.0004         40.0004
 -13243206.39448 -10259471.61647  21497806.2064   21497808.5284   21497806.748
        51.0004         47.0004
 -19556740.51349 -15199482.50448  21413928.6124   21413929.8614   21413929.559
        54.0004         49.0004
 20 11  7  1 19  0.0000000  0  8G30G05G06G15G29G07G13G02
  -7826025.16147  -6057886.49046  23662156.9174   23662161.9824   23662156.180
        46.0004         41.0004
 -23114211.53249 -17991450.23649  20429823.9404   20429825.8294   20429824.009
        60.0004         56.0004
  -2812155.05146  -2148937.15346  24460339.2144   24460346.4674   24460338.694
        41.0004         37.0004
  -8396056.16648  -6531255.77947  23760388.9374   23760392.0974   23760388.250
        51.0004         46.0004
 -14100541.13549 -10931438.26148  22256696.0454   22256697.9804   22256695.217
        56.0004         51.0004
  -3712222.52447  -2869907.63346  24289824.5094   24289827.4774   24289824.122
        45.0004         41.0004
 -13323390.12048 -10321952.42147  21482547.1674   21482550.4524   21482547.274
        51.0004         47.0004
 -19516561.71549 -15168174.36948  21421574.4334   21421575.3904   21421575.004
        54.0004         49.0004
 20 11  7  1 19 30.0000000  0  8G30G05G06G15G29G07G13G02
  -7870562.40147  -6092590.82646  23653681.4324   23653686.8754   23653681.077
        46.0004         41.0004
 -23110827.65849 -17988813.45649  20430467.8154   20430469.7434   20430467.884
        60.0004         56.0004
  -2710944.39847  -2070071.79646  24479600.9784   24479607.8204   24479599.212
        42.0004         37.0004
  -8508860.29848  -6619155.06947  23738922.8394   23738926.4814   23738922.175
        51.0004         46.0004
 -14116860.61849 -10944154.75848  22253590.5504   22253592.9004   22253590.241
        56.0004         51.0004
  -3711928.83647  -2869678.78746  24289880.4754   24289883.0824   24289880.432
        46.0004         41.0004
 -13403135.48448 -10384091.65347  21467372.6024   21467375.2014   21467372.353
        51.0004         47.0004
 -19475971.94649 -15136545.98748  21429298.5614   21429299.7284   21429299.220
        54.0004         49.0004
 20 11  7  1 20  0.0000000  0  8G30G05G06G15G29G07G13G02
  -7914662.78847  -6126954.76346  23645289.4874   23645294.9304   23645289.090
        46.0004         41.0004
 -23107111.34349 -17985917.62849  20431174.9874   20431176.9474   20431175.050
        60.0004         56.0004
  -2609577.08347  -1991084.31846  24498889.9304   24498898.2914   24498889.659
        42.0004         38.0004
  -8621484.66948  -6706914.27147  23717491.0584   23717494.8254   23717490.518
        51.0004         46.0004
 -14132555.45649 -10956384.51348  22250603.8144   22250606.2874   22250603.573
        56.0004         51.0004
  -3711134.40747  -2869059.74646  24290031.9984   24290034.6404   24290031.298
        46.0004         41.0004
 -13482440.65548 -10445887.87247  21452281.5794   21452283.6834   21452281.483
        52.0004         47.0004
 -19434971.14049 -15104597.32848  21437100.8774   21437101.7864   21437101.328
        54.0004         49.0004
 20 11  7  1 20 30.0000000  0  8G30G05G06G15G29G07G13G02
  -7958324.17847  -6160976.63246  23636980.8114   23636986.0124   23636982.083
        46.0004         41.0004
 -23103062.71349 -17982762.85149  20431945.5284   20431947.3234   20431945.303
        60.0004         56.0004
  -2508054.39747  -1911975.78446  24518210.2724   24518216.4994   24518208.635
        43.0004         38.0004
  -8733927.06848  -6794531.69247  23696093.0774   23696097.3934   23696091.965
        51.0004         46.0004
 -14147625.22649 -10968127.20848  22247736.5214   22247738.5704   22247737.192
        56.0004         51.0004
  -3709838.84047  -2868050.19846  24290278.1344   24290280.9144   24290278.783
        46.0004         41.0004
 -13561303.35548 -10507339.31947  21437274.5354   21437276.7114   21437274.626
        52.0004         47.0004
 -19393559.40148 -15072328.45948  21444981.0624   21444982.0154   21444981.458
        53.0004         49.0004
 20 11  7  1 21  0.0000000  0  8G30G05G06G15G29G07G13G02
  -8001544.49847  -6194654.78646  23628756.4574   23628761.2104   23628757.231
        46.0004         41.0004
 -23098682.02849 -17979349.33349  20432778.7724   20432780.8904   20432778.796
        60.0004         56.0004
  -2406377.71247  -1832747.24646  24537557.6834   24537564.5764   24537557.882
        44.0004         39.0004
  -8846185.53148  -6882005.77347  23674731.9044   23674735.5034   23674732.155
        51.0004         46.0004
 -14162069.26549 -10979382.31948  22244988.0164   22244989.8474   22244988.242
        56.0004         52.0004
  -3708041.57647  -2866649.69846  24290619.1284   24290623.6344   24290619.263
        46.0004         41.0004
 -13639721.92748 -10568444.67847  21422351.6344   21422354.4594   21422351.987
        52.0004         47.0004
 -19351736.96248 -15039739.56648  21452939.8744   21452940.5714   21452940.656
        53.0004         49.0004
 20 11  7  1 21 30.0000000  0  8G30G05G06G15G29G07G13G02
  -8044321.61347  -6227987.59047  23620616.5624   23620622.0884   23620616.999
        46.0004         42.0004
 -23093969.83549 -17975677.49349  20433675.5194   20433677.5984   20433675.335
        60.0004         56.0004
  -2304548.33847  -1753399.75246  24556934.4774   24556941.0554   24556934.025
        44.0004         39.0004
  -8958257.90948  -6969334.86847  23653404.5674   23653408.4414   23653404.151
        51.0004         46.0004
 -14175887.18549 -10990149.53448  22242358.3424   22242360.5394   22242358.099
        56.0004         51.0004
  -3705742.46347  -2864858.16846  24291056.7414   24291060.2484   24291056.235
        46.0004         41.0004
 -13717694.24348 -10629202.30947  21407513.7174   21407516.5184   21407513.593
        52.0004         47.0004
 -19309504.02248 -15006830.79648  21460976.3964   21460977.4494   21460976.917
        53.0004         49.0004
 20 11  7  1 22  0.0000000  0  8G30G05G06G15G29G07G13G02
  -8086653.49047  -6260973.43047  23612560.2644   23612566.1764   23612560.944
        46.0004         42.0004
 -23088926.38149 -17971747.52949  20434635.3174   20434637.2494   20434635.253
        60.0004         56.0004
  -2202567.71247  -1673934.37346  24576341.3714   24576348.2344   24576340.862
        44.0004         40.0004
  -9070142.40348  -7056517.53747  23632113.6644   23632117.5224   23632113.430
        51.0004         46.0004
 -14189078.50049 -11000428.48948  22239848.0084   22239849.9544   22239847.935
        56.0004         51.0004
  -3702941.10347  -2862675.28246  24291590.4164   24291594.2164   24291591.061
        46.0004         41.0004
 -13795218.06748 -10689610.46447  21392761.9274   21392764.3284   21392762.020
        52.0004         47.0004
 -19266860.58248 -14973602.15748  21469091.0464   21469092.1584   21469091.800
        53.0004         49.0004
 20 11  7  1 22 30.0000000  0  8G30G05G06G15G29G07G13G02
  -8128537.96047  -6293610.67047  23604590.5534   23604596.9694   23604589.552
        47.0004         42.0004
 -23083551.90249 -17967559.62649  20435657.8844   20435660.0504   20435657.961
        60.0004         56.0004
  -2100437.13247  -1594352.15546  24595775.4804   24595783.4854   24595775.328
        44.0004         39.0004
  -9181836.92648  -7143552.20747  23610859.3964   23610862.9334   23610859.048
        51.0004         46.0004
 -14201642.87249 -11010218.92748  22237457.1264   22237459.1744   22237456.981
        56.0004         51.0004
  -3699637.00447  -2860100.64646  24292218.5524   24292221.3254   24292219.262
        46.0004         41.0004
 -13872291.63848 -10749667.76947  21378095.0114   21378097.6954   21378094.843
        52.0004         47.0004
 -19223806.54848 -14940053.57148  21477284.0274   21477285.5394   21477284.625
        53.0004         49.0004
 20 11  7  1 23  0.0000000  0  8G30G05G06G15G29G07G13G02
  -8169973.10547  -6325897.76047  23596705.4854   23596711.4234   23596706.090
        47.0004         42.0004
 -23077846.85249 -17963114.13749  20436743.7204   20436745.8864   20436743.561
        60.0004         56.0004
  -1998157.91347  -1514654.14746  24615239.3584   24615246.2704   24615238.624
        44.0004         40.0004
  -9293339.35648  -7230437.19147  23589640.9494   23589644.7434   23589639.805
        51.0004         46.0004
 -14213580.16749 -11019520.71948  22235185.1644   22235187.6594   22235185.540
        56.0004         51.0004
  -3695829.94047  -2857134.07646  24292943.3964   24292947.3774   24292943.413
        45.0004         40.0004
 -13948913.02348 -10809372.73047  21363514.1094   21363517.4384   21363514.587
        52.0004         47.0004
 -19180342.47448 -14906185.47548  21485554.9204   21485556.2114   21485555.609
        53.0004         49.0004
 20 11  7  1 23 30.0000000  0  8G30G05G06G15G29G07G13G02
  -8210956.77647  -6357833.04747  23588906.4754   23588912.9144   23588907.450
        46.0004         42.0004
 -23071811.45749 -17958411.23049  20437892.3304   20437894.3094   20437892.123
        60.0004         56.0004
  -1895731.53647  -1434841.44346  24634730.6094   24634737.2794   24634730.087
        44.0004         39.0004
  -9404647.61048  -7317170.85447  23568459.7814   23568463.4624   23568460.062
        51.0004         46.0004
 -14224889.60249 -11028333.27048  22233033.0214   22233035.4494   22233033.546
        56.0004         52.0004
  -3691519.32447  -2853775.14346  24293764.1314   24293766.3704   24293764.028
        45.0004         41.0004
 -14025080.17148 -10868723.72847  21349020.3814   21349023.1484   21349020.278
        52.0004         47.0004
 -19136468.68448 -14871998.12248  21493903.7374   21493905.1954   21493904.277
        53.0004         49.0004
 20 11  7  1 24  0.0000000  0  8G30G05G06G15G29G07G13G02
  -8251487.02647  -6389415.02246  23581192.6104   23581199.4034   23581193.882
        46.0004         41.0004
 -23065446.51949 -17953451.53749  20439103.5894   20439105.5144   20439103.412
        60.0004         56.0004
  -1793159.28847  -1354915.09746  24654249.7794   24654256.8074   24654248.414
        44.0004         39.0004
  -9515759.59748  -7403751.59447  23547315.9214   23547319.1094   23547313.757
        51.0004         46.0004
 -14235571.14449 -11036656.56448  22231000.7954   22231003.0384   22231000.938
        56.0004         52.0004
  -3686705.25047  -2850023.88546  24294680.6414   24294682.5794   24294680.284
        45.0004         41.0004
 -14100791.38848 -10927719.46347  21334613.2044   21334615.5894   21334613.050
        52.0004         47.0004
 -19092185.17048 -14837491.49948  21502330.9474   21502331.9034   21502331.586
        53.0004         49.0004
 20 11  7  1 24 30.0000000  0  8G30G05G06G15G29G07G13G02
  -8291561.83647  -6420642.11646  23573567.9094   23573573.1904   23573568.403
        46.0004         41.0004
 -23058752.05149 -17948235.07149  20440377.4364   20440379.4794   20440377.252
        60.0004         56.0004
  -1690442.64347  -1274876.20346  24673795.5864   24673803.1214   24673795.834
        43.0004         38.0004
  -9626673.52548  -7490177.99547  23526209.9824   23526213.1704   23526211.058
        51.0004         47.0004
 -14245624.51949 -11044490.36048  22229087.6214   22229090.0804   22229088.151
        56.0004         52.0004
  -3681387.56747  -2845880.18346  24295691.4534   24295695.8814   24295690.627
        45.0004         41.0004
 -14176044.61748 -10986358.31847  21320293.3584   21320295.6714   21320292.953
        52.0004         47.0004
 -19047492.02148 -14802665.67948  21510835.8044   21510836.6864   21510836.224
        53.0004         49.0004
 20 11  7  1 25  0.0000000  0  8G30G05G06G15G29G07G13G02
  -8331179.25047  -6451512.78647  23566029.1574   23566034.1094   23566029.438
        46.0004         42.0004
 -23051728.35949 -17942762.06949  20441713.8434   20441716.1494   20441713.408
        60.0004         56.0004
  -1587582.85047  -1194725.81346  24693368.9944   24693375.7174   24693368.528
        43.0004         38.0004
  -9737387.59648  -7576448.65347  23505141.7454   23505145.1954   23505141.977
        51.0004         47.0004
 -14255049.51449 -11051834.51748  22227293.7554   22227296.5124   22227293.757
        56.0004         52.0004
  -3675566.18547  -2841344.02446  24296799.9324   24296803.1134   24296799.971
        46.0004         41.0004
 -14250837.76848 -11044638.67747  21306060.5234   21306062.8954   21306060.017
        52.0004         47.0004
 -19002389.60148 -14767520.95348  21519418.1144   21519419.4394   21519419.334
        53.0004         49.0004
 20 11  7  1 25 30.0000000  0  8G30G05G06G15G29G07G13G02
  -8370337.29947  -6482025.51247  23558576.8604   23558582.4094   23558578.371
        46.0004         42.0004
 -23044375.84249 -17937032.83649  20443113.1484   20443115.4364   20443113.253
        60.0004         56.0004
  -1484581.44647  -1114465.07546  24712969.5074   24712977.7324   24712968.288
        42.0004         38.0004
  -9847899.30748  -7662561.62447  23484111.6994   23484115.0164   23484110.621
        51.0004         47.0004
 -14263845.66149 -11058688.66748  22225619.9124   22225622.9794   22225619.529
        56.0004         52.0004
  -3669240.79447  -2836415.10146  24298002.8774   24298006.7734   24298002.585
        46.0004         41.0004
 -14325169.19148 -11102559.23747  21291915.6214   21291917.9644   21291915.676
        52.0004         47.0004
 -18956878.24748 -14732057.57848  21528078.9204   21528080.1444   21528079.621
        53.0004         49.0004
 20 11  7  1 26  0.0000000  0  8G30G05G06G15G29G07G13G02
  -8409033.89047  -6512178.65146  23551213.5024   23551219.6384   23551213.078
        46.0004         41.0004
 -23036694.85649 -17931047.65649  20444574.7654   20444577.2604   20444574.672
        60.0004         56.0004
  -1381439.62347  -1034094.90846  24732597.5474   24732603.3744   24732596.274
        42.0004         37.0004
  -9958206.52248  -7748515.23647  23463121.1864   23463124.4254   23463120.286
        51.0004         47.0004
 -14272012.72749 -11065052.62448  22224065.9094   22224068.6614   22224066.320
        56.0004         52.0004
  -3662411.01747  -2831093.16446  24299302.6564   24299305.9374   24299302.897
        46.0004         41.0004
 -14399037.04848 -11160118.57747  21277858.6744   21277860.9604   21277858.514
        52.0004         47.0004
 -18910957.93848 -14696275.53448  21536817.2544   21536818.0854   21536818.347
        53.0004         49.0004
 20 11  7  1 26 30.0000000  0  8G30G05G06G15G29G07G13G02
  -8447267.32747  -6541970.92146  23543937.9124   23543944.7614   23543938.712
        46.0004         41.0004
 -23028685.67849 -17924806.74149  20446098.8184   20446100.9734   20446098.641
        60.0004         56.0004
  -1278159.02247   -953616.62746  24752251.8294   24752259.7244   24752250.750
        42.0004         37.0004
 -10068307.76148  -7834308.36947  23442169.7884   23442172.8434   23442169.061
        51.0004         47.0004
 -14279550.58149 -11070926.28948  22222631.4654   22222634.5634   22222631.281
        56.0004         52.0004
  -3655076.75347  -2825378.12646  24300697.4524   24300701.3474   24300697.860
        46.0004         41.0004
 -14472439.44648 -11217315.23347  21263890.5864   21263893.4074   21263890.961
        52.0004         47.0004
 -18864629.16348 -14660175.20248  21545633.0464   21545634.7694   21545633.718
        53.0004         49.0004
 20 11  7  1 27  0.0000000  0  8G30G05G06G15G29G07G13G02
  -8485035.54547  -6571400.67147  23536750.4764   23536756.6374   23536751.950
        46.0004         42.0004
 -23020348.63149 -17918310.34349  20447685.1894   20447687.5844   20447684.996
        60.0004         56.0004
  -1174740.92947   -873031.13746  24771930.2574   24771938.8434   24771927.719
        42.0004         37.0004
 -10178200.77548  -7919939.21747  23421257.4284   23421260.8804   23421257.461
        52.0004         47.0004
 -14286458.95749 -11076309.44848  22221316.6494   22221320.0274   22221317.221
        56.0004         52.0004
  -3647238.23747  -2819270.19046  24302189.5434   24302193.1204   24302188.863
        46.0004         41.0004
 -14545374.27348 -11274147.54248  21250011.8604   21250014.2154   21250011.935
        52.0004         48.0004
 -18817892.32448 -14623756.90948  21554527.0344   21554528.5144   21554527.769
        53.0004         49.0004
 20 11  7  1 27 30.0000000  0  8G30G05G06G15G29G07G13G02
  -8522336.71347  -6600466.49847  23529652.8664   23529658.9334   23529652.960
        46.0004         42.0004
 -23011684.49849 -17911559.06649  20449333.8354   20449336.3804   20449333.275
        60.0004         56.0004
  -1071186.75747   -792339.66246  24791637.6334   24791644.4294   24791636.095
        42.0004         37.0004
 -10287883.39548  -8005406.13048  23400385.9924   23400389.1134   23400385.726
        52.0004         48.0004
 -14292737.81049 -11081202.07348  22220121.7124   22220125.0144   22220121.678
        56.0004         52.0004
  -3638894.92547  -2812768.88846  24303776.9844   24303780.5864   24303775.911
        46.0004         41.0004
 -14617840.01148 -11330614.33048  21236221.7194   21236224.0984   21236222.218
        52.0004         48.0004
 -18770747.63248 -14587020.80548  21563498.3014   21563499.8504   21563498.997
        53.0004         49.0004
 20 11  7  1 28  0.0000000  0  8G30G05G06G15G29G07G13G02
  -8559168.83747  -6629166.84046  23522643.7034   23522648.9324   23522644.257
        46.0004         41.0004
 -23002693.34149 -17904552.97549  20451044.6844   20451047.2204   20451044.499
        60.0004         56.0004
   -967497.81547   -711543.17746  24811367.6484   24811374.5664   24811367.007
        42.0004         37.0004
 -10397353.67348  -8090707.59048  23379554.2364   23379557.5564   23379554.214
        52.0004         48.0004
 -14298386.90449 -11085603.96648  22219046.3384   22219049.9344   22219046.267
        56.0004         51.0004
  -3630046.22047  -2805873.77547  24305461.6624   24305463.7504   24305460.675
        46.0004         42.0004
 -14689834.81348 -11386714.15548  21222521.4644   21222524.2164   21222521.560
        52.0004         48.0004
 -18723195.13148 -14549966.92548  21572547.1564   21572548.3524   21572547.906
        53.0004         48.0004
 20 11  7  1 28 30.0000000  0  8G30G05G06G15G29G07G13G02
  -8595530.18647  -6657500.32946  23515724.6634   23515730.0404   23515724.332
        46.0004         41.0004
 -22993375.33149 -17897292.19849  20452817.9944   20452820.3184   20452817.744
        60.0004         56.0004
   -863675.73847   -630642.94046  24831125.6354   24831129.7414   24831124.780
        42.0004         37.0004
 -10506610.00748  -8175842.33748  23358763.6834   23358766.8164   23358763.845
        52.0004         48.0004
 -14303406.49449 -11089515.34848  22218091.3774   22218094.2204   22218091.745
        56.0004         51.0004
  -3620693.23047  -2798585.73546  24307242.1884   24307243.6554   24307241.350
        46.0004         41.0004
 -14761356.78448 -11442445.54548  21208911.4294   21208913.9734   21208911.446
        52.0004         48.0004
 -18675235.54848 -14512595.84248  21581673.9764   21581674.6164   21581674.626
        53.0004         48.0004
 20 11  7  1 29  0.0000000  0  8G30G05G06G15G29G07G13G02
  -8631418.85447  -6685465.51646  23508894.2734   23508900.7634   23508894.705
        46.0004         41.0004
 -22983730.85949 -17889777.02949  20454653.2324   20454655.6614   20454653.051
        60.0004         56.0004
   -759721.76646   -549639.92446  24850907.3834   24850912.9684   24850906.103
        41.0004         37.0004
 -10615650.27048  -8260808.72647  23338013.9404   23338016.6514   23338014.268
        52.0004         47.0004
 -14307796.35349 -11092936.03548  22217256.3104   22217259.2314   22217256.460
        56.0004         51.0004
  -3610835.58147  -2790904.43846  24309117.0124   24309119.3834   24309116.866
        46.0004         41.0004
 -14832404.34048 -11497807.25648  21195392.2114   21195394.1254   21195391.309
        52.0004         48.0004
 -18626868.89548 -14474907.56148  21590877.5284   21590878.9354   21590878.156
        53.0004         48.0004
 20 11  7  1 29 30.0000000  0  8G30G05G06G15G29G07G13G02
  -8666833.01547  -6713060.94546  23502154.7684   23502161.7854   23502155.506
        46.0004         41.0004
 -22973760.33049 -17882007.79749  20456550.6094   20456552.9504   20456550.362
        60.0004         56.0004
   -655637.40446   -468535.29146  24870713.6544   24870718.9484   24870712.911
        41.0004         36.0004
 -10724472.24548  -8345605.02847  23317305.5764   23317308.6514   23317305.235
        52.0004         47.0004
 -14311556.47849 -11095866.00648  22216541.0064   22216543.6174   22216540.564
        56.0004         52.0004
  -3600472.80947  -2782829.56847  24311089.2664   24311091.9944   24311089.977
        46.0004         42.0004
 -14902975.38648 -11552797.66748  21181962.5234   21181964.8164   21181962.992
        52.0004         48.0004
 -18578095.81648 -14436902.58448  21600158.9604   21600159.9334   21600159.473
        53.0004         48.0004
 20 11  7  1 30  0.0000000  0  9G30G05G06G18G15G29G07G13G02
  -8701770.77547  -6740285.18346  23495507.6714   23495513.9594   23495508.232
        46.0004         41.0004
 -22963464.52449 -17873985.08649  20458509.9964   20458512.2174   20458509.626
        60.0004         56.0004
   -551424.07046   -387330.15346  24890542.7804   24890549.4354   24890543.861
        41.0004         36.0004
   -213363.32048   -124158.05045  25129786.4694   25129789.2474   25129785.297
        51.0004         35.0004
 -10833073.99748  -8430229.70747  23296639.0534   23296642.2314   23296639.871
        52.0004         47.0004
 -14314686.81249 -11098305.24048  22215945.9274   22215947.5634   22215946.190
        56.0004         52.0004
  -3589605.20447  -2774361.29446  24313157.6854   24313160.2024   24313157.625
        46.0004         41.0004
 -14973068.42148 -11607415.59848  21168623.9754   21168626.7434   21168623.540
        52.0004         48.0004
 -18528916.00448 -14398580.67148  21609517.6834   21609519.0594   21609518.288
        53.0004         48.0004
 20 11  7  1 30 30.0000000  0  9G30G05G06G18G15G29G07G13G02
  -8736230.41847  -6767136.84447  23488949.9724   23488955.6384   23488949.344
        46.0004         42.0004
 -22952843.38249 -17865708.87449  20460531.0714   20460533.3914   20460530.499
        60.0004         56.0004
   -447083.18046   -306025.63446  24910400.0384   24910406.9694   24910398.759
        41.0004         37.0004
   -318755.23047   -206281.54045  25109732.4974   25109736.7224   25109732.576
        45.0004         35.0004
 -10941453.75048  -8514681.43247  23276014.6384   23276017.4914   23276015.278
        52.0004         47.0004
 -14317187.52349 -11100253.85648  22215469.8454   22215471.4724   22215469.532
        56.0004         51.0004
  -3578232.67247  -2765499.57747  24315322.4514   24315325.0354   24315321.712
        46.0004         42.0004
 -15042681.79248 -11661659.76248  21155377.1054   21155379.7864   21155377.407
        52.0004         48.0004
 -18479330.68348 -14359942.77548  21618953.0144   21618954.2664   21618953.066
        53.0004         48.0004
 20 11  7  1 31  0.0000000  0  9G30G05G06G18G15G29G07G13G02
  -8770210.09847  -6793614.50247  23482484.4574   23482489.2114   23482483.285
        46.0004         42.0004
 -22941897.31149 -17857179.48349  20462614.0774   20462616.1494   20462613.695
        60.0004         56.0004
   -342616.12546   -224622.83046  24930279.4414   24930287.5994   24930279.252
        41.0004         37.0004
   -424133.12647   -288394.14446  25089678.8914   25089683.7514   25089680.363
        42.0004         36.0004
 -11049609.38248  -8598958.52447  23255433.6164   23255436.6504   23255432.822
        52.0004         47.0004
 -14319059.02449 -11101712.17948  22215112.9824   22215115.9984   22215113.078
        56.0004         51.0004
  -3566355.20147  -2756244.39946  24317582.1034   24317585.4844   24317581.004
        46.0004         41.0004
 -15111813.54448 -11715528.64648  21142221.7654   21142224.5584   21142221.779
        53.0004         48.0004
 -18429339.75248 -14320988.81948  21628466.2034   21628467.4994   21628467.037
        53.0004         48.0004
 20 11  7  1 31 30.0000000  0  9G30G05G06G18G15G29G07G13G02
  -8803708.14447  -6819716.86547  23476109.4674   23476116.2964   23476109.489
        47.0004         42.0004
 -22930626.75449 -17848397.23849  20464758.5544   20464760.9524   20464758.413
        60.0004         56.0004
   -238024.44146   -143122.88546  24950181.9224   24950190.0064   24950180.662
        41.0004         37.0004
   -529495.43646   -370494.57846  25069628.2434   25069632.7124   25069627.491
        41.0004         36.0004
 -11157539.02748  -8683059.51348  23234895.7424   23234898.2514   23234895.764
        52.0004         48.0004
 -14320300.75449 -11102679.78148  22214877.3964   22214879.4764   22214877.316
        56.0004         52.0004
  -3553972.99547  -2746595.91646  24319937.9704   24319940.5234   24319936.506
        46.0004         41.0004
 -15180462.07348 -11769020.98548  21129158.4064   21129160.9894   21129158.103
        53.0004         48.0004
 -18378943.92048 -14281719.35948  21638056.2744   21638057.2144   21638056.893
        53.0004         48.0004
 20 11  7  1 32  0.0000000  0  9G30G05G06G18G15G29G07G13G02
  -8836722.76947  -6845442.53647  23469826.7704   23469833.1844   23469826.679
        47.0004         42.0004
 -22919032.08349 -17839362.42849  20466965.1584   20466967.4054   20466964.645
        60.0004         56.0004
   -133309.52147    -61526.94046  24970108.7634   24970116.3424   24970108.861
        42.0004         37.0004
   -634840.41346   -452581.50646  25049583.1224   25049585.5444   25049582.799
        41.0004         37.0004
 -11265240.72148  -8766982.86947  23214400.0234   23214403.3094   23214399.755
        52.0004         47.0004
 -14320912.96749 -11103156.84248  22214760.3304   22214763.0834   22214760.846
        56.0004         52.0004
  -3541085.81147  -2736553.96146  24322390.4604   24322393.1184   24322389.932
        46.0004         41.0004
 -15248625.77348 -11822135.53948  21116187.4334   21116189.9184   21116187.749
        53.0004         48.0004
 -18328143.47548 -14242134.61948  21647723.4514   21647724.4304   21647724.045
        53.0004         48.0004
 20 11  7  1 32 30.0000000  0  9G30G05G06G18G15G29G07G13G02
  -8869252.25247  -6870790.19147  23463637.2484   23463642.8634   23463637.981
        47.0004         42.0004
 -22907113.30149 -17830075.07249  20469233.2904   20469235.3664   20469233.432
        60.0004         56.0004
    -28472.81447     20163.90246  24990058.1544   24990066.3304   24990058.273
        42.0004         37.0004
   -740166.36446   -534653.65146  25029541.0224   25029542.4444   25029540.245
        41.0004         37.0004
 -11372712.35848  -8850726.97748  23193949.2104   23193952.3754   23193949.194
        52.0004         48.0004
 -14320896.00049 -11103143.63448  22214763.8194   22214766.3014   22214764.083
        56.0004         52.0004
  -3527694.21147  -2726118.95646  24324938.9344   24324940.7314   24324939.707
        45.0004         41.0004
 -15316302.89048 -11874870.93648  21103308.8514   21103311.0774   21103308.638
        53.0004         48.0004
 -18276938.97748 -14202235.02148  21657467.1314   21657468.4354   21657467.829
        53.0004         48.0004
 20 11  7  1 33  0.0000000  0  9G30G05G06G18G15G29G07G13G02
  -8901294.90647  -6895758.47447  23457539.1564   23457544.9434   23457539.193
        47.0004         42.0004
 -22894871.21049 -17820535.78449  20471563.0704   20471565.0614   20471563.050
        60.0004         56.0004
     76484.15446    101948.46546  25010031.6614   25010039.1064   25010033.691
        41.0004         37.0004
   -845471.59946   -616709.64946  25009502.4864   25009501.5194   25009501.795
        41.0004         37.0004
 -11479951.95748  -8934290.28348  23173542.3184   23173545.5464   23173542.079
        52.0004         48.0004
 -14320249.80249 -11102640.12448  22214886.7904   22214889.5274   22214887.383
        56.0004         52.0004
  -3513798.08447  -2715290.80246  24327583.4084   24327585.4544   24327582.667
        45.0004         41.0004
 -15383491.60348 -11927225.76548  21090523.1274   21090525.2664   21090523.137
        53.0004         48.0004
 -18225330.57148 -14162020.69348  21667288.0094   21667289.4554   21667288.582
        53.0004         48.0004
 20 11  7  1 33 30.0000000  0  9G30G05G06G18G15G29G07G13G02
  -8932848.99047  -6920346.04847  23451534.2674   23451540.2844   23451533.897
        47.0004         42.0004
 -22882305.92249 -17810744.65649  20473954.1304   20473956.2924   20473954.034
        60.0004         56.0004
    181560.05047    183825.69746  25030028.2434   25030035.9094   25030027.475
        42.0004         37.0004
   -950754.30846   -698748.10146  24989466.7684   24989468.0074   24989468.548
        41.0004         36.0004
 -11586957.57248  -9017671.24848  23153179.5554   23153183.4794   23153178.955
        53.0004         48.0004
 -14318974.81249 -11101646.64348  22215129.2374   22215132.0714   22215129.555
        56.0004         52.0004
  -3499397.62547  -2704069.68546  24330322.5704   24330325.9674   24330324.176
        45.0004         41.0004
 -15450190.49748 -11979198.92348  21077831.2634   21077833.3874   21077831.009
        53.0004         48.0004
 -18173318.74748 -14121492.02048  21677185.1754   21677187.2094   21677185.644
        53.0004         48.0004
 20 11  7  1 34  0.0000000  0  9G30G05G06G18G15G29G07G13G02
  -8963912.89247  -6944551.66847  23445623.2054   23445628.9254   23445622.998
        46.0004         42.0004
 -22869417.88149 -17800702.03649  20476406.6304   20476408.8454   20476406.315
        60.0004         56.0004
    286753.29047    265794.37346  25050042.7724   25050051.5024   25050043.829
        42.0004         37.0004
  -1056012.86946   -780767.75546  24969435.6374   24969435.8374   24969437.449
        41.0004         36.0004
 -11693727.46548  -9100868.54548  23132862.0084   23132865.1074   23132862.343
        53.0004         48.0004
 -14317071.24249 -11100163.36048  22215491.5134   22215494.3694   22215491.485
        56.0004         51.0004
  -3484492.69247  -2692455.46446  24333158.0284   24333162.3144   24333157.044
        45.0004         40.0004
 -15516397.93148 -12030789.11548  21065232.1124   21065234.2324   21065231.531
        53.0004         48.0004
 -18120904.32348 -14080649.63148  21687159.8774   21687161.2194   21687160.327
        53.0004         48.0004
 20 11  7  1 34 30.0000000  0  9G30G05G06G18G15G29G07G13G02
  -8994484.88747  -6968373.98147  23439805.8564   23439811.8224   23439805.204
        47.0004         42.0004
 -22856207.32549 -17790408.10049  20478920.6704   20478922.7184   20478920.596
        60.0004         56.0004
    392062.54946    347853.43946  25070083.0804   25070092.4614   25070082.779
        41.0004         36.0004
  -1161245.36446   -862767.10946  24949410.2674   24949414.7614   24949409.729
        41.0004         36.0004
 -11800259.37748  -9183880.38848  23112589.6634   23112593.3834   23112589.125
        53.0004         48.0004
 -14314539.09149 -11098190.27848  22215973.4924   22215976.1244   22215973.081
        56.0004         51.0004
  -3469084.05447  -2680448.72546  24336090.6904   24336093.5744   24336090.712
        45.0004         40.0004
 -15582112.40948 -12081995.19448  21052727.3274   21052729.0684   21052727.121
        53.0004         48.0004
 -18068087.64348 -14039493.79748  21697210.5094   21697211.6454   21697211.605
        53.0004         48.0004
 20 11  7  1 35  0.0000000  0  9G30G05G06G18G15G29G07G13G02
  -9024563.45047  -6991811.78847  23434082.3744   23434087.0814   23434082.115
        47.0004         42.0004
 -22842674.73949 -17779863.23349  20481495.6924   20481497.6884   20481495.566
        60.0004         56.0004
    497486.23646    430001.64646  25090146.4094   25090154.9504   25090143.887
        41.0004         36.0004
  -1266450.18546   -944744.87146  24929388.7294   24929395.2354   24929392.236
        41.0004         36.0004
 -11906551.39848  -9266705.29648  23092362.2964   23092365.7334   23092361.616
        53.0004         48.0004
 -14311378.99249 -11095727.87448  22216575.2174   22216577.7484   22216575.732
        56.0004         52.0004
  -3453171.40247  -2668049.29546  24339119.2524   24339122.7024   24339117.496
        45.0004         40.0004
 -15647332.22448 -12132815.82048  21040316.1084   21040317.7564   21040315.779
        53.0004         48.0004
 -18014869.09748 -13998024.80848  21707337.3504   21707338.8884   21707338.018
        53.0004         48.0004
 20 11  7  1 35 30.0000000  0  9G30G05G06G18G15G29G07G13G02
  -9054146.90047  -7014863.78947  23428452.3634   23428458.9144   23428452.034
        47.0004         42.0004
 -22828820.48949 -17769067.70949  20484132.1124   20484134.2074   20484132.295
        60.0004         56.0004
    603022.93846    512237.91246  25110229.7054   25110235.9284   25110226.890
        41.0004         36.0004
  -1371625.41346  -1026699.60845  24909375.8394   24909381.1744   24909377.689
        40.0004         35.0004
 -12012601.64648  -9349341.84148  23072182.5714   23072185.4944   23072182.222
        53.0004         48.0004
 -14307590.89749 -11092776.11548  22217295.7924   22217298.4714   22217295.923
        56.0004         52.0004
  -3436755.14647  -2655257.39946  24342243.2164   24342245.3994   24342243.875
        45.0004         40.0004
 -15712055.74448 -12183249.71848  21027999.5944   21028001.6994   21027999.528
        53.0004         48.0004
 -17961249.38348 -13956243.23448  21717541.0344   21717542.1354   21717541.493
        53.0004         48.0004
 20 11  7  1 36  0.0000000  0  9G30G05G06G18G15G29G07G13G02
  -9083233.66347  -7037528.77447  23422917.3524   23422922.6254   23422917.840
        47.0004         42.0004
 -22814645.07549 -17758021.92749  20486829.4334   20486831.6954   20486829.615
        60.0004         56.0004
    708671.13146    594561.04046  25130333.4494   25130338.4724   25130333.403
        41.0004         36.0004
  -1476769.43846  -1108629.96045  24889369.2474   24889371.7704   24889368.727
        40.0004         35.0004
 -12118408.43148  -9431788.64148  23052047.4154   23052050.9484   23052046.853
        53.0004         48.0004
 -14303175.49649 -11089335.55148  22218136.0294   22218138.9084   22218135.911
        56.0004         52.0004
  -3419835.33247  -2642073.14846  24345463.7914   24345467.1274   24345464.126
        45.0004         41.0004
 -15776281.46248 -12233295.71848  21015777.9334   21015779.8964   21015777.635
        53.0004         48.0004
 -17907228.98148 -13914149.42848  21727820.6914   21727821.9134   21727821.298
        53.0004         48.0004
 20 11  7  1 36 30.0000000  0  8G30G05G18G15G29G07G13G02
  -9111822.12847  -7059805.45747  23417476.9834   23417483.5454   23417477.677
        47.0004         43.0004
 -22800148.56249 -17746725.94749  20489588.0964   20489590.3944   20489587.885
        60.0004         56.0004
  -1581880.21646  -1190534.44345  24869368.3214   24869369.1574   24869365.405
        40.0004         35.0004
 -12223969.71348  -9514044.17448  23031959.8914   23031963.0684   23031960.252
        53.0004         48.0004
 -14298132.76449 -11085406.15848  22219095.7974   22219098.0084   22219095.638
        56.0004         52.0004
  -3402411.93347  -2628496.47046  24348778.1734   24348782.1124   24348778.521
        45.0004         41.0004
 -15840007.81548 -12282952.60148  21003651.3044   21003653.1504   21003650.965
        53.0004         48.0004
 -17852808.15648 -13871743.61248  21738176.8974   21738177.9024   21738177.502
        53.0004         48.0004
 20 11  7  1 37  0.0000000  0  8G30G05G18G15G29G07G13G02
  -9139910.77947  -7081692.68647  23412131.8514   23412138.1814   23412131.135
        47.0004         43.0004
 -22785331.46649 -17735180.16549  20492407.6614   20492409.8014   20492407.582
        60.0004         56.0004
  -1686956.09846  -1272411.68045  24849370.2224   24849374.1334   24849368.877
        40.0004         35.0004
 -12329283.43048  -9596106.78048  23011919.5964   23011923.3034   23011919.250
        53.0004         48.0004
 -14292463.37449 -11080988.46048  22220174.7094   22220176.9804   22220174.420
        56.0004         52.0004
  -3384485.82947  -2614528.07246  24352189.8394   24352192.8964   24352190.007
        45.0004         41.0004
 -15903233.37648 -12332219.26048  20991619.5784   20991621.7684   20991619.554
        53.0004         48.0004
 -17797987.61848 -13829026.32548  21748608.6904   21748609.7804   21748609.092
        53.0004         48.0004
 20 11  7  1 37 30.0000000  0  8G30G05G18G15G29G07G13G02
  -9167498.17847  -7103189.32547  23406882.4994   23406888.5034   23406882.805
        47.0004         43.0004
 -22770194.34849 -17723385.01349  20495288.2584   20495290.3164   20495288.324
        60.0004         56.0004
  -1791995.34646  -1354260.40446  24829381.7754   24829383.6524   24829382.025
        40.0004         36.0004
 -12434347.73248  -9677975.03748  22991926.5114   22991929.1754   22991926.044
        53.0004         48.0004
 -14286167.75349 -11076082.78148  22221372.9764   22221375.3544   22221372.672
        56.0004         52.0004
  -3366057.41947  -2600168.27446  24355696.8154   24355699.5044   24355697.203
        45.0004         41.0004
 -15965956.81448 -12381094.66048  20979683.4374   20979686.0894   20979683.365
        53.0004         48.0004
 -17742767.86548 -13785997.97048  21759116.7444   21759118.1974   21759117.169
        53.0004         48.0004
 20 11  7  1 38  0.0000000  0  8G30G05G18G15G29G07G13G02
  -9194582.62347  -7124294.06247  23401728.8224   23401733.7744   23401728.676
        47.0004         43.0004
 -22754737.27749 -17711340.55149  20498229.4784   20498231.8574   20498229.246
        60.0004         56.0004
  -1896996.01146  -1436079.04946  24809402.5984   24809405.9394   24809400.602
        41.0004         36.0004
 -12539160.57248  -9759647.35548  22971981.1894   22971984.3414   22971981.094
        53.0004         48.0004
 -14279246.25249 -11070689.41648  22222690.3794   22222692.3454   22222690.595
        56.0004         52.0004
  -3347126.58847  -2585416.96346  24359298.7734   24359302.1884   24359299.299
        45.0004         41.0004
 -16028176.32148 -12429577.38048  20967843.6134   20967846.0444   20967843.726
        53.0004         48.0004
 -17687149.82748 -13742659.26548  21769700.4514   21769702.0104   21769701.413
        53.0004         48.0004
 20 11  7  1 38 30.0000000  0  8G30G05G18G15G29G07G13G02
  -9221162.76747  -7145005.81847  23396670.5054   23396676.8814   23396670.056
        47.0004         43.0004
 -22738960.78849 -17699047.18149  20501231.8374   20501233.7254   20501232.239
        60.0004         56.0004
  -2001956.41446  -1517866.30246  24789428.7614   24789430.7414   24789426.674
        41.0004         36.0004
 -12643720.08648  -9841122.27148  22952084.4264   22952087.3334   22952084.058
        53.0004         49.0004
 -14271699.46549 -11064808.80748  22224125.7104   22224127.9544   22224125.657
        56.0004         51.0004
  -3327693.67447  -2570274.44246  24362996.8774   24362999.9554   24362997.822
        45.0004         40.0004
 -16089890.59248 -12477666.41548  20956099.9024   20956102.0694   20956099.771
        53.0004         49.0004
 -17631133.91848 -13699010.53048  21780359.6444   21780360.8514   21780360.259
        53.0004         48.0004
 20 11  7  1 39  0.0000000  0  8G30G05G18G15G29G07G13G02
  -9247237.07948  -7165323.42547  23391708.1794   23391714.7644   23391709.031
        48.0004         43.0004
 -22722865.07749 -17686505.06349  20504294.8704   20504296.7244   20504294.878
        60.0004         56.0004
  -2106874.65246  -1599620.71546  24769461.0414   24769467.3484   24769463.186
        41.0004         36.0004
 -12748024.65048  -9922398.53148  22932236.2044   22932238.7264   22932235.886
        53.0004         49.0004
 -14263528.02649 -11058441.45048  22225680.8304   22225683.1684   22225680.550
        56.0004         51.0004
  -3307759.23347  -2554741.12446  24366790.5224   24366793.5034   24366790.239
        45.0004         40.0004
 -16151098.04348 -12525360.52648  20944452.4654   20944454.8674   20944452.289
        53.0004         49.0004
 -17574720.67248 -13655052.17648  21791094.5324   21791096.3984   21791095.716
        52.0004         48.0004
 20 11  7  1 39 30.0000000  0  8G30G05G18G15G29G07G13G02
  -9272804.17048  -7185245.80347  23386843.5874   23386848.7864   23386843.339
        48.0004         43.0004
 -22706450.70849 -17673714.64749  20507418.0544   20507420.1684   20507418.072
        60.0004         56.0004
  -2211748.90746  -1681340.85446  24749503.1904   24749508.8924   24749502.666
        41.0004         36.0004
 -12852072.08748 -10003474.45248  22912436.2934   22912438.6784   22912435.298
        53.0004         49.0004
 -14254731.82249 -11051587.27348  22227354.5834   22227357.0584   22227355.093
        56.0004         52.0004
  -3287323.68047  -2538817.31946  24370679.8854   24370682.7864   24370680.625
        45.0004         40.0004
 -16211797.42248 -12572658.73448  20932901.5854   20932904.2034   20932901.458
        53.0004         49.0004
 -17517910.94648 -13610784.87648  21801905.8544   21801906.8284   21801906.018
        52.0004         48.0004
 20 11  7  1 40  0.0000000  0  8G30G05G18G15G29G07G13G02
  -9297862.52347  -7204771.76847  23382074.9444   23382080.9384   23382074.863
        47.0004         43.0004
 -22689717.99849 -17660676.19249  20510602.3034   20510604.4114   20510602.083
        60.0004         56.0004
  -2316577.29846  -1763025.24646  24729555.0604   24729559.9744   24729553.727
        41.0004         37.0004
 -12955860.51948 -10084348.54148  22892685.7114   22892688.7264   22892685.271
        53.0004         48.0004
 -14245311.93949 -11044247.12448  22229146.6624   22229149.6684   22229146.590
        56.0004         51.0004
  -3266387.25647  -2522503.23346  24374664.3794   24374667.0904   24374664.516
        45.0004         41.0004
 -16271987.13848 -12619559.80248  20921448.1004   20921450.3384   20921448.298
        53.0004         49.0004
 -17460704.74048 -13566208.63548  21812791.4004   21812793.2344   21812792.173
        52.0004         48.0004
 20 11  7  1 40 30.0000000  0  8G30G05G18G15G29G07G13G02
  -9322410.76647  -7223900.25547  23377403.4294   23377409.5614   23377403.949
        47.0004         43.0004
 -22672667.27049 -17647389.90849  20513846.9894   20513849.2404   20513846.326
        60.0004         56.0004
  -2421358.00647  -1844672.50946  24709618.4564   24709621.8924   24709616.287
        42.0004         37.0004
 -13059388.12948 -10165019.39448  22872984.8544   22872988.2794   22872984.117
        53.0004         49.0004
 -14235269.04349 -11036421.50448  22231057.7764   22231060.5704   22231057.665
        56.0004         51.0004
  -3244950.46447  -2505799.23846  24378743.2574   24378746.9644   24378742.605
        45.0004         41.0004
 -16331665.97348 -12666062.78248  20910091.3984   20910093.7144   20910091.983
        53.0004         49.0004
 -17403103.42448 -13521324.51548  21823752.8654   21823754.4924   21823753.898
        52.0004         48.0004
 20 11  7  1 41  0.0000000  0  8G30G05G18G15G29G07G13G02
  -9346447.50347  -7242630.14047  23372829.3934   23372834.4564   23372829.475
        47.0004         43.0004
 -22655298.80649 -17633856.02949  20517152.1134   20517154.2294   20517151.995
        60.0004         56.0004
  -2526089.16747  -1926281.15246  24689688.3554   24689690.9554   24689688.455
        42.0004         37.0004
 -13162653.02248 -10245485.52148  22853334.2044   22853337.7814   22853334.733
        53.0004         49.0004
 -14224603.60249 -11028110.79848  22233087.6054   22233090.7824   22233086.902
        56.0004         52.0004
  -3223013.64147  -2488705.64246  24382917.6424   24382921.4434   24382915.867
        45.0004         41.0004
 -16390832.31848 -12712166.42148  20898832.5794   20898834.8864   20898832.560
        53.0004         49.0004
 -17345107.56648 -13476132.95548  21834789.1744   21834790.6684   21834789.639
        52.0004         48.0004
 20 11  7  1 41 30.0000000  0  8G30G05G18G15G29G07G13G02
  -9369971.37247  -7260960.41447  23368352.8094   23368358.3074   23368353.785
        47.0004         43.0004
 -22637612.79149 -17620074.72749  20520517.9104   20520519.8274   20520517.942
        60.0004         56.0004
  -2630768.89347  -2007849.74146  24669769.3344   24669773.8734   24669769.728
        42.0004         37.0004
 -13265653.43548 -10325745.56648  22833733.9314   22833737.2964   22833733.987
        53.0004         49.0004
 -14213316.35749 -11019315.56648  22235235.6954   22235238.2674   22235235.101
        56.0004         52.0004
  -3200577.17747  -2471222.69346  24387186.8734   24387190.6664   24387187.104
        45.0004         41.0004
 -16449485.00448 -12757869.81048  20887671.4344   20887673.1064   20887671.290
        53.0004         49.0004
 -17286717.45748 -13430634.19347  21845900.2694   21845900.9854   21845900.701
        52.0004         47.0004
 20 11  7  1 42  0.0000000  0  8G30G05G18G15G29G07G13G02
  -9392981.01847  -7278890.00447  23363974.4474   23363979.7674   23363975.261
        47.0004         43.0004
 -22619609.92149 -17606046.52849  20523943.7064   20523945.5524   20523943.789
        60.0004         56.0004
  -2735395.25947  -2089376.78646  24649859.9304   24649862.9594   24649858.252
        42.0004         38.0004
 -13368387.33848 -10405797.94748  22814184.2734   22814187.5564   22814184.115
        53.0004         49.0004
 -14201407.78249 -11010036.18448  22237501.9794   22237504.3624   22237502.462
        56.0004         52.0004
  -3177641.69347  -2453350.93746  24391551.4724   24391553.8764   24391550.579
        45.0004         40.0004
 -16507622.72348 -12803171.92248  20876608.2314   20876610.3184   20876608.518
        53.0004         49.0004
 -17227934.14648 -13384829.02548  21857086.3944   21857087.9104   21857086.752
        52.0004         48.0004
 20 11  7  1 42 30.0000000  0  8G30G05G18G15G29G07G13G02
  -9415475.11247  -7296417.87047  23359693.9064   23359700.4914   23359693.831
        47.0004         43.0004
 -22601290.54049 -17591771.68349  20527429.6794   20527431.5864   20527429.873
        60.0004         56.0004
  -2839966.42847  -2170860.79446  24629958.7124   24629963.0124   24629959.151
        42.0004         38.0004
 -13470852.72849 -10485641.09748  22794685.8414   22794689.8804   22794685.450
        54.0004         49.0004
 -14188878.63849 -11000273.23748  22239886.3334   22239888.3484   22239886.864
        56.0004         52.0004
  -3154207.51347  -2435090.55146  24396010.5674   24396013.5634   24396011.368
        45.0004         40.0004
 -16565244.09048 -12848071.68348  20865643.2014   20865645.3544   20865643.138
        53.0004         49.0004
 -17168758.13348 -13338717.86448  21868347.5944   21868348.8014   21868347.849
        52.0004         48.0004
 20 11  7  1 43  0.0000000  0  8G30G05G18G15G29G07G13G02
  -9437452.31348  -7313542.97347  23355511.9804   23355517.9974   23355512.088
        48.0004         43.0004
 -22582655.11749 -17577250.57149  20530975.7374   20530977.8414   20530975.493
        60.0004         56.0004
  -2944480.47147  -2252300.26846  24610069.6494   24610073.4054   24610071.092
        42.0004         38.0004
 -13573048.06449 -10565273.81148  22775238.7854   22775241.9664   22775237.681
        54.0004         49.0004
 -14175729.60949 -10990027.27848  22242388.6124   22242390.7984   22242389.217
        56.0004         52.0004
  -3130275.53247  -2416442.28846  24400564.0784   24400567.3754   24400563.731
        45.0004         40.0004
 -16622348.05948 -12892568.27948  20854776.4854   20854778.5284   20854776.280
        53.0004         49.0004
 -17109190.10448 -13292301.24248  21879682.7974   21879683.7434   21879683.940
        52.0004         48.0004
 20 11  7  1 43 30.0000000  0  8G30G05G18G15G29G07G13G02
  -9458911.34047  -7330264.29747  23351427.8774   23351432.9674   23351428.091
        47.0004         42.0004
 -22563704.00449 -17562483.47949  20534582.2784   20534584.1094   20534581.876
        60.0004         56.0004
  -3048935.43147  -2333693.71846  24590193.9214   24590196.7444   24590193.850
        42.0004         38.0004
 -13674971.07049 -10644694.33348  22755843.4254   22755846.1754   22755843.176
        54.0004         49.0004
 -14161961.49649 -10979298.89948  22245008.6674   22245011.0854   22245008.593
        56.0004         52.0004
  -3105846.01647  -2397406.30746  24405212.4874   24405216.3634   24405213.653
        45.0004         40.0004
 -16678932.90748 -12936660.35748  20844008.4274   20844011.0384   20844008.676
        53.0004         49.0004
 -17049231.03248 -13245579.91348  21891092.3184   21891094.0864   21891092.944
        52.0004         48.0004
 20 11  7  1 44  0.0000000  0  8G30G05G18G15G29G07G13G02
  -9479850.99647  -7346580.90747  23347443.5084   23347449.1564   23347444.077
        47.0004         42.0004
 -22544437.26049 -17547470.43549  20538248.6064   20538250.3844   20538248.556
        60.0004         56.0004
  -3153329.39547  -2415039.64746  24570328.6154   24570330.1764   24570328.591
        42.0004         38.0004
 -13776620.20149 -10723901.44348  22736500.6244   22736503.3724   22736500.395
        54.0004         49.0004
 -14147575.07349 -10968088.72948  22247746.4154   22247748.8764   22247746.104
        56.0004         52.0004
  -3080919.43447  -2377983.05246  24409957.8304   24409959.5624   24409956.539
        45.0004         40.0004
 -16734997.58448 -12980347.11048  20833339.8204   20833342.0704   20833339.990
        53.0004         49.0004
 -16988881.55948 -13198554.37647  21902576.5974   21902578.0164   21902577.174
        52.0004         47.0004
 20 11  7  1 44 30.0000000  0  8G30G05G18G15G29G07G13G02
  -9500269.92447  -7362491.78747  23343558.2674   23343563.6554   23343558.520
        47.0004         42.0004
 -22524855.45349 -17532211.89749  20541975.0104   20541976.6804   20541974.836
        60.0004         56.0004
  -3257660.48147  -2496336.58346  24550474.4424   24550477.7744   24550474.423
        42.0004         37.0004
 -13877993.70149 -10802893.76148  22717209.4784   22717212.7944   22717209.053
        54.0004         49.0004
 -14132571.20449 -10956397.42748  22250601.5314   22250603.9514   22250601.309
        56.0004         52.0004
  -3055496.65247  -2358173.12546  24414794.7594   24414797.4154   24414793.668
        45.0004         40.0004
 -16790540.71849 -13023627.46148  20822770.5134   20822772.8764   20822770.726
        54.0004         49.0004
 -16928142.42648 -13151225.21548  21914134.7214   21914136.7124   21914135.691
        52.0004         48.0004
 20 11  7  1 45  0.0000000  0  8G30G05G18G15G29G07G13G02
  -9520166.96047  -7377995.99847  23339771.6134   23339777.8654   23339771.747
        47.0004         42.0004
 -22504959.08049 -17516708.23749  20545761.0904   20545762.8784   20545760.903
        60.0004         56.0004
  -3361926.69647  -2577582.94846  24530631.6194   24530636.9224   24530632.095
        42.0004         37.0004
 -13979089.56249 -10881669.75048  22697972.0094   22697974.8584   22697972.226
        54.0004         49.0004
 -14116950.65249 -10944225.58448  22253573.7844   22253576.3904   22253573.929
        56.0004         52.0004
  -3029578.14947  -2337976.90646  24419728.4444   24419730.2954   24419728.420
        45.0004         41.0004
 -16845561.37249 -13066500.68848  20812300.3064   20812302.3314   20812300.292
        54.0004         49.0004
 -16867014.34748 -13103592.97747  21925767.6454   21925768.7484   21925767.860
        52.0004         47.0004
 20 11  7  1 45 30.0000000  0  8G30G05G18G15G29G07G13G02
  -9539540.85447  -7393092.57647  23336085.5344   23336089.9804   23336085.530
        47.0004         43.0004
 -22484748.09349 -17500959.41949  20549607.1534   20549608.9654   20549607.123
        60.0004         56.0004
  -3466126.09547  -2658777.26046  24510803.7404   24510809.0454   24510802.006
        42.0004         37.0004
 -14079905.84049 -10960227.87748  22678787.0484   22678790.1494   22678786.317
        54.0004         49.0004
 -14100714.36649 -10931573.95148  22256663.5384   22256666.3114   22256663.844
        56.0004         52.0004
  -3003164.26647  -2317394.68746  24424754.0894   24424756.2594   24424753.748
        45.0004         41.0004
 -16900057.88949 -13108965.49548  20801930.1994   20801932.2894   20801930.098
        54.0004         49.0004
 -16805498.20248 -13055658.34947  21937473.2384   21937475.1754   21937473.727
        52.0004         47.0004
 20 11  7  1 46  0.0000000  0  8G30G05G18G15G29G07G13G02
  -9558390.48147  -7407780.62047  23332497.7834   23332503.1284   23332498.447
        47.0004         42.0004
 -22464223.14349 -17484965.95449  20553512.6584   20553514.7554   20553512.210
        60.0004         56.0004
  -3570256.76747  -2739918.03146  24490989.1334   24490992.7604   24490988.423
        42.0004         38.0004
 -14180440.90149 -11038566.85648  22659655.8054   22659659.0124   22659656.018
        54.0004         49.0004
 -14083863.30649 -10918443.27148  22259870.0274   22259873.0994   22259870.194
        56.0004         52.0004
  -2976255.72647  -2296426.98546  24429874.2764   24429877.5244   24429874.679
        45.0004         40.0004
 -16954029.61949 -13151021.37948  20791659.6464   20791661.8444   20791659.918
        54.0004         49.0004
 -16743594.62648 -13007421.81947  21949253.4874   21949254.5274   21949254.012
        52.0004         47.0004
 20 11  7  1 46 30.0000000  0  8G30G05G18G15G29G07G13G02
  -9576714.61547  -7422059.19147  23329010.6354   23329017.2864   23329011.155
        47.0004         42.0004
 -22443384.90649 -17468728.36549  20557478.0414   20557480.1664   20557477.369
        60.0004         56.0004
  -3674316.71247  -2821003.68046  24471188.1774   24471190.9004   24471188.543
        43.0004         38.0004
 -14280692.82849 -11116685.22148  22640577.9004   22640581.4574   22640578.122
        54.0004         49.0004
 -14066398.42449 -10904834.28148  22263193.1654   22263196.6264   22263192.643
        56.0004         52.0004
  -2948853.28447  -2275074.43746  24435088.4824   24435093.6354   24435088.162
        45.0004         41.0004
 -17007475.13349 -13192667.22848  20781489.3924   20781491.5024   20781488.953
        54.0004         49.0004
 -16681304.57848 -12958884.14547  21961106.3864   21961107.7974   21961106.702
        52.0004         47.0004
 20 11  7  1 47  0.0000000  0  8G30G05G18G15G29G07G13G02
  -9594512.13447  -7435927.40847  23325623.6244   23325629.8664   23325623.982
        47.0004         42.0004
 -22422233.07849 -17452246.42749  20561503.1174   20561505.4094   20561502.909
        60.0004         56.0004
  -3778303.95747  -2902032.67346  24451400.5604   24451401.9314   24451399.702
        43.0004         38.0004
 -14380659.78649 -11194581.52448  22621555.4804   22621558.0484   22621555.178
        54.0004         49.0004
 -14048320.40549 -10890747.52948  22266634.1624   22266636.2554   22266634.302
        56.0004         52.0004
  -2920957.34347  -2253337.33646  24440397.0284   24440400.7594   24440395.988
        45.0004         41.0004
 -17060393.14449 -13233902.02948  20771419.0294   20771421.4614   20771419.022
        54.0004         49.0004
 -16618628.80648 -12910045.91647  21973033.7384   21973034.8564   21973033.767
        52.0004         47.0004
 20 11  7  1 47 30.0000000  0  8G30G05G18G15G29G07G13G02
  -9611781.85047  -7449384.32747  23322338.1424   23322344.1944   23322337.506
        47.0004         43.0004
 -22400768.50649 -17435520.79449  20565587.7964   20565589.7554   20565587.869
        60.0004         56.0004
  -3882216.46947  -2983003.42546  24431626.0934   24431628.3474   24431625.481
        43.0004         38.0004
 -14480340.07949 -11272254.45548  22602586.6524   22602590.2964   22602586.272
        54.0004         49.0004
 -14029630.45749 -10876183.94148  22270190.1504   22270193.1084   22270189.425
        56.0004         51.0004
  -2892569.06447  -2231216.57046  24445797.3074   24445802.5074   24445797.839
        45.0004         40.0004
 -17112782.51049 -13274724.90048  20761449.7424   20761452.1034   20761449.553
        54.0004         49.0004
 -16555568.18048 -12860907.79947  21985033.5494   21985035.0184   21985034.890
        52.0004         47.0004
 20 11  7  1 48  0.0000000  0  8G30G05G18G15G29G07G13G02
  -9628522.76247  -7462429.20947  23319152.1994   23319158.2104   23319152.657
        47.0004         43.0004
 -22378991.52949 -17418551.71849  20569731.6224   20569733.8014   20569731.381
        60.0004         56.0004
  -3986052.33147  -3063914.46746  24411865.0694   24411868.9084   24411865.302
        43.0004         38.0004
 -14579731.66049 -11349702.41748  22583672.9784   22583676.4364   22583672.352
        54.0004         49.0004
 -14010329.41749 -10861144.16348  22273862.9364   22273865.6494   22273862.483
        56.0004         51.0004
  -2863688.94247  -2208712.58046  24451294.8734   24451298.5854   24451294.472
        45.0004         40.0004
 -17164642.26649 -13315135.09048  20751581.4164   20751583.6544   20751581.511
        54.0004         49.0004
 -16492123.74348 -12811470.60047  21997106.8444   21997107.9964   21997107.478
        52.0004         47.0004
 20 11  7  1 48 30.0000000  0  8G30G05G18G15G29G07G13G02
  -9644733.77947  -7475061.17647  23316067.3854   23316073.2624   23316067.870
        47.0004         43.0004
 -22356902.38749 -17401339.41249  20573935.3034   20573937.5814   20573934.772
        60.0004         56.0004
  -4089809.59547  -3144764.27446  24392120.9684   24392124.9834   24392121.756
        43.0004         38.0004
 -14678832.83749 -11426924.08148  22564814.8984   22564817.8684   22564813.578
        54.0004         50.0004
 -13990418.29949 -10845629.01548  22277652.2114   22277654.6264   22277651.810
        56.0004         51.0004
  -2834317.51747  -2185825.73946  24456883.0574   24456886.5764   24456882.026
        45.0004         40.0004
 -17215971.43249 -13355131.83648  20741813.7704   20741815.9594   20741814.073
        54.0004         49.0004
 -16428296.23748 -12761734.90247  22009252.2424   22009253.6754   22009252.838
        52.0004         47.0004
 20 11  7  1 49  0.0000000  0  8G30G05G18G15G29G07G13G02
  -9660413.74148  -7487279.31547  23313084.1594   23313088.6144   23313083.537
        48.0004         43.0004
 -22334501.49149 -17383884.16449  20578197.8254   20578200.1504   20578197.862
        60.0004         56.0004
  -4193486.12847  -3225551.19446  24372392.5364   24372395.4974   24372392.983
        43.0004         38.0004
 -14777642.03949 -11503918.24148  22546012.2354   22546014.6214   22546011.010
        54.0004         50.0004
 -13969898.09149 -10829639.24348  22281556.4594   22281559.8844   22281555.542
        56.0004         51.0004
  -2804455.32947  -2162556.47746  24462567.1144   24462569.3234   24462567.274
        45.0004         40.0004
 -17266768.81049 -13394714.20348  20732147.3504   20732149.1624   20732147.381
        54.0004         49.0004
 -16364086.33448 -12711701.23247  22021471.2914   22021472.9634   22021472.091
        52.0004         47.0004
 20 11  7  1 49 30.0000000  0  8G30G05G18G15G29G07G13G02
  -9675561.71548  -7499082.92247  23310201.1944   23310206.4694   23310201.504
        48.0004         43.0004
 -22311789.12749 -17366186.21649  20582519.9134   20582522.1564   20582519.602
        60.0004         56.0004
  -4297080.00347  -3306273.68646  24352679.3704   24352683.4564   24352679.845
        43.0004         39.0004
 -14876157.28749 -11580683.33948  22527265.4134   22527268.1364   22527265.186
        54.0004         50.0004
 -13948770.13749 -10813175.90648  22285577.5664   22285580.2804   22285577.963
        56.0004         51.0004
  -2774104.01247  -2138906.08546  24468342.6124   24468344.5304   24468343.383
        45.0004         40.0004
 -17317033.27449 -13433881.31048  20722582.1304   20722584.3954   20722582.168
        54.0004         49.0004
 -16299495.02748 -12661370.37747  22033762.8704   22033763.6344   22033763.602
        52.0004         47.0004
 20 11  7  1 50  0.0000000  0  8G30G05G18G15G29G07G13G02
  -9690176.63748  -7510471.13547  23307420.2864   23307425.9114   23307421.257
        48.0004         43.0004
 -22288765.67949 -17348245.86849  20586900.9774   20586903.3724   20586900.870
        60.0004         56.0004
  -4400589.08547  -3386930.07546  24332982.2774   24332986.0854   24332984.610
        44.0004         39.0004
 -14974376.96649 -11657218.13248  22508574.6394   22508577.4304   22508574.396
        54.0004         50.0004
 -13927035.29249 -10796239.67248  22289713.7144   22289716.4704   22289714.486
        56.0004         52.0004
  -2743263.90547  -2114874.82346  24474211.4354   24474212.9804   24474213.005
        45.0004         40.0004
 -17366763.88749 -13472632.42548  20713118.7354   20713121.0094   20713119.018
        54.0004         49.0004
 -16234523.40548 -12610743.15947  22046126.6344   22046128.0994   22046126.418
        52.0004         47.0004
 20 11  7  1 50 30.0000000  0  8G30G05G18G15G29G07G13G02
  -9704257.55348  -7521443.24947  23304740.6944   23304747.7784   23304740.428
        48.0004         43.0004
 -22265431.64449 -17330063.50649  20591341.4584   20591343.8674   20591341.392
        60.0004         56.0004
  -4504011.46847  -3467518.91946  24313302.1564   24313305.7874   24313303.237
        44.0004         39.0004
 -15072299.05249 -11733521.01548  22489940.1214   22489943.3044   22489939.953
        54.0004         50.0004
 -13904694.84249 -10778831.52948  22293965.0144   22293967.1964   22293965.266
        56.0004         51.0004
  -2711935.68547  -2090463.23946  24480174.0824   24480173.7064   24480174.220
        45.0004         40.0004
 -17415959.57349 -13510966.71048  20703757.3124   20703759.3334   20703756.979
        54.0004         49.0004
 -16169172.11148 -12559820.10947  22058562.6884   22058564.1634   22058562.793
        52.0004         47.0004
 20 11  7  1 51  0.0000000  0  8G30G05G18G15G29G07G13G02
  -9717803.41448  -7531998.42847  23302163.2734   23302170.0784   23302163.942
        48.0004         43.0004
 -22241787.12749 -17311639.20449  20595840.6444   20595842.9444   20595840.263
        60.0004         56.0004
  -4607344.95947  -3548038.50946  24293639.2484   24293642.8484   24293639.211
        44.0004         39.0004
 -15169921.86749 -11809590.70548  22471363.3334   22471366.8094   22471363.374
        54.0004         50.0004
 -13881749.88049 -10760952.33748  22298331.1664   22298333.5824   22298331.254
        56.0004         51.0004
  -2680120.04047  -2065671.82146  24486227.5354   24486229.3794   24486228.201
        45.0004         40.0004
 -17464619.29049 -13548883.36448  20694497.9614   20694499.5644   20694497.858
        54.0004         49.0004
 -16103442.37448 -12508602.15947  22071070.6364   22071071.7594   22071071.108
        51.0004         47.0004
 20 11  7  1 51 30.0000000  0  8G30G05G18G15G29G07G13G02
  -9730813.43348  -7542136.03947  23299686.7264   23299693.5624   23299688.121
        48.0004         43.0004
 -22217832.94649 -17292973.60949  20600399.0704   20600401.3874   20600398.824
        60.0004         56.0004
  -4710587.61247  -3628487.31946  24273991.2444   24273995.4634   24273992.212
        43.0004         39.0004
 -15267243.66949 -11885425.84048  22452843.7844   22452846.7614   22452843.794
        55.0004         50.0004
 -13858201.66049 -10742603.08748  22302812.0494   22302814.7404   22302812.072
        56.0004         51.0004
  -2647818.14247  -2040501.51746  24492373.1334   24492376.8064   24492373.403
        45.0004         40.0004
 -17512742.27449 -13586381.78848  20685340.0414   20685341.7524   20685340.167
        54.0004         49.0004
 -16037334.96748 -12457089.92647  22083650.1364   22083651.4044   22083651.062
        51.0004         47.0004
 20 11  7  1 52  0.0000000  0  8G30G05G18G15G29G07G13G02
  -9743286.62848  -7551855.36547  23297314.1054   23297319.5234   23297314.336
        48.0004         43.0004
 -22193569.33749 -17274066.91749  20605016.1094   20605018.6894   20605015.896
        60.0004         56.0004
  -4813737.39247  -3708863.74846  24254362.6364   24254367.2104   24254362.852
        44.0004         39.0004
 -15364262.72049 -11961025.06248  22434381.4164   22434385.0074   22434380.858
        55.0004         50.0004
 -13834051.25549 -10723784.60948  22307407.6594   22307410.7254   22307408.153
        56.0004         51.0004
  -2615030.76147  -2014952.92646  24498612.2934   24498615.8874   24498610.678
        45.0004         40.0004
 -17560327.50049 -13623461.17648  20676284.6434   20676287.0634   20676284.766
        54.0004         49.0004
 -15970850.95248 -12405284.23047  22096301.7764   22096302.9444   22096302.739
        51.0004         47.0004
 20 11  7  1 52 30.0000000  0  8G30G05G18G15G29G07G13G02
  -9755222.02248  -7561155.61547  23295042.1964   23295047.5604   23295042.730
        48.0004         43.0004
 -22168996.36749 -17254919.15849  20609692.2174   20609694.7284   20609691.839
        60.0004         56.0004
  -4916792.11547  -3789166.10946  24234752.6804   24234755.2104   24234752.396
        44.0004         39.0004
 -15460977.19249 -12036386.96848  22415977.7034   22415980.0824   22415977.763
        55.0004         50.0004
 -13809299.66849 -10704497.67248  22312117.7304   22312120.8774   22312117.966
        56.0004         51.0004
  -2581758.36147  -1989026.38946  24504943.1954   24504947.0984   24504943.217
        45.0004         40.0004
 -17607373.89449 -13660120.69148  20667332.1894   20667334.5784   20667332.388
        54.0004         49.0004
 -15903991.03448 -12353185.61447  22109024.9524   22109025.9964   22109025.584
        51.0004         47.0004
 20 11  7  1 53  0.0000000  0  8G30G05G18G15G29G07G13G02
  -9766618.85948  -7570036.21147  23292872.7084   23292879.2784   23292872.607
        48.0004         43.0004
 -22144114.64449 -17235530.80749  20614427.1574   20614429.5404   20614426.666
        60.0004         56.0004
  -5019749.80147  -3869392.87346  24215159.6174   24215163.0804   24215158.587
        44.0004         39.0004
 -15557385.42449 -12111510.22748  22397631.4294   22397634.0304   22397631.950
        55.0004         50.0004
 -13783948.89549 -10684743.83848  22316941.6664   22316944.5074   22316941.953
        56.0004         51.0004
  -2548002.41947  -1962723.06946  24511366.8234   24511371.4914   24511367.067
        45.0004         40.0004
 -17653880.41549 -13696359.52048  20658482.1714   20658484.7634   20658482.004
        54.0004         49.0004
 -15836756.58448 -12300795.15847  22121819.2904   22121820.6934   22121819.227
        51.0004         47.0004
 20 11  7  1 53 30.0000000  0  8G30G05G18G15G29G07G13G02
  -9777476.17348  -7578496.43647  23290807.5744   23290813.1964   23290808.706
        48.0004         43.0004
 -22118924.66849 -17215902.26449  20619220.7884   20619223.2014   20619220.806
        60.0004         56.0004
  -5122608.29247  -3949542.31146  24195586.9504   24195590.6134   24195585.399
        44.0004         39.0004
 -15653485.53949 -12186393.40448  22379344.6594   22379347.7294   22379344.359
        55.0004         50.0004
 -13757999.73449 -10664523.72548  22321880.0464   22321882.6284   22321879.725
        56.0004         51.0004
  -2513763.67747  -1936043.56446  24517883.5444   24517886.5284   24517882.611
        45.0004         40.0004
 -17699846.47949 -13732177.22048  20649735.3244   20649737.4104   20649735.307
        54.0004         49.0004
 -15769148.12848 -12248113.26747  22134684.6574   22134686.0594   22134685.341
        51.0004         47.0004
 20 11  7  1 54  0.0000000  0  8G30G05G18G15G29G07G13G02
  -9787793.20248  -7586535.65147  23288845.2944   23288849.8834   23288845.427
        48.0004         43.0004
 -22093426.41549 -17196033.50749  20624072.9644   20624075.2234   20624072.666
        60.0004         56.0004
  -5225365.60047  -4029612.89946  24176032.5884   24176035.2634   24176031.964
        44.0004         39.0004
 -15749276.09949 -12261035.36248  22361116.0214   22361118.6954   22361116.279
        55.0004         50.0004
 -13731453.54849 -10643838.40748  22326931.7564   22326934.0184   22326932.023
        56.0004         51.0004
  -2479042.37547  -1908988.01446  24524490.1934   24524492.7924   24524490.284
        44.0004         40.0004
 -17745270.88849 -13767572.84948  20641091.3324   20641093.4254   20641091.335
        54.0004         49.0004
 -15701167.05048 -12195141.01447  22147620.8044   22147622.5774   22147621.242
        51.0004         47.0004
 20 11  7  1 54 30.0000000  0  8G30G05G18G15G29G07G13G02
  -9797569.13648  -7594153.22847  23286984.3844   23286989.3974   23286984.231
        48.0004         43.0004
 -22067620.44849 -17175924.95949  20628983.6574   20628985.8994   20628983.398
        60.0004         56.0004
  -5328019.55947  -4109602.96146  24156498.1684   24156500.7094   24156497.668
        44.0004         39.0004
 -15844755.19149 -12335434.62148  22342947.1024   22342949.7704   22342946.502
        55.0004         50.0004
 -13704311.64249 -10622688.88748  22332096.9354   22332099.0004   22332097.130
        56.0004         51.0004
  -2443840.65947  -1881558.13746  24531189.0784   24531192.7174   24531190.448
        44.0004         40.0004
 -17790152.99349 -13802545.90748  20632550.8174   20632552.3954   20632550.516
        54.0004         49.0004
 -15632814.47348 -12141879.29947  22160628.1144   22160629.7594   22160628.768
        51.0004         46.0004
 20 11  7  1 55  0.0000000  0  8G30G05G18G15G29G07G13G02
  -9806803.06448  -7601348.47747  23285226.3344   23285232.6314   23285227.824
        48.0004         43.0004
 -22041506.89949 -17155576.74249  20633952.7554   20633955.3654   20633952.668
        60.0004         56.0004
  -5430568.09547  -4189510.88146  24136983.4494   24136986.4594   24136983.205
        44.0004         39.0004
 -15939921.04049 -12409589.80348  22324837.3984   22324840.4934   22324836.762
        55.0004         51.0004
 -13676575.31649 -10601076.18248  22337374.9404   22337377.0844   22337374.928
        56.0004         51.0004
  -2408158.77047  -1853754.07946  24537979.6424   24537983.5884   24537979.491
        45.0004         40.0004
 -17834491.99649 -13837095.76748  20624112.7744   20624114.8494   20624113.009
        54.0004         49.0004
 -15564090.96748 -12088328.53047  22173705.7174   22173707.4794   22173706.366
        51.0004         46.0004
 20 11  7  1 55 30.0000000  0  8G30G05G18G15G29G07G13G02
  -9815494.33248  -7608120.86347  23283572.5214   23283577.3694   23283572.270
        48.0004         43.0004
 -22015086.67149 -17134989.56849  20638980.3204   20638982.9144   20638980.170
        60.0004         56.0004
  -5533009.04847  -4269334.97946  24117489.5784   24117493.0584   24117489.442
        44.0004         39.0004
 -16034772.03049 -12483499.62048  22306787.6914   22306790.8724   22306787.191
        55.0004         51.0004
 -13648246.19349 -10579001.56648  22342766.0084   22342767.8814   22342766.260
        56.0004         51.0004
  -2371997.78947  -1825576.70546  24544860.4114   24544865.0204   24544859.747
        45.0004         40.0004
 -17878287.21549 -13871221.90048  20615779.1484   20615781.1004   20615778.693
        54.0004         49.0004
 -15494997.84248 -12034489.75747  22186853.7984   22186855.4864   22186854.816
        51.0004         47.0004
 20 11  7  1 56  0.0000000  0  8G30G05G18G15G29G07G13G02
  -9823642.20247  -7614469.82047  23282022.0684   23282028.2164   23282022.136
        47.0004         43.0004
 -21988359.77449 -17114163.42949  20644066.2544   20644068.6944   20644066.148
        60.0004         56.0004
  -5635340.26847  -4349073.56246  24098015.1804   24098020.2054   24098015.393
        43.0004         39.0004
 -16129306.59049 -12557162.87348  22288798.1564   22288801.1104   22288798.004
        55.0004         50.0004
 -13619325.42849 -10556465.92448  22348269.0574   22348272.0084   22348268.626
        56.0004         51.0004
  -2335358.93047  -1797026.96046  24551831.8954   24551835.8874   24551832.218
        45.0004         40.0004
 -17921537.51549 -13904923.42248  20607549.2304   20607551.1654   20607549.179
        54.0004         49.0004
 -15425536.07648 -11980363.72147  22200072.4794   22200073.5334   22200072.426
        51.0004         46.0004
 20 11  7  1 56 30.0000000  0  8G30G05G18G15G29G07G13G02
  -9831245.93948  -7620394.78947  23280574.9034   23280580.8594   23280576.580
        48.0004         43.0004
 -21961326.74149 -17093098.73649  20649210.7674   20649212.8894   20649210.130
        60.0004         56.0004
  -5737559.70747  -4428725.04346  24078564.0294   24078568.5724   24078564.233
        43.0004         39.0004
 -16223522.86849 -12630578.11948  22270869.5104   22270872.5064   22270869.461
        55.0004         50.0004
 -13589814.57749 -10533470.48148  22353884.7294   22353887.2504   22353884.863
        56.0004         51.0004
  -2298242.78747  -1768105.32546  24558895.0654   24558899.1734   24558895.782
        44.0004         39.0004
 -17964242.53349 -13938200.04548  20599422.0344   20599424.5404   20599422.445
        54.0004         49.0004
 -15355707.06048 -11925951.51847  22213359.8494   22213361.5394   22213360.265
        51.0004         47.0004
 20 11  7  1 57  0.0000000  0  8G30G05G18G15G29G07G13G02
  -9838304.84247  -7625895.20647  23279231.6804   23279237.1084   23279231.321
        47.0004         43.0004
 -21933987.91249 -17071795.76049  20654413.3474   20654415.4714   20654413.395
        60.0004         56.0004
  -5839665.11347  -4508287.66046  24059134.6994   24059137.4644   24059134.438
        44.0004         39.0004
 -16317419.20249 -12703744.06048  22253001.3974   22253005.1424   22253001.469
        55.0004         51.0004
 -13559715.24049 -10510016.46848  22359612.5234   22359615.1254   22359613.277
        56.0004         51.0004
  -2260650.57347  -1738812.70346  24566047.9504   24566052.8204   24566048.054
        44.0004         39.0004
 -18006401.23049 -13971050.96448  20591399.6174   20591401.3794   20591399.965
        54.0004         49.0004
 -15285511.50948 -11871253.72247  22226717.8564   22226719.5794   22226718.085
        51.0004         47.0004
 20 11  7  1 57 30.0000000  0  8G30G05G18G15G29G07G13G02
  -9844818.18947  -7630970.53247  23277992.5834   23277998.0894   23277992.790
        47.0004         43.0004
 -21906343.56349 -17050254.71449  20659673.6724   20659675.8254   20659673.571
        60.0004         56.0004
  -5941654.39347  -4587759.80246  24039726.6794   24039729.8334   24039726.800
        44.0004         39.0004
 -16410994.07449 -12776659.50348  22235194.7914   22235197.6354   22235194.475
        55.0004         51.0004
 -13529028.90849 -10486105.06548  22365451.6174   22365454.4214   22365451.581
        56.0004         51.0004
  -2222583.41247  -1709150.02546  24573293.0074   24573296.1774   24573294.331
        44.0004         40.0004
 -18048012.90849 -14003475.63748  20583481.0504   20583483.3694   20583481.230
        54.0004         49.0004
 -15214950.60148 -11816271.21947  22240145.0344   22240146.5994   22240145.722
        51.0004         47.0004
 20 11  7  1 58  0.0000000  0  8G30G05G18G15G29G07G13G02
  -9850785.39347  -7635620.28647  23276857.2854   23276861.9734   23276857.741
        47.0004         43.0004
 -21878394.26249 -17028476.04149  20664992.4014   20664994.2524   20664992.369
        60.0004         56.0004
  -6043525.44647  -4667139.80546  24020342.2914   24020344.8294   24020342.034
        44.0004         40.0004
 -16504245.60549 -12849323.00848  22217450.0004   22217452.6644   22217449.615
        55.0004         51.0004
 -13497756.98749 -10461737.35448  22371402.3814   22371405.1194   22371401.975
        56.0004         51.0004
  -2184042.57247  -1679118.23446  24580626.7744   24580630.8394   24580626.474
        44.0004         40.0004
 -18089076.87649 -14035473.53148  20575666.9794   20575669.4164   20575667.041
        54.0004         49.0004
 -15144025.45448 -11761004.90747  22253641.3874   22253643.2294   22253642.154
        51.0004         47.0004
 20 11  7  1 58 30.0000000  0  8G30G05G18G15G29G07G13G02
  -9856205.74247  -7639843.91447  23275824.9064   23275830.7524   23275826.367
        47.0004         43.0004
 -21850140.15349 -17006459.85649  20670368.8694   20670371.2244   20670368.675
        60.0004         56.0004
  -6145275.93447  -4746425.86746  24000980.6624   24000982.6254   24000980.322
        44.0004         40.0004
 -16597172.27149 -12921733.35148  22199766.5184   22199769.4124   22199765.674
        55.0004         51.0004
 -13465901.04549 -10436914.56148  22377464.5384   22377467.0294   22377464.106
        56.0004         51.0004
  -2145028.68647  -1648717.86146  24588051.8234   24588055.1324   24588051.189
        45.0004         40.0004
 -18129592.41849 -14067044.06848  20567957.3504   20567959.2954   20567957.456
        54.0004         49.0004
 -15072737.29548 -11705455.72547  22267207.6044   22267208.9394   22267208.338
        51.0004         46.0004
 20 11  7  1 59  0.0000000  0  8G30G05G18G15G29G07G13G02
  -9861078.72347  -7643641.01747  23274897.9474   23274903.5394   23274898.220
        47.0004         43.0004
 -21821581.58449 -16984206.43349  20675803.4934   20675805.6664   20675803.290
        60.0004         56.0004
  -6246903.93847  -4825616.45946  23981640.4204   23981643.0894   23981640.324
        44.0004         39.0004
 -16689772.32549 -12993889.20748  22182145.4294   22182147.6794   22182144.598
        55.0004         51.0004
 -13433462.28549 -10411637.62348  22383637.9244   22383640.1724   22383638.000
        56.0004         51.0004
  -2105542.88047  -1617949.77046  24595566.1794   24595567.8424   24595565.510
        45.0004         40.0004
 -18169558.69049 -14098186.61148  20560351.8654   20560353.8494   20560351.113
        54.0004         49.0004
 -15001087.29848 -11649624.59147  22280841.7804   22280843.2094   22280842.458
        51.0004         46.0004
 20 11  7  1 59 30.0000000  0  8G30G05G18G15G29G07G13G02
  -9865403.66147  -7647011.08747  23274074.9944   23274081.1834   23274075.936
        47.0004         43.0004
 -21792718.95149 -16961716.08049  20681295.8414   20681297.8624   20681295.825
        60.0004         56.0004
  -6348407.11447  -4904709.78746  23962325.4004   23962326.8914   23962324.475
        44.0004         40.0004
 -16782044.17149 -13065789.31748  22164586.6874   22164588.9714   22164586.755
        55.0004         51.0004
 -13400442.65349 -10385908.04548  22389921.1234   22389923.5454   22389921.424
        56.0004         51.0004
  -2065586.57747  -1586815.04646  24603169.9764   24603172.8114   24603169.813
        45.0004         40.0004
 -18208975.06549 -14128900.66548  20552851.7464   20552853.3844   20552851.550
        54.0004         49.0004
 -14929076.42048 -11593512.25147  22294545.4734   22294546.2854   22294546.066
        51.0004         46.0004
 20 11  7  2  0  0.0000000  0  8G30G05G18G15G29G07G13G02
  -9869179.98148  -7649953.65847  23273356.2694   23273362.2394   23273357.109
        48.0004         43.0004
 -21763552.50149 -16938988.99049  20686845.8924   20686848.1914   20686845.477
        60.0004         56.0004
  -6449783.26847  -4983704.15246  23943033.9744   23943036.8434   23943033.818
        44.0004         40.0004
 -16873985.90049 -13137432.18548  22147090.4884   22147093.7194   22147090.250
        56.0004         51.0004
 -13366843.76349 -10359727.11148  22396314.5724   22396317.4444   22396314.527
        56.0004         51.0004
  -2025160.69347  -1555314.40946  24610861.7064   24610865.1374   24610861.219
        45.0004         40.0004
 -18247841.24449 -14159185.99348  20545455.4034   20545457.0954   20545455.171
        54.0004         49.0004
 -14856705.88648 -11537119.65847  22308316.9404   22308318.6914   22308318.114
        51.0004         46.0004
 20 11  7  2  0 30.0000000  0  8G30G05G18G15G29G07G13G02
  -9872407.25048  -7652468.39847  23272741.9104   23272747.8644   23272742.367
        48.0004         43.0004
 -21734082.98949 -16916025.75149  20692453.9144   20692455.9384   20692453.642
        60.0004         56.0004
  -6551030.28247  -5062597.86946  23923767.2064   23923769.9344   23923767.784
        45.0004         40.0004
 -16965596.17549 -13208816.77548  22129657.7254   22129660.2714   22129656.795
        56.0004         51.0004
 -13332667.12049 -10333095.98248  22402817.5544   22402820.9854   22402816.928
        56.0004         51.0004
  -1984266.53147  -1523448.87346  24618644.0164   24618647.0964   24618645.356
        45.0004         40.0004
 -18286156.46249 -14189042.00448  20538164.1424   20538166.1964   20538163.820
        54.0004         49.0004
 -14783976.78448 -11480447.66247  22322157.6454   22322157.8124   22322157.895
        51.0004         46.0004
 20 11  7  2  1  0.0000000  0  8G30G05G18G15G29G07G13G02
  -9875084.87048  -7654554.84947  23272232.9754   23272237.1234   23272234.145
        48.0004         43.0004
 -21704311.03549 -16892826.82449  20698119.2534   20698121.4654   20698118.951
        60.0004         56.0004
  -6652145.87747  -5141389.21946  23904525.5384   23904526.5334   23904527.272
        44.0004         39.0004
 -17056873.39049 -13279941.85348  22112288.3634   22112290.8744   22112288.366
        56.0004         51.0004
 -13297914.60249 -10306016.11648  22409430.6124   22409434.1704   22409430.382
        56.0004         51.0004
  -1942905.15647  -1491219.27246  24626514.6744   24626517.3784   24626513.908
        45.0004         40.0004
 -18323920.02149 -14218468.14248  20530977.9214   20530980.0894   20530977.822
        54.0004         50.0004
 -14710890.56448 -11423497.39647  22336064.1584   22336067.0354   22336065.919
        51.0004         46.0004
 20 11  7  2  1 30.0000000  0  8G30G05G18G15G29G07G13G02
  -9877212.32648  -7656212.58947  23271828.2834   23271833.0634   23271829.869
        48.0004         43.0004
 -21674236.05249 -16869391.78649  20703842.5404   20703844.3064   20703842.629
        60.0004         55.0004
  -6753127.86147  -5220076.44146  23885308.1234   23885312.5894   23885309.452
        44.0004         39.0004
 -17147815.86049 -13350806.08048  22094982.4354   22094985.3994   22094981.965
        56.0004         51.0004
 -13262587.55649 -10278488.56848  22416154.2194   22416156.6924   22416153.905
        56.0004         51.0004
  -1901077.86947  -1458626.62946  24634473.0054   24634476.6764   24634474.178
        45.0004         40.0004
 -18361131.41449 -14247464.02448  20523896.9034   20523898.9394   20523897.043
        54.0004         50.0004
 -14637448.19248 -11366269.60347  22350040.1134   22350041.9964   22350040.250
        51.0004         46.0004
 20 11  7  2  2  0.0000000  0  8G30G05G18G15G29G07G13G02
  -9878789.29547  -7657441.39347  23271526.8634   23271532.4894   23271527.880
        47.0004         43.0004
 -21643858.98949 -16845721.36149  20709623.1264   20709625.0124   20709622.731
        60.0004         55.0004
  -6853974.08747  -5298657.89246  23866118.0024   23866121.6004   23866117.310
        45.0004         40.0004
 -17238422.13049 -13421408.34748  22077740.3424   22077742.9534   22077740.527
        56.0004         51.0004
 -13226688.03049 -10250514.92648  22422985.2384   22422988.0204   22422984.362
        56.0004         51.0004
  -1858785.66347  -1425671.68346  24642521.5584   24642526.0914   24642521.326
        44.0004         40.0004
 -18397790.14649 -14276029.26048  20516921.1794   20516923.0374   20516921.102
        54.0004         50.0004
 -14563650.88048 -11308765.24347  22364083.5334   22364085.1234   22364084.063
        51.0004         46.0004
 20 11  7  2  2 30.0000000  0  8G30G05G18G15G29G07G13G02
  -9879815.18847  -7658240.76647  23271332.2014   23271336.8264   23271333.383
        47.0004         42.0004
 -21613180.05749 -16821815.70049  20715461.0454   20715462.9294   20715461.184
        60.0004         55.0004
  -6954682.23947  -5377131.72646  23846953.7374   23846958.3754   23846954.008
        45.0004         40.0004
 -17328690.29849 -13491747.14848  22060563.0184   22060565.9374   22060562.740
        56.0004         51.0004
 -13190217.38849 -10222096.25948  22429925.3914   22429928.0724   22429925.277
        56.0004         51.0004
  -1816029.95847  -1392355.57846  24650657.7184   24650662.3904   24650656.682
        44.0004         40.0004
 -18433895.68549 -14304163.43748  20510050.1014   20510052.4594   20510050.110
        54.0004         49.0004
 -14489499.84848 -11250985.24447  22378193.9524   22378195.9174   22378194.342
        50.0004         46.0004
 20 11  7  2  3  0.0000000  0  8G30G05G18G15G29G07G13G02
  -9880289.59747  -7658610.43047  23271241.5284   23271247.0274   23271242.475
        47.0004         42.0004
 -21582199.81249 -16797675.25849  20721356.2684   20721358.2254   20721355.926
        60.0004         55.0004
  -7055250.11847  -5455496.23846  23827816.2784   23827820.4874   23827814.847
        45.0004         40.0004
 -17418619.11549 -13561821.53048  22043450.3574   22043452.6844   22043450.178
        56.0004         51.0004
 -13153177.73949 -10193234.21848  22436974.1984   22436976.5554   22436974.727
        56.0004         51.0004
  -1772811.75747  -1358679.11246  24658881.8964   24658887.2014   24658880.644
        44.0004         40.0004
 -18469447.38949 -14331866.05248  20503284.6134   20503287.1104   20503284.817
        54.0004         49.0004
 -14414996.18048 -11192930.46547  22392371.5684   22392373.1224   22392372.358
        50.0004         46.0004
 20 11  7  2  3 30.0000000  0  8G30G05G18G15G29G07G13G02
  -9880212.15247  -7658550.07847  23271257.2904   23271262.5474   23271258.964
        47.0004         43.0004
 -21550918.70849 -16773300.37949  20727308.8664   20727310.8244   20727308.718
        60.0004         55.0004
  -7155675.48347  -5533749.74346  23808706.4714   23808710.5774   23808705.509
        45.0004         40.0004
 -17508206.67149 -13631629.98848  22026402.4044   22026404.5794   22026401.743
        56.0004         51.0004
 -13115570.82349 -10163930.15148  22444130.0374   22444133.2664   22444130.019
        56.0004         51.0004
  -1729132.51347  -1324643.32846  24667193.9024   24667197.0654   24667193.723
        44.0004         39.0004
 -18504444.94449 -14359136.86848  20496625.0724   20496627.1534   20496624.941
        54.0004         50.0004
 -14340141.51348 -11134602.19147  22406616.1454   22406617.8254   22406616.451
        50.0004         46.0004
 20 11  7  2  4  0.0000000  0  8G30G05G18G15G29G07G13G02
  -9879582.49547  -7658059.44447  23271377.2874   23271381.5214   23271377.200
        47.0004         43.0004
 -21519336.74649 -16748691.06949  20733318.4714   20733321.0054   20733318.072
        60.0004         55.0004
  -7255956.12447  -5611890.46946  23789623.2004   23789627.7534   23789623.566
        45.0004         40.0004
 -17597451.52849 -13701171.41548  22009419.2464   22009422.4944   22009419.573
        56.0004         51.0004
 -13077398.15249 -10134185.23048  22451394.4074   22451397.3874   22451394.896
        56.0004         51.0004
  -1684993.66247  -1290249.42946  24675594.5784   24675597.0844   24675594.450
        44.0004         40.0004
 -18538887.74449 -14385975.40248  20490070.7384   20490073.0144   20490071.006
        54.0004         50.0004
 -14264936.88648 -11076001.21047  22420927.0884   22420928.9614   22420927.205
        50.0004         46.0004
 20 11  7  2  4 30.0000000  0  8G30G05G18G15G29G07G13G02
  -9878400.20348  -7657138.16447  23271601.9204   23271607.1844   23271602.731
        48.0004         43.0004
 -21487454.46849 -16723847.74849  20739385.5214   20739388.0354   20739385.381
        60.0004         55.0004
  -7356089.73047  -5689916.63046  23770568.6944   23770573.7194   23770568.998
        45.0004         40.0004
 -17686352.17649 -13770444.61548  21992502.3314   21992505.0594   21992502.219
        56.0004         51.0004
 -13038661.92949 -10104001.18348  22458766.2444   22458768.5104   22458765.965
        56.0004         51.0004
  -1640396.34047  -1255498.30246  24684079.0374   24684084.5424   24684080.559
        44.0004         40.0004
 -18572775.40149 -14412381.35248  20483622.0764   20483624.3664   20483622.490
        54.0004         50.0004
 -14189383.60048 -11017128.55847  22435304.8354   22435305.8484   22435305.777
        50.0004         46.0004
 20 11  7  2  5  0.0000000  0  8G30G05G18G15G29G07G13G02
  -9876665.01247  -7655786.07747  23271931.6324   23271937.3884   23271932.243
        47.0004         43.0004
 -21455272.43349 -16698770.84849  20745509.6524   20745512.0934   20745509.362
        60.0004         55.0004
  -7456074.06147  -5767826.47246  23751542.8524   23751546.0264   23751542.919
        45.0004         41.0004
 -17774907.01849 -13839448.35848  21975650.9854   21975653.5874   21975650.619
        56.0004         52.0004
 -12999363.91749 -10073379.37448  22466243.7854   22466247.0184   22466243.481
        56.0004         51.0004
  -1595341.76047  -1220390.86046  24692653.8664   24692657.3284   24692654.211
        44.0004         39.0004
 -18606107.41949 -14438354.34048  20477279.4644   20477281.2794   20477279.121
        54.0004         50.0004
 -14113482.87848 -10957985.16147  22449747.6424   22449748.8594   22449748.371
        50.0004         46.0004
 20 11  7  2  5 30.0000000  0  8G30G05G18G15G29G07G13G02
  -9874376.57148  -7654002.88547  23272366.9204   23272372.2884   23272367.557
        48.0004         43.0004
 -21422790.94549 -16673460.61749  20751690.7484   20751693.0584   20751690.642
        60.0004         55.0004
  -7555906.84047  -5845618.21746  23732544.2774   23732549.0144   23732544.711
        45.0004         41.0004
 -17863114.73749 -13908181.62048  21958865.2334   21958867.9694   21958865.373
        56.0004         51.0004
 -12959505.87549 -10042321.19048  22473828.7954   22473830.9974   22473828.848
        56.0004         51.0004
  -1549831.10247  -1184928.03446  24701315.1234   24701317.9914   24701314.449
        44.0004         40.0004
 -18638883.36949 -14463894.02948  20471042.5234   20471044.2834   20471042.283
        54.0004         49.0004
 -14037236.14648 -10898572.16147  22464257.3294   22464257.5204   22464257.722
        50.0004         46.0004
 20 11  7  2  6  0.0000000  0  8G30G05G18G15G29G07G13G02
  -9871534.59648  -7651788.36447  23272907.2884   23272913.7054   23272907.578
        48.0004         43.0004
 -21390009.93049 -16647916.98049  20757928.5844   20757931.3064   20757928.256
        60.0004         55.0004
  -7655585.75747  -5923290.07946  23713576.7544   23713579.7504   23713577.067
        45.0004         41.0004
 -17950973.35649 -13976642.86348  21942146.1574   21942148.8244   21942145.720
        56.0004         51.0004
 -12919089.52749 -10010827.95648  22481519.4394   22481522.4704   22481519.683
        55.0004         51.0004
  -1503865.47347  -1149110.72746  24710060.9524   24710064.1584   24710059.007
        44.0004         39.0004
 -18671103.10249 -14489000.29448  20464911.2514   20464912.9974   20464911.054
        54.0004         50.0004
 -13960644.70148 -10838890.53347  22478831.6484   22478834.0414   22478832.488
        50.0004         46.0004
 20 11  7  2  6 30.0000000  0  8G30G05G18G15G29G07G13G02
  -9868138.90348  -7649142.37347  23273554.6894   23273560.0874   23273555.095
        48.0004         43.0004
 -21356930.13249 -16622140.52749  20764223.5364   20764226.3074   20764223.144
        60.0004         55.0004
  -7755108.64847  -6000840.35746  23694638.3474   23694641.7724   23694637.888
        45.0004         41.0004
 -18038481.56949 -14044831.05948  21925493.9894   21925496.5074   21925493.642
        56.0004         51.0004
 -12878116.77049  -9978901.15548  22489316.5474   22489319.2704   22489316.142
        55.0004         51.0004
  -1457446.81547  -1112940.36646  24718893.2574   24718896.9214   24718893.080
        44.0004         40.0004
 -18702766.10349 -14513672.75148  20458885.9374   20458887.9244   20458885.652
        54.0004         50.0004
 -13883709.62648 -10778941.15247  22493472.4394   22493474.2544   22493474.093
        50.0004         46.0004
 20 11  7  2  7  0.0000000  0  8G30G05G18G15G29G07G13G02
  -9864189.11948  -7646064.62047  23274306.0744   23274311.8724   23274306.264
        48.0004         43.0004
 -21323551.53449 -16596131.23949  20770575.1814   20770577.8084   20770575.139
        60.0004         55.0004
  -7854473.11747  -6078267.18546  23675729.4274   23675732.2584   23675729.795
        46.0004         41.0004
 -18125637.76449 -14112744.94948  21908908.8014   21908911.5464   21908908.314
        56.0004         51.0004
 -12836589.78449  -9946542.48548  22497218.9664   22497221.4744   22497219.422
        55.0004         51.0004
  -1410575.77747  -1076417.51846  24727813.8444   24727815.8474   24727814.599
        44.0004         40.0004
 -18733872.07949 -14537911.16048  20452966.6614   20452968.5844   20452966.647
        54.0004         50.0004
 -13806432.45148 -10718725.20747  22508177.1104   22508178.6614   22508177.558
        50.0004         46.0004
 20 11  7  2  7 30.0000000  0  8G30G05G18G15G29G07G13G02
  -9859685.12248  -7642555.02047  23275162.9944   23275168.5384   23275163.551
        48.0004         43.0004
 -21289875.06649 -16569889.84449  20776983.6534   20776986.1264   20776983.221
        60.0004         55.0004
  -7953676.92047  -6155568.82446  23656852.1794   23656854.5944   23656851.882
        45.0004         41.0004
 -18212440.47149 -14180383.39048  21892390.8544   21892393.6184   21892390.487
        56.0004         52.0004
 -12794510.34249  -9913753.33248  22505226.2294   22505229.1214   22505226.274
        55.0004         51.0004
  -1363254.59147  -1039543.92746  24736818.3794   24736821.1614   24736817.889
        44.0004         40.0004
 -18764420.63049 -14561715.21448  20447153.1214   20447155.5244   20447153.582
        54.0004         50.0004
 -13728814.48448 -10658243.69747  22522947.7124   22522950.0164   22522948.399
        50.0004         45.0004
 20 11  7  2  8  0.0000000  0  8G30G05G18G15G29G07G13G02
  -9854626.66548  -7638613.36147  23276126.4614   23276131.8734   23276126.438
        48.0004         43.0004
 -21255901.19249 -16543416.70949  20783448.6794   20783451.2804   20783448.831
        59.0004         55.0004
  -8052717.68947  -6232743.40746  23638004.8644   23638008.7324   23638005.693
        46.0004         41.0004
 -18298888.17349 -14247745.20748  21875940.3064   21875943.1694   21875940.167
        56.0004         52.0004
 -12751880.54949  -9880535.33748  22513338.7994   22513341.1054   22513338.894
        56.0004         51.0004
  -1315484.40847  -1002320.45646  24745908.3554   24745910.2824   24745909.349
        44.0004         39.0004
 -18794411.51749 -14585084.72748  20441446.3164   20441448.4464   20441446.183
        54.0004         49.0004
 -13650856.99748 -10597497.63647  22537782.4784   22537784.2754   22537782.989
        50.0004         45.0004
 20 11  7  2  8 30.0000000  0  8G30G05G18G15G29G07G13G02
  -9849013.58448  -7634239.53347  23277193.6754   23277198.9134   23277193.065
        48.0004         43.0004
 -21221629.88049 -16516711.80349  20789970.3414   20789972.9414   20789969.964
        59.0004         55.0004
  -8151593.11447  -6309789.15546  23619191.2134   23619192.6044   23619190.663
        46.0004         41.0004
 -18384979.51749 -14314829.34548  21859557.2834   21859560.4734   21859557.020
        56.0004         52.0004
 -12708702.50649  -9846890.12948  22521554.9994   22521557.8064   22521555.246
        56.0004         51.0004
  -1267266.58547   -964748.17546  24755084.0924   24755085.8924   24755084.508
        44.0004         39.0004
 -18823844.54549 -14608019.54748  20435845.3114   20435847.1854   20435845.405
        54.0004         50.0004
 -13572561.32048 -10536488.04747  22552681.6064   22552683.6444   22552682.801
        50.0004         45.0004
 20 11  7  2  9  0.0000000  0  8G30G05G18G15G29G07G13G02
  -9842845.75548  -7629433.41747  23278366.9964   23278373.5214   23278366.807
        48.0004         43.0004
 -21187061.59049 -16489775.48349  20796548.5294   20796550.8444   20796548.262
        59.0004         55.0004
  -8250300.89147  -6386704.29146  23600407.5084   23600408.6544   23600406.848
        46.0004         41.0004
 -18470713.01349 -14381634.63448  21843242.9164   21843246.1084   21843242.708
        56.0004         52.0004
 -12664978.25449  -9812819.29948  22529875.2474   22529878.1444   22529875.167
        56.0004         51.0004
  -1218602.47947   -926828.14246  24764346.2154   24764348.2374   24764344.251
        44.0004         40.0004
 -18852719.24549 -14630519.30648  20430350.8104   20430352.4504   20430350.604
        54.0004         50.0004
 -13493928.76648 -10475215.94347  22567645.0244   22567646.3124   22567645.057
        50.0004         45.0004
 20 11  7  2  9 30.0000000  0  8G30G05G18G15G29G07G13G02
  -9836123.07348  -7624194.96247  23279646.9834   23279652.5174   23279646.603
        48.0004         43.0004
 -21152196.67249 -16462608.01949  20803183.1894   20803185.0984   20803182.741
        59.0004         55.0004
  -8348838.81347  -6463487.06546  23581654.9604   23581656.9294   23581655.226
        46.0004         41.0004
 -18556087.14249 -14448159.90148  21826996.6904   21826999.6884   21826996.073
        56.0004         52.0004
 -12620709.68049  -9778324.33148  22538299.6064   22538302.2214   22538299.634
        55.0004         51.0004
  -1169493.12747   -888561.14746  24773690.6254   24773694.1654   24773690.390
        45.0004         40.0004
 -18881035.60249 -14652583.99748  20424961.9444   20424964.4034   20424962.115
        54.0004         50.0004
 -13414961.08548 -10413682.71447  22582672.3194   22582673.6944   22582673.810
        50.0004         45.0004
 20 11  7  2 10  0.0000000  0  8G30G05G18G15G29G07G13G02
  -9828845.39148  -7618524.05247  23281031.5654   23281037.1404   23281031.666
        48.0004         43.0004
 -21117035.80749 -16435209.96249  20809873.8994   20809876.5334   20809873.489
        59.0004         55.0004
  -8447204.42247  -6540135.57646  23562936.8504   23562939.7854   23562936.545
        46.0004         41.0004
 -18641100.16249 -14514403.78748  21810819.3484   21810822.1394   21810819.824
        57.0004         52.0004
 -12575898.95349  -9743406.90248  22546826.4604   22546829.4634   22546826.443
        55.0004         50.0004
  -1119940.31247   -849948.59546  24783120.6804   24783123.9834   24783121.188
        45.0004         40.0004
 -18908793.17749 -14674213.26848  20419680.1334   20419682.5864   20419679.982
        54.0004         50.0004
 -13335659.38148 -10351889.20947  22597763.1444   22597764.8764   22597762.965
        50.0004         45.0004
 20 11  7  2 10 30.0000000  0  8G30G05G18G15G29G07G13G02
  -9821012.68348  -7612420.64247  23282521.8594   23282528.3714   23282521.900
        48.0004         43.0004
 -21081578.92349 -16407581.23349  20816621.5714   20816623.5114   20816621.362
        59.0004         55.0004
  -8545395.44247  -6616648.04446  23544251.3174   23544253.9804   23544250.556
        46.0004         41.0004
 -18725750.79249 -14580365.29448  21794711.0284   21794713.8794   21794710.751
        57.0004         52.0004
 -12530548.13349  -9708068.60648  22555456.3314   22555459.0344   22555456.501
        55.0004         50.0004
  -1069945.98147   -810991.96946  24792634.4274   24792637.5834   24792633.796
        45.0004         40.0004
 -18935991.92049 -14695407.08348  20414504.2984   20414506.5474   20414504.369
        54.0004         50.0004
 -13256024.89548 -10289836.38747  22612916.0144   22612918.7664   22612917.404
        50.0004         45.0004
 20 11  7  2 11  0.0000000  0  8G30G05G18G15G29G07G13G02
  -9812624.87548  -7605884.68247  23284118.5724   23284123.9934   23284119.204
        48.0004         43.0004
 -21045826.54649 -16379722.24149  20823424.6524   20823426.7444   20823424.399
        59.0004         55.0004
  -8643409.50447  -6693022.62346  23525599.9004   23525602.1744   23525599.829
        46.0004         41.0004
 -18810037.58249 -14646043.28148  21778671.6654   21778674.4514   21778671.523
        57.0004         52.0004
 -12484659.20549  -9672311.02648  22564188.8594   22564191.9214   22564188.651
        55.0004         50.0004
  -1019510.99647   -771692.01746  24802231.9594   24802234.8974   24802231.477
        45.0004         40.0004
 -18962631.69549 -14716165.34248  20409435.1834   20409436.7504   20409435.232
        54.0004         50.0004
 -13176059.47948 -10227525.70647  22628134.2784   22628135.5744   22628134.664
        50.0004         45.0004
 20 11  7  2 11 30.0000000  0  8G30G05G18G15G29G07G13G02
  -9803681.91948  -7598916.14547  23285819.6524   23285825.5384   23285820.219
        48.0004         43.0004
 -21009778.87949 -16351633.16549  20830284.4474   20830286.5304   20830284.313
        59.0004         55.0004
  -8741244.23347  -6769257.45646  23506982.5834   23506985.8384   23506983.147
        46.0004         41.0004
 -18893959.31649 -14711436.81548  21762701.6584   21762704.4194   21762701.580
        57.0004         52.0004
 -12438234.20949  -9636135.71548  22573023.0914   22573026.5194   22573022.852
        55.0004         51.0004
   -968636.80247   -732049.81446  24811911.7914   24811915.7734   24811912.029
        44.0004         40.0004
 -18988712.29749 -14736487.88248  20404471.9404   20404474.0164   20404471.403
        54.0004         50.0004
 -13095764.33048 -10164958.07547  22643414.3094   22643415.9734   22643414.583
        50.0004         45.0004
 20 11  7  2 12  0.0000000  0  8G30G05G18G15G29G07G13G02
  -9794183.80848  -7591515.02447  23287628.0514   23287632.7234   23287627.117
        48.0004         43.0004
 -20973436.23149 -16323314.22849  20837200.2234   20837202.1604   20837200.073
        59.0004         55.0004
  -8838897.29247  -6845350.73946  23488398.7824   23488402.6904   23488398.862
        46.0004         41.0004
 -18977514.59349 -14776544.80248  21746801.4134   21746804.4224   21746800.837
        57.0004         52.0004
 -12391275.32549  -9599544.39648  22581959.3804   22581962.3944   22581959.477
        55.0004         51.0004
   -917325.11647   -692066.67546  24821674.8544   24821680.0784   24821674.003
        44.0004         39.0004
 -19014233.62249 -14756374.61848  20399615.4584   20399617.3384   20399615.242
        54.0004         50.0004
 -13015140.81648 -10102134.58247  22658755.5714   22658757.0194   22658755.936
        50.0004         45.0004
 20 11  7  2 12 30.0000000  0  8G30G05G18G15G29G07G13G02
  -9784130.60248  -7583681.34547  23289540.2374   23289545.6844   23289539.947
        48.0004         43.0004
 -20936799.30749 -16294765.98449  20844172.0284   20844174.3454   20844171.869
        59.0004         55.0004
  -8936366.31947  -6921300.60746  23469851.8524   23469854.6884   23469852.231
        46.0004         41.0004
 -19060701.56349 -14841365.79848  21730971.6664   21730974.3604   21730971.058
        57.0004         52.0004
 -12343784.98149  -9562538.94948  22590996.3764   22590999.7364   22590996.919
        55.0004         51.0004
   -865577.29047   -651743.68446  24831523.8704   24831527.1464   24831524.366
        44.0004         39.0004
 -19039195.43349 -14775825.36948  20394865.3494   20394867.5674   20394865.425
        54.0004         50.0004
 -12934190.53048 -10039056.46147  22674159.6954   22674162.1264   22674161.460
        50.0004         45.0004
 20 11  7  2 13  0.0000000  0  8G30G05G18G15G29G07G13G02
  -9773522.22548  -7575415.09647  23291559.1954   23291565.1634   23291559.986
        48.0004         43.0004
 -20899868.74949 -16265988.93549  20851199.6834   20851202.2044   20851199.562
        59.0004         55.0004
  -9033648.91447  -6997105.22246  23451339.7724   23451342.4614   23451340.732
        46.0004         41.0004
 -19143518.92449 -14905898.78748  21715212.0004   21715215.1284   21715211.754
        57.0004         52.0004
 -12295765.27049  -9525121.01248  22600133.8304   22600137.0864   22600133.774
        55.0004         50.0004
   -813394.67647   -611081.93546  24841453.6334   24841457.5514   24841452.966
        44.0004         39.0004
 -19063597.56949 -14794840.00548  20390221.8524   20390223.5964   20390221.817
        54.0004         50.0004
 -12852914.55748  -9975724.56047  22689626.3674   22689628.3274   22689626.650
        50.0004         45.0004
 20 11  7  2 13 30.0000000  0  8G30G05G18G15G29G07G13G02
  -9762358.92148  -7566716.41747  23293682.8794   23293689.5474   23293683.078
        48.0004         43.0004
 -20862644.61249 -16236983.12749  20858283.1354   20858285.5644   20858282.782
        59.0004         55.0004
  -9130742.81347  -7072762.79546  23432863.1734   23432866.9364   23432862.604
        46.0004         41.0004
 -19225965.53749 -14970142.88448  21699523.1034   21699526.2184   21699522.989
        57.0004         52.0004
 -12247218.41849  -9487292.32448  22609372.6994   22609375.5074   22609372.989
        55.0004         51.0004
   -760779.93847   -570083.44146  24851464.8584   24851470.3074   24851465.088
        44.0004         39.0004
 -19087440.22249 -14813418.68348  20385684.6704   20385686.6214   20385684.687
        54.0004         50.0004
 -12771314.88748  -9912140.43547  22705154.2994   22705156.2114   22705154.938
        50.0004         45.0004
 20 11  7  2 14  0.0000000  0  8G30G05G18G15G29G07G13G02
  -9750640.61948  -7557585.27747  23295913.5464   23295919.8714   23295914.073
        48.0004         43.0004
 -20825126.87149 -16207748.54049  20865422.5334   20865424.7984   20865422.583
        59.0004         55.0004
  -9227645.51847  -7148271.36147  23414422.9714   23414425.8184   23414423.037
        46.0004         42.0004
 -19308039.57849 -15034096.66348  21683904.7844   21683907.8124   21683904.136
        57.0004         52.0004
 -12198146.56749  -9449054.53148  22618710.7804   22618713.4374   22618710.981
        55.0004         51.0004
   -707733.52447   -528748.59646  24861561.4744   24861563.9144   24861559.396
        44.0004         39.0004
 -19110723.21449 -14831561.26448  20381254.3364   20381256.2684   20381254.102
        54.0004         50.0004
 -12689392.99348  -9848305.22647  22720742.9884   22720745.3164   22720743.629
        50.0004         45.0004
 20 11  7  2 14 30.0000000  0  8G30G05G18G15G29G07G13G02
  -9738367.50648  -7548021.82947  23298249.9184   23298254.7924   23298249.651
        48.0004         43.0004
 -20787316.51049 -16178285.93649  20872617.8244   20872619.7544   20872617.742
        59.0004         55.0004
  -9324354.68747  -7223629.12247  23396019.5924   23396022.4514   23396019.908
        46.0004         42.0004
 -19389740.16849 -15097759.44648  21668357.8394   21668360.5654   21668357.498
        57.0004         52.0004
 -12148552.11149  -9410409.51948  22628148.8504   22628150.8494   22628149.121
        55.0004         51.0004
   -654257.71647   -487079.19646  24871737.5634   24871740.5484   24871738.140
        44.0004         39.0004
 -19133446.53049 -14849267.73148  20376930.0384   20376932.0614   20376929.883
        54.0004         50.0004
 -12607149.95748  -9784219.77047  22736392.8804   22736394.9054   22736394.324
        49.0004         45.0004
 20 11  7  2 15  0.0000000  0  8G30G05G18G15G29G07G13G02
  -9725539.68747  -7538026.14847  23300691.0804   23300695.5954   23300690.904
        47.0004         43.0004
 -20749213.56449 -16148595.33949  20879868.4344   20879870.7094   20879868.236
        59.0004         55.0004
  -9420867.89547  -7298834.20447  23377653.8234   23377657.3644   23377654.318
        46.0004         42.0004
 -19471065.77049 -15161130.02948  21652882.1984   21652884.7684   21652882.115
        57.0004         52.0004
 -12098436.99349  -9371358.79248  22637684.6874   22637688.2224   22637684.583
        55.0004         51.0004
   -600353.67347   -445076.10046  24881994.7994   24881996.4794   24881994.148
        44.0004         39.0004
 -19155610.15549 -14866538.07348  20372712.4004   20372714.1524   20372712.364
        54.0004         50.0004
 -12524587.47748  -9719885.40347  22752105.1774   22752106.4074   22752105.515
        49.0004         45.0004
 20 11  7  2 15 30.0000000  0  8G30G05G18G15G29G07G13G02
  -9712157.34447  -7527598.35147  23303236.9614   23303242.0324   23303237.564
        47.0004         43.0004
 -20710818.36649 -16118677.01849  20887175.1504   20887177.5954   20887174.899
        59.0004         55.0004
  -9517182.81247  -7373884.75247  23359325.7894   23359329.6134   23359326.095
        46.0004         42.0004
 -19552014.94149 -15224207.29048  21637477.9894   21637480.6474   21637477.921
        57.0004         53.0004
 -12047803.84749  -9331904.42248  22647319.2764   22647323.1864   22647319.443
        55.0004         50.0004
   -546023.04347   -402740.60946  24892333.7374   24892336.7514   24892332.646
        44.0004         39.0004
 -19177214.04049 -14883372.25448  20368601.3474   20368603.3954   20368601.239
        54.0004         50.0004
 -12441707.21348  -9655303.41147  22767875.9954   22767877.9174   22767876.953
        49.0004         45.0004
 20 11  7  2 16  0.0000000  0  8G30G05G18G15G29G07G13G02
  -9698220.59847  -7516738.57647  23305888.9124   23305893.6124   23305889.712
        47.0004         43.0004
 -20672131.47749 -16088531.40149  20894536.9934   20894539.1594   20894536.708
        59.0004         55.0004
  -9613297.00647  -7448778.88247  23341036.7464   23341039.2134   23341036.157
        47.0004         42.0004
 -19632586.20149 -15286990.07948  21622146.0174   21622148.4174   21622145.354
        57.0004         53.0004
 -11996654.88449  -9292048.12348  22657053.6744   22657056.6294   22657053.555
        55.0004         51.0004
   -491267.37647   -360073.90446  24902753.8554   24902755.1334   24902752.445
        44.0004         39.0004
 -19198258.52849 -14899770.54248  20364596.5244   20364598.5794   20364596.731
        54.0004         50.0004
 -12358510.51848  -9590474.84847  22783708.3624   22783709.2374   22783709.938
        49.0004         44.0004
 20 11  7  2 16 30.0000000  0  8G30G05G18G15G29G07G13G02
  -9683729.67647  -7505446.95447  23308646.5464   23308651.4714   23308646.939
        47.0004         42.0004
 -20633153.01249 -16058158.58349  20901954.2224   20901956.4364   20901954.058
        59.0004         55.0004
  -9709208.03847  -7523514.71047  23322785.7024   23322787.8074   23322785.602
        47.0004         42.0004
 -19712778.27749 -15349477.38848  21606885.6954   21606888.8294   21606885.392
        57.0004         53.0004
 -11944992.20249  -9251791.51648  22666884.5464   22666887.5204   22666884.617
        55.0004         50.0004
   -436088.44047   -317077.40646  24913254.2084   24913253.7264   24913254.739
        44.0004         39.0004
 -19218743.41749 -14915732.77648  20360698.2174   20360700.3814   20360698.252
        54.0004         50.0004
 -12274998.87948  -9525400.87247  22799600.5414   22799601.9854   22799600.644
        49.0004         44.0004
 20 11  7  2 17  0.0000000  0  8G30G05G18G15G29G07G13G02
  -9668684.78547  -7493723.69347  23311509.0394   23311515.1554   23311509.986
        47.0004         43.0004
 -20593883.59949 -16027559.05349  20909426.7824   20909428.9964   20909426.585
        59.0004         55.0004
  -9804913.52647  -7598090.38247  23304573.0614   23304575.0594   23304573.013
        47.0004         42.0004
 -19792590.03949 -15411668.35948  21591697.8184   21591700.7974   21591697.057
        57.0004         53.0004
 -11892818.47449  -9211136.68848  22676812.6854   22676816.0584   22676811.499
        55.0004         50.0004
   -380487.82247   -273752.30846  24923834.0274   24923836.1514   24923833.840
        44.0004         39.0004
 -19238668.96249 -14931259.16148  20356906.7184   20356908.6794   20356906.695
        54.0004         50.0004
 -12191173.93348  -9460082.76747  22815551.4034   22815553.0474   22815552.964
        49.0004         44.0004
 20 11  7  2 17 30.0000000  0  8G30G05G18G15G29G07G13G02
  -9653086.22547  -7481568.99047  23314478.0194   23314482.6704   23314478.767
        47.0004         43.0004
 -20554323.57649 -15996733.07949  20916954.9334   20916957.2234   20916954.722
        59.0004         55.0004
  -9900411.05947  -7672504.00747  23286400.1394   23286402.8514   23286400.873
        47.0004         42.0004
 -19872020.08349 -15473561.88148  21576582.7714   21576585.6464   21576583.255
        57.0004         53.0004
 -11840135.93349  -9170085.38548  22686838.0914   22686840.7224   22686837.989
        55.0004         50.0004
   -324467.09247   -230099.86446  24934494.4944   24934497.0714   24934494.248
        44.0004         39.0004
 -19258034.93449 -14946349.52048  20353221.6724   20353223.2164   20353221.600
        54.0004         50.0004
 -12107037.15248  -9394521.67347  22831561.5864   22831564.5594   22831562.853
        49.0004         44.0004
 20 11  7  2 18  0.0000000  0  8G30G05G18G15G29G07G13G02
  -9636934.20347  -7468983.01847  23317550.8844   23317557.5624   23317552.081
        47.0004         43.0004
 -20514473.17949 -15965680.83749  20924538.4324   20924540.7874   20924538.177
        59.0004         55.0004
  -9995698.20147  -7746753.68047  23268267.0204   23268270.0674   23268267.672
        47.0004         42.0004
 -19951067.08449 -15535156.92648  21561541.0384   21561543.6044   21561540.704
        57.0004         53.0004
 -11786946.97149  -9128639.47048  22696960.0214   22696962.1014   22696959.528
        55.0004         50.0004
   -268028.03947   -186121.41946  24945232.9244   24945236.8844   24945232.852
        43.0004         39.0004
 -19276841.34349 -14961003.86248  20349642.9594   20349644.9604   20349642.877
        54.0004         50.0004
 -12022590.17848  -9328718.86447  22847631.9574   22847633.8094   22847632.289
        49.0004         44.0004
 20 11  7  2 18 30.0000000  0  8G30G05G18G15G29G07G13G02
  -9620228.95848  -7455965.96147  23320730.1184   23320735.3874   23320730.666
        48.0004         43.0004
 -20474332.87949 -15934402.69349  20932176.7854   20932178.8264   20932176.500
        59.0004         55.0004
 -10090772.46547  -7820837.46847  23250174.5264   23250179.0694   23250173.883
        47.0004         42.0004
 -20029729.60449 -15596452.37748  21546571.6894   21546574.7124   21546571.105
        57.0004         53.0004
 -11733254.06549  -9086800.85948  22707176.6984   22707179.7014   22707177.130
        55.0004         50.0004
   -211172.04947   -141818.11846  24956051.2804   24956056.1544   24956051.297
        43.0004         38.0004
 -19295088.76149 -14975222.62448  20346170.2744   20346172.5454   20346170.682
        54.0004         50.0004
 -11937834.55448  -9262675.55047  22863760.4824   22863762.5194   22863761.130
        49.0004         44.0004
 20 11  7  2 19  0.0000000  0  8G30G05G18G15G29G07G13G02
  -9602970.93248  -7442518.16347  23324014.1174   23324020.2364   23324014.516
        48.0004         43.0004
 -20433903.04349 -15902898.93449  20939870.2334   20939872.6484   20939869.857
        59.0004         55.0004
 -10185631.54147  -7894753.58747  23232123.7784   23232126.8604   23232122.432
        47.0004         42.0004
 -20108006.53349 -15657447.36848  21531676.1634   21531678.9054   21531676.528
        57.0004         53.0004
 -11679059.52349  -9044571.38348  22717490.1664   22717492.7944   22717489.914
        55.0004         50.0004
   -153901.54247    -97191.84046  24966950.7844   24966954.2314   24966951.249
        43.0004         38.0004
 -19312777.04049 -14989005.68948  20342804.3574   20342806.6314   20342804.505
        54.0004         50.0004
 -11852771.94848  -9196393.04447  22879947.7564   22879948.4114   22879948.417
        49.0004         44.0004
 20 11  7  2 19 30.0000000  0  8G30G05G18G15G29G07G13G02
  -9585160.39448  -7428639.83247  23327403.3774   23327409.2774   23327403.399
        48.0004         43.0004
 -20393184.33449 -15871170.08549  20947618.7464   20947620.8394   20947618.801
        59.0004         55.0004
 -10280272.91147  -7968500.08547  23214114.1704   23214116.5484   23214113.978
        47.0004         42.0004
 -20185896.38049 -15718140.73348  21516854.0954   21516856.6164   21516853.071
        57.0004         53.0004
 -11624365.60349  -9001952.77248  22727897.9094   22727901.3374   22727897.651
        55.0004         50.0004
    -96217.59247    -52243.35746  24977927.1294   24977931.4474   24977927.253
        43.0004         39.0004
 -19329906.48349 -15002353.29448  20339544.6844   20339546.3144   20339544.575
        54.0004         50.0004
 -11767403.90648  -9129872.51147  22896193.4194   22896194.0314   22896193.905
        49.0004         44.0004
 20 11  7  2 20  0.0000000  0  8G30G05G18G15G29G07G13G02
  -9566797.71248  -7414331.24947  23330897.0894   23330903.9344   23330897.398
        48.0004         43.0004
 -20352176.91549 -15839216.26249  20955422.2504   20955424.1524   20955422.194
        59.0004         55.0004
 -10374694.18247  -8042075.06647  23196146.8084   23196150.2404   23196145.551
        47.0004         42.0004
 -20263398.06449 -15778531.63448  21502106.0144   21502108.2764   21502105.302
        57.0004         53.0004
 -11569174.88849  -8958947.04648  22738400.5134   22738403.5904   22738400.144
        55.0004         50.0004
    -38122.16847     -6974.26546  24988983.9604   24988987.1974   24988983.597
        43.0004         38.0004
 -19346477.32049 -15015265.62248  20336391.6074   20336393.3254   20336391.777
        54.0004         50.0004
 -11681732.01748  -9063115.23347  22912495.6874   22912497.4914   22912496.215
        49.0004         44.0004
 20 11  7  2 20 30.0000000  0  8G30G05G18G15G29G07G13G02
  -9547883.17247  -7399592.66947  23334495.9034   23334502.0124   23334496.802
        47.0004         43.0004
 -20310880.98949 -15807037.62749  20963280.3364   20963282.8204   20963280.132
        59.0004         55.0004
 -10468892.83347  -8115476.59547  23178221.2394   23178224.0034   23178220.029
        47.0004         42.0004
 -20340510.26549 -15838619.03748  21487432.0954   21487434.4534   21487432.244
        57.0004         53.0004
 -11513489.87549  -8915556.16148  22748997.2764   22748999.8934   22748996.656
        55.0004         50.0004
     20383.11847     38614.20946  25000117.1104   25000120.2804   25000117.240
        43.0004         38.0004
 -19362489.91049 -15027742.95648  20333344.4654   20333346.1084   20333344.386
        54.0004         50.0004
 -11595757.74348  -8996122.33347  22928855.9274   22928857.6784   22928856.660
        49.0004         44.0004
 20 11  7  2 21  0.0000000  0  8G30G05G18G15G29G07G13G02
  -9528417.31747  -7384424.47347  23338201.5524   23338206.9334   23338201.462
        47.0004         43.0004
 -20269296.92049 -15774634.47649  20971193.8214   20971196.0894   20971193.572
        59.0004         55.0004
 -10562866.47447  -8188702.78947  23160338.6634   23160342.2174   23160337.760
        47.0004         43.0004
 -20417231.65749 -15898401.92248  21472832.3114   21472835.0634   21472832.016
        57.0004         53.0004
 -11457313.13649  -8871782.10848  22759686.8624   22759689.9054   22759686.649
        55.0004         50.0004
     79296.71447     84520.85546  25011328.5324   25011332.2574   25011328.956
        43.0004         39.0004
 -19377944.42349 -15039785.42448  20330403.3154   20330405.2344   20330403.608
        54.0004         50.0004
 -11509483.07048  -8928895.33347  22945273.0794   22945275.4724   22945273.970
        49.0004         45.0004
 20 11  7  2 21 30.0000000  0  8G30G05G18G15G29G07G13G02
  -9508400.48247  -7368826.94347  23342010.6984   23342015.6794   23342011.529
        47.0004         43.0004
 -20227425.05949 -15742007.06749  20979161.8144   20979163.9124   20979161.446
        59.0004         55.0004
 -10656612.61447  -8261751.70047  23142499.3964   23142502.7984   23142498.591
        47.0004         43.0004
 -20493561.03949 -15957879.33348  21458307.1144   21458310.0754   21458306.520
        57.0004         53.0004
 -11400647.20249  -8827626.86848  22770469.9154   22770473.0574   22770469.561
        55.0004         50.0004
    138616.40247    130743.92846  25022616.2554   25022619.7804   25022615.613
        44.0004         39.0004
 -19392840.80349 -15051392.97948  20327568.9344   20327570.8264   20327568.705
        54.0004         50.0004
 -11422909.23148  -8861435.24147  22961748.3304   22961749.7784   22961748.727
        49.0004         44.0004
 20 11  7  2 22  0.0000000  0  8G30G05G18G15G29G07G13G02
  -9487833.16247  -7352800.45847  23345924.4234   23345930.0514   23345925.080
        47.0004         43.0004
 -20185265.94649 -15709155.82149  20987184.5984   20987186.4624   20987184.449
        59.0004         55.0004
 -10750128.74547  -8334621.40147  23124704.3244   23124707.1634   23124704.557
        47.0004         43.0004
 -20569496.90249 -16017050.10948  21443857.2614   21443859.8364   21443857.323
        58.0004         53.0004
 -11343494.45749  -8783092.28548  22781345.5434   22781348.7594   22781345.584
        55.0004         50.0004
    198340.67247    177282.23746  25033981.6054   25033985.3254   25033983.015
        43.0004         39.0004
 -19407179.48649 -15062565.96148  20324840.4344   20324842.1014   20324840.228
        54.0004         50.0004
 -11336038.07448  -8793743.46047  22978278.7874   22978280.9304   22978280.359
        49.0004         45.0004
 20 11  7  2 22 30.0000000  0  8G30G05G18G15G29G07G13G02
  -9466715.91547  -7336345.46647  23349941.9984   23349947.6564   23349942.385
        47.0004         42.0004
 -20142820.07949 -15676081.13349  20995261.5734   20995263.6364   20995261.701
        59.0004         55.0004
 -10843412.53048  -8407310.02247  23106952.0994   23106955.9234   23106951.432
        48.0004         43.0004
 -20645038.73449 -16075913.84348  21429482.2304   21429484.9024   21429482.319
        58.0004         53.0004
 -11285857.57149  -8738180.45448  22792313.7334   22792316.2234   22792313.842
        54.0004         50.0004
    258467.83247    224134.52946  25045422.8924   25045427.7364   25045423.167
        43.0004         39.0004
 -19420960.91549 -15073304.72448  20322217.7144   20322219.8064   20322217.864
        54.0004         50.0004
 -11248871.33148  -8725821.36047  22994865.9544   22994868.3124   22994867.013
        49.0004         44.0004
 20 11  7  2 23  0.0000000  0  8G30G05G18G15G29G07G13G02
  -9445049.08047  -7319462.22447  23354065.1534   23354071.0104   23354066.690
        47.0004         43.0004
 -20100087.78949 -15642783.26049  21003393.3704   21003395.4484   21003393.239
        59.0004         55.0004
 -10936461.36548  -8479815.58947  23089245.8844   23089248.4914   23089246.153
        48.0004         43.0004
 -20720184.70849 -16134469.12048  21415182.5124   21415185.2574   21415182.218
        58.0004         53.0004
 -11227738.99849  -8692893.27548  22803373.3804   22803376.2534   22803373.777
        54.0004         50.0004
    318995.91447    271299.20546  25056942.3424   25056945.5674   25056941.359
        43.0004         38.0004
 -19434185.30949 -15083609.43848  20319701.3924   20319702.9884   20319701.157
        54.0004         50.0004
 -11161410.51048  -8657670.10947  23011510.0814   23011511.2954   23011509.726
        49.0004         44.0004
 20 11  7  2 23 30.0000000  0  8G30G05G18G15G29G07G13G02
  -9422833.17247  -7302151.13347  23358292.6424   23358299.1534   23358293.655
        47.0004         43.0004
 -20057068.88349 -15609262.04749  21011579.3304   21011581.5314   21011579.274
        59.0004         55.0004
 -11029272.81948  -8552136.17747  23071584.0694   23071587.8274   23071584.507
        48.0004         43.0004
 -20794933.92249 -16192715.22948  21400957.9084   21400960.5434   21400958.068
        58.0004         53.0004
 -11169141.19649  -8647232.66448  22814524.0254   22814527.4634   22814523.836
        55.0004         50.0004
    379923.10647    318774.84446  25068534.8944   25068537.7294   25068534.872
        43.0004         38.0004
 -19446853.04249 -15093480.39248  20317290.3144   20317292.4024   20317290.449
        54.0004         50.0004
 -11073657.13448  -8589290.88347  23028208.5284   23028209.6874   23028209.836
        49.0004         44.0004
 20 11  7  2 24  0.0000000  0  8G30G05G18G15G29G07G13G02
  -9400068.85347  -7284412.71647  23362625.6264   23362630.6974   23362625.265
        47.0004         43.0004
 -20013764.05449 -15575518.03149  21019819.6614   21019822.3944   21019819.621
        59.0004         55.0004
 -11121844.48548  -8624269.92247  23053969.7924   23053971.1124   23053969.092
        48.0004         43.0004
 -20869285.15449 -16250651.23348  21386809.4004   21386811.9334   21386809.381
        58.0004         53.0004
 -11110067.10249  -8601200.93948  22825766.0874   22825769.2614   22825766.699
        55.0004         50.0004
    441247.59247    366560.12546  25080203.4094   25080206.2254   25080202.858
        43.0004         38.0004
 -19458964.57749 -15102917.95448  20314985.9944   20314987.6304   20314986.127
        54.0004         50.0004
 -10985613.20148  -8520685.27047  23044961.6684   23044964.3044   23044962.707
        48.0004         43.0004
 20 11  7  2 24 30.0000000  0  8G30G05G18G15G29G07G13G02
  -9376756.58747  -7266247.31247  23367061.7324   23367065.9164   23367061.690
        47.0004         42.0004
 -19970174.09249 -15541551.84149  21028114.8754   21028117.3534   21028114.668
        59.0004         55.0004
 -11214173.75848  -8696214.80547  23036398.4984   23036401.8824   23036398.707
        48.0004         43.0004
 -20943236.63249 -16308275.74348  21372736.6264   21372739.5344   21372736.117
        58.0004         53.0004
 -11050519.01549  -8554799.85648  22837097.4334   22837100.4464   22837097.269
        55.0004         50.0004
    502967.80347    414653.74546  25091948.8254   25091952.5244   25091949.195
        43.0004         38.0004
 -19470520.21049 -15111922.34248  20312787.1224   20312788.6824   20312786.836
        54.0004         50.0004
 -10897280.42248  -8451854.55347  23061772.0404   23061774.3644   23061772.171
        48.0004         43.0004
 20 11  7  2 25  0.0000000  0  8G30G05G18G15G29G07G13G02
  -9352896.99547  -7247655.42447  23371602.5474   23371607.0284   23371602.432
        47.0004         43.0004
 -19926299.30449 -15507363.69749  21036464.1244   21036466.4544   21036463.946
        59.0004         55.0004
 -11306258.24948  -8767968.92247  23018876.3644   23018879.2624   23018876.414
        48.0004         43.0004
 -21016788.12649 -16365588.56048  21358740.1194   21358743.2594   21358739.420
        58.0004         53.0004
 -10990499.44749  -8508031.38448  22848518.9014   22848522.1304   22848519.334
        55.0004         50.0004
    565081.79447    463054.16946  25103769.2814   25103772.2884   25103769.408
        43.0004         38.0004
 -19481520.27049 -15120493.81548  20310693.7374   20310695.6404   20310693.990
        54.0004         50.0004
 -10808660.26948  -8382799.92547  23078635.5594   23078637.3314   23078636.802
        48.0004         43.0004
 20 11  7  2 25 30.0000000  0  8G30G05G18G15G29G07G13G02
  -9328490.73947  -7228637.57947  23376245.5044   23376252.0594   23376245.902
        47.0004         42.0004
 -19882139.93549 -15472953.80849  21044867.3224   21044869.4884   21044867.327
        59.0004         55.0004
 -11398095.48048  -8839530.39547  23001400.0694   23001402.5734   23001399.943
        48.0004         43.0004
 -21089938.17949 -16422588.57448  21344820.2434   21344823.1034   21344819.315
        58.0004         53.0004
 -10930011.54849  -8460897.98748  22860029.1734   22860032.8544   22860028.782
        55.0004         50.0004
    627587.60747    511759.94546  25115663.5214   25115669.0574   25115663.071
        43.0004         38.0004
 -19491965.37449 -15128632.84948  20308705.9894   20308707.6844   20308706.401
        54.0004         50.0004
 -10719754.50348  -8313522.75447  23095554.0694   23095556.4484   23095554.515
        48.0004         43.0004
 20 11  7  2 26  0.0000000  0  8G30G05G18G15G29G07G13G02
  -9303538.24247  -7209194.08347  23380994.0914   23380999.5334   23380993.664
        47.0004         42.0004
 -19837695.88149 -15438322.09049  21053324.8594   21053326.8214   21053324.781
        59.0004         55.0004
 -11489682.79447  -8910897.10447  22983970.8444   22983972.9534   22983971.151
        47.0004         43.0004
 -21162685.49249 -16479274.76548  21330977.0064   21330979.6874   21330976.907
        58.0004         53.0004
 -10869057.59649  -8413401.42948  22871628.0874   22871631.6624   22871627.692
        54.0004         50.0004
    690483.70847    560769.86346  25127635.0114   25127636.5094   25127634.235
        43.0004         38.0004
 -19501855.52449 -15136339.44248  20306823.9574   20306826.1254   20306824.184
        54.0004         50.0004
 -10630564.94648  -8244024.42547  23112526.3844   23112528.9504   23112527.289
        48.0004         43.0004
 20 11  7  2 26 30.0000000  0  8G30G05G18G15G29G07G13G02
  -9278040.33047  -7189325.60547  23385846.3824   23385851.9794   23385847.768
        47.0004         43.0004
 -19792968.17049 -15403469.34349  21061836.2934   21061838.2714   21061836.206
        59.0004         55.0004
 -11581017.83548  -8982067.25847  22966591.2834   22966593.6414   22966590.857
        48.0004         43.0004
 -21235028.87349 -16535646.20848  21317210.5594   21317213.2744   21317209.979
        58.0004         53.0004
 -10807640.35349  -8365543.86048  22883315.1754   22883318.7834   22883315.106
        54.0004         50.0004
    753767.88247    610082.15046  25139675.0264   25139679.4774   25139676.196
        43.0004         38.0004
 -19511191.60149 -15143614.29748  20305047.1414   20305049.2164   20305046.944
        54.0004         50.0004
 -10541093.21848  -8174306.24347  23129551.7504   23129555.0584   23129552.332
        48.0004         43.0004
 20 11  7  2 27  0.0000000  0  8G30G05G18G15G29G07G13G02
  -9251997.62147  -7169032.59947  23390802.4184   23390808.4904   23390802.731
        47.0004         43.0004
 -19747956.99649 -15368395.71149  21070401.4774   21070403.4384   21070401.469
        59.0004         54.0004
 -11672098.00848  -9053038.81347  22949259.0614   22949261.5684   22949258.796
        48.0004         43.0004
 -21306967.04849 -16591701.90848  21303521.1824   21303523.9544   21303520.923
        58.0004         53.0004
 -10745762.32849  -8317327.25148  22895090.5544   22895093.6794   22895090.813
        54.0004         50.0004
    817438.15647    659695.25546  25151792.8484   25151794.6174   25151794.098
        42.0004         38.0004
 -19519973.90149 -15150457.64448  20303376.0394   20303377.9384   20303375.693
        54.0004         50.0004
 -10451341.25548  -8104369.67947  23146630.9774   23146633.8624   23146630.823
        48.0004         43.0004
 20 11  7  2 27 30.0000000  0  8G30G05G18G15G29G07G13G02
  -9225410.85648  -7148315.66347  23395862.1334   23395868.3584   23395862.425
        48.0004         43.0004
 -19702662.22949 -15333101.10049  21079020.8924   21079022.8624   21079020.989
        59.0004         54.0004
 -11762920.92248  -9123809.89547  22931975.6334   22931979.7094   22931975.068
        48.0004         43.0004
 -21378499.38449 -16647441.37248  21289909.0634   21289911.7074   21289908.793
        58.0004         53.0004
 -10683426.32149  -8268753.76748  22906952.7204   22906955.9844   22906952.560
        54.0004         49.0004
    881492.87447    709607.96346  25163982.1834   25163986.9464   25163982.043
        42.0004         38.0004
 -19528202.98349 -15156869.91948  20301810.3284   20301811.8984   20301810.287
        54.0004         50.0004
 -10361310.40048  -8034215.79147  23163763.4734   23163764.8104   23163764.357
        48.0004         43.0004
 20 11  7  2 28  0.0000000  0  8G30G05G18G15G29G07G13G02
  -9198280.64148  -7127175.24947  23401025.0804   23401030.8024   23401026.453
        48.0004         43.0004
 -19657084.84249 -15297586.27049  21087693.7774   21087695.9414   21087693.380
        59.0004         54.0004
 -11853483.97748  -9194378.48747  22914741.1334   22914746.1134   22914741.313
        48.0004         43.0004
 -21449624.56649 -16702863.57948  21276374.4354   21276377.1534   21276373.914
        58.0004         53.0004
 -10620635.08949  -8219825.55448  22918901.1654   22918905.1414   22918901.246
        54.0004         49.0004
    945930.23047    759818.84546  25176243.4344   25176247.5994   25176245.063
        42.0004         38.0004
 -19535879.26349 -15162851.43448  20300349.2774   20300351.4764   20300349.184
        54.0004         50.0004
 -10271002.69148  -7963846.18447  23180948.7954   23180949.7824   23180948.501
        48.0004         43.0004
 20 11  7  2 28 30.0000000  0  8G30G05G18G15G29G07G13G02
  -9170607.75048  -7105611.97947  23406290.9984   23406296.8574   23406291.271
        48.0004         43.0004
 -19611225.31549 -15261851.58649  21096420.9534   21096422.9684   21096420.419
        59.0004         54.0004
 -11943784.69048  -9264742.66747  22897558.4594   22897562.3394   22897557.758
        48.0004         43.0004
 -21520341.60649 -16757967.74048  21262917.1314   21262920.2224   21262916.740
        58.0004         53.0004
 -10557391.27749  -8170544.69348  22930936.5484   22930939.6744   22930936.792
        54.0004         49.0004
   1010748.07847    810326.21046  25188578.8704   25188581.0714   25188577.623
        42.0004         38.0004
 -19543003.27949 -15168402.61148  20298993.9364   20298995.5414   20298993.580
        54.0004         50.0004
 -10180419.70648  -7893262.07847  23198185.2784   23198187.6234   23198187.174
        48.0004         43.0004
 20 11  7  2 29  0.0000000  0  8G30G05G18G15G29G07G13G02
  -9142392.98947  -7083626.48147  23411659.8634   23411665.4574   23411660.522
        47.0004         43.0004
 -19565083.85949 -15225897.21949  21105201.2524   21105203.5314   21105201.119
        59.0004         54.0004
 -12033820.53948  -9334900.46247  22880424.6394   22880428.3234   22880424.895
        48.0004         43.0004
 -21590649.32149 -16812752.95448  21249538.1944   21249541.0574   21249538.304
        58.0004         53.0004
 -10493697.73349  -8120913.38648  22943057.5004   22943060.3984   22943058.059
        54.0004         49.0004
   1075944.48047    861128.55346  25200984.6084   25200987.5994   25200985.097
        43.0004         38.0004
 -19549575.39049 -15173523.73448  20297743.1754   20297744.9204   20297743.276
        54.0004         50.0004
 -10089563.49847  -7822465.06647  23215474.4104   23215477.3014   23215476.036
        47.0004         43.0004
 20 11  7  2 29 30.0000000  0  8G30G05G18G15G29G07G13G02
  -9113636.99247  -7061219.23247  23417132.5074   23417137.6044   23417132.060
        47.0004         43.0004
 -19518660.70149 -15189723.34949  21114035.1984   21114037.7464   21114034.716
        59.0004         54.0004
 -12123588.99848  -9404849.90647  22863342.7044   22863346.4754   22863343.126
        48.0004         44.0004
 -21660546.42949 -16867218.21948  21236237.1234   21236240.0294   21236236.985
        58.0004         53.0004
 -10429557.09149  -8070933.70048  22955262.4134   22955265.8304   22955261.432
        54.0004         49.0004
   1141517.62747    912224.44946  25213462.9164   25213466.6954   25213462.203
        43.0004         38.0004
 -19555596.62349 -15178215.60148  20296597.1544   20296598.9914   20296597.351
        54.0004         50.0004
  -9998435.69647  -7751456.42247  23232816.4804   23232817.2284   23232816.558
        47.0004         43.0004
 20 11  7  2 30  0.0000000  0  8G30G05G18G15G29G07G13G02
  -9084340.79547  -7038391.04447  23422706.5054   23422712.8134   23422707.030
        47.0004         43.0004
 -19471956.32149 -15153330.34649  21122922.4584   21122925.0514   21122921.919
        59.0004         54.0004
 -12213087.67148  -9474589.12347  22846311.6554   22846314.9644   22846311.704
        48.0004         43.0004
 -21730032.18149 -16921362.94648  21223014.5314   21223016.9544   21223013.923
        58.0004         53.0004
 -10364972.50749  -8020608.08648  22967552.4944   22967556.7674   22967552.593
        54.0004         49.0004
   1207465.73047    963612.53246  25226011.3134   25226016.9704   25226008.488
        42.0004         38.0004
 -19561067.48849 -15182478.61548  20295556.1674   20295557.9274   20295556.401
        54.0004         50.0004
  -9907038.25448  -7680237.66847  23250209.0944   23250210.8434   23250209.942
        48.0004         43.0004
 20 11  7  2 30 30.0000000  0  8G30G05G18G15G29G07G13G02
  -9054505.04847  -7015142.44447  23428384.4964   23428390.4714   23428385.000
        47.0004         43.0004
 -19424971.14349 -15116718.53949  21131863.5264   21131866.2544   21131863.256
        59.0004         54.0004
 -12302313.91448  -9544116.05747  22829333.4054   22829335.7234   22829333.138
        48.0004         44.0004
 -21799105.41649 -16975186.22448  21209870.2504   21209872.8254   21209870.028
        58.0004         53.0004
 -10299946.14449  -7969938.25148  22979926.2984   22979930.2554   22979926.205
        54.0004         49.0004
   1273786.59647   1015291.07346  25238632.3194   25238636.8654   25238629.889
        42.0004         37.0004
 -19565988.01649 -15186312.79548  20294619.7914   20294621.9614   20294619.879
        54.0004         50.0004
  -9815372.56848  -7608809.91547  23267652.2364   23267654.0474   23267652.564
        48.0004         43.0004
 20 11  7  2 31  0.0000000  0  8G30G05G18G15G29G07G13G02
  -9024130.57247  -6991474.05047  23434164.7724   23434170.0724   23434164.962
        47.0004         43.0004
 -19377705.45549 -15079888.15749  21140857.9214   21140860.4174   21140857.715
        59.0004         54.0004
 -12391265.15348  -9613428.70047  22812405.7654   22812408.6294   22812405.978
        48.0004         44.0004
 -21867765.06449 -17028687.22748  21196804.8974   21196807.3514   21196804.535
        58.0004         53.0004
 -10234481.14849  -7918926.60548  22992384.5664   22992388.4634   22992384.847
        54.0004         49.0004
   1340478.47247   1067258.69246  25251323.5764   25251326.8664   25251324.688
        43.0004         38.0004
 -19570359.62849 -15189719.24848  20293787.9114   20293789.9494   20293788.120
        54.0004         50.0004
  -9723440.70148  -7537174.72747  23285146.4014   23285148.6544   23285146.944
        48.0004         43.0004
