     2.11           OBSERVATION DATA    G (GPS)             RINEX VERSION / TYPE
teqc  2018Dec12     gpsops              20201107 00:20:09UTCPGM / RUN BY / DATE
Linux 2.6.32-573.12.1.x86_64|x86_64|gcc -static|Linux 64|=+ COMMENT
BIT 2 OF LLI FLAGS DATA COLLECTED UNDER A/S CONDITION       COMMENT
CHAN                                                        MARKER NAME
21611M002                                                   MARKER NUMBER
GGN                 Changchun Observatory,NAOC,CAS          OBSERVER / AGENCY
UC2200511014        ASHTECH UZ-12       CQ00                REC # / TYPE / VERS
CR6200503027        ASH701945E_M    NONE                    ANT # / TYPE
 -2674431.9143  3757145.2969  4391528.8732                  APPROX POSITION XYZ
        0.2500        0.0000        0.0000                  ANTENNA: DELTA H/E/N
     1     1                                                WAVELENGTH FACT L1/2
     7    L1    L2    P1    P2    C1    S1    S2            # / TYPES OF OBSERV
    30.0000                                                 INTERVAL
Forced Modulo Decimation to 30 seconds                      COMMENT
                                                            COMMENT
 SNR is mapped to RINEX snr flag value [0-9]                COMMENT
  L1 & L2: min(max(int(snr_dBHz/6), 0), 9)                  COMMENT
pseudorange smoothing corrections not applied               COMMENT
  2020    11     6     0     0    0.0000000     GPS         TIME OF FIRST OBS
                                                            END OF HEADER
 20 11  6  0  0  0.0000000  0  9G05G06G29G07G12G09G19G02G25
 -19219261.61649 -14923243.50649  21236016.1174   21236017.8554   21236015.829
        58.0004         54.0004
 -15815663.61848 -12274573.78548  21835575.2984   21835580.3424   21835574.958
        52.0004         48.0004
  -3642569.55148  -2782058.75747  24204794.5824   24204795.5904   24204794.430
        49.0004         45.0004
  -1289899.42346   -973476.15345  25429493.9074   25429498.2014   25429494.356
        40.0004         35.0004
   -439597.50548   -293381.35247  24856639.0514   24856641.8864   24856640.973
        48.0004         43.0004
 -12227721.62648  -9476855.94647  22741905.0154   22741909.6354   22741905.772
        49.0004         45.0004
  -3404096.55347  -2596369.13646  23980495.4574   23980497.4154   23980496.461
        44.0004         39.0004
 -20742056.39649 -16122429.12648  21168669.9774   21168670.3494   21168670.568
        56.0004         51.0004
   1060227.44548    848583.90847  24808282.5204   24808289.1904   24808281.734
        48.0004         43.0004
 20 11  6  0  0 30.0000000  0  9G05G06G29G07G12G09G19G02G25
 -19273833.39649 -14965766.97149  21225631.1144   21225633.2944   21225631.315
        58.0004         54.0004
 -15754515.93748 -12226926.24548  21847211.1804   21847216.8254   21847210.692
        52.0004         48.0004
  -3739189.32048  -2857346.89047  24186407.8854   24186408.8874   24186408.819
        49.0004         44.0004
  -1353489.20746  -1023026.60745  25417392.3594   25417396.8714   25417395.437
        40.0004         35.0004
   -353044.94548   -225937.85747  24873110.0164   24873113.6704   24873112.093
        48.0004         43.0004
 -12161761.64848  -9425458.56747  22754457.1744   22754461.6494   22754457.207
        49.0004         45.0004
  -3285733.33747  -2504138.09646  24003019.4224   24003021.2434   24003019.346
        44.0004         39.0004
 -20762805.17849 -16138597.01648  21164721.7244   21164722.3874   21164722.529
        56.0004         51.0004
   1113482.16448    890081.06947  24818416.5994   24818423.3894   24818415.991
        48.0004         43.0004
 20 11  6  0  1  0.0000000  0  9G05G06G29G07G12G09G19G02G25
 -19328057.88349 -15008019.81949  21215312.3654   21215314.6284   21215312.005
        58.0004         54.0004
 -15693073.11248 -12179048.72848  21858903.4324   21858908.7744   21858903.453
        52.0004         48.0004
  -3835527.42648  -2932415.54447  24168075.3194   24168076.1354   24168076.498
        49.0004         44.0004
  -1416872.74646  -1072416.30846  25405332.6274   25405338.3584   25405332.573
        40.0004         36.0004
   -266339.16047   -158375.00647  24889608.7204   24889612.3344   24889610.111
        47.0004         42.0004
 -12095338.90248  -9373700.58747  22767097.9244   22767101.7784   22767097.494
        49.0004         45.0004
  -3167240.56247  -2411806.12246  24025567.4204   24025568.9244   24025568.215
        44.0004         39.0004
 -20783263.54949 -16154538.61348  21160828.5854   21160828.7094   21160829.520
        56.0004         51.0004
   1167136.12848    931889.31147  24828626.2344   24828633.5364   24828625.684
        48.0004         43.0004
 20 11  6  0  1 30.0000000  0  9G05G06G29G07G12G09G19G02G25
 -19381935.20349 -15050002.14949  21205060.1324   21205062.0694   21205060.419
        58.0004         54.0004
 -15631335.51548 -12130941.51548  21870651.8034   21870656.9784   21870650.807
        52.0004         48.0004
  -3931581.13848  -3007262.58647  24149797.1694   24149798.3204   24149798.163
        49.0004         45.0004
  -1480047.42546  -1121643.25846  25393311.9984   25393312.9314   25393311.888
        40.0004         36.0004
   -179483.29947    -90695.18547  24906136.9444   24906140.0994   24906139.369
        47.0004         42.0004
 -12028455.66348  -9321583.78847  22779824.2484   22779829.4164   22779824.800
        49.0004         44.0004
  -3048620.80747  -2319375.17346  24048139.7214   24048143.2034   24048143.001
        44.0004         40.0004
 -20803430.54649 -16170253.16448  21156990.9044   21156991.2764   21156991.679
        56.0004         51.0004
   1221186.53847    974006.44647  24838911.8304   24838919.6034   24838912.307
        47.0004         43.0004
 20 11  6  0  2  0.0000000  0  9G05G06G29G07G12G09G19G02G25
 -19435465.18549 -15091713.82949  21194873.8134   21194875.7974   21194873.742
        58.0004         54.0004
 -15569303.32448 -12082604.75048  21882456.3394   21882461.1784   21882455.421
        52.0004         48.0004
  -4027347.33448  -3081885.58547  24131572.7204   24131575.4854   24131573.756
        50.0004         45.0004
  -1543010.17746  -1170704.99645  25381328.6084   25381333.3884   25381329.892
        40.0004         35.0004
    -92480.51447    -22900.86147  24922693.9104   24922696.5434   24922693.286
        47.0004         43.0004
 -11961114.20048  -9269109.93247  22792638.4654   22792644.0554   22792638.731
        49.0004         44.0004
  -2929876.18447  -2226846.95246  24070736.7444   24070737.7594   24070737.425
        44.0004         40.0004
 -20823304.92749 -16185739.70048  21153208.7154   21153209.1534   21153209.545
        56.0004         51.0004
   1275630.94747   1016430.61647  24849273.2184   24849278.6214   24849273.762
        47.0004         43.0004
 20 11  6  0  2 30.0000000  0  9G05G06G29G07G12G09G19G02G25
 -19488647.04249 -15133154.23949  21184753.5814   21184755.5234   21184753.811
        58.0004         54.0004
 -15506976.99448 -12034038.78747  21894316.4454   21894321.2254   21894316.102
        52.0004         47.0004
  -4122824.05648  -3156282.98847  24113403.8714   24113406.9904   24113403.593
        50.0004         45.0004
  -1605759.14056  -1219600.11055  25369385.9945   25369392.0395   25369387.643
        40.0004         35.0004
     -5334.24547     45005.25947  24939275.4454   24939281.0494   24939274.985
        47.0004         42.0004
 -11893316.89148  -9216280.88047  22805539.6934   22805545.8024   22805539.982
        49.0004         44.0004
  -2811009.88947  -2134223.91746  24093355.6824   24093358.3324   24093357.787
        45.0004         40.0004
 -20842885.36949 -16200997.19648  21149482.8784   21149483.1784   21149483.534
        56.0004         51.0004
   1330466.51347   1059159.58147  24859708.0064   24859713.1504   24859707.714
        47.0004         42.0004
 20 11  6  0  3  0.0000000  0  9G05G06G29G07G12G09G19G02G25
 -19541480.74949 -15174323.36749  21174699.4754   21174701.6844   21174699.339
        58.0004         54.0004
 -15444356.67648 -11985243.74347  21906233.1684   21906237.9664   21906232.359
        52.0004         47.0004
  -4218007.99748  -3230452.30547  24095291.4864   24095293.9834   24095291.090
        50.0004         45.0004
  -1668291.65846  -1268326.53345  25357489.3854   25357493.7044   25357488.482
        40.0004         35.0004
     81952.18847    113020.63947  24955886.9014   24955889.4734   24955885.936
        47.0004         42.0004
 -11825065.90648  -9163098.32047  22818527.8834   22818532.8114   22818527.609
        49.0004         44.0004
  -2692024.29447  -2041507.92046  24115998.0424   24116000.0574   24115999.742
        45.0004         41.0004
 -20862170.80149 -16216024.81048  21145812.7714   21145813.3404   21145813.796
        56.0004         51.0004
   1385690.79647   1102191.46347  24870215.5224   24870221.8464   24870215.421
        47.0004         42.0004
 20 11  6  0  3 30.0000000  0  9G05G06G29G07G12G09G19G02G25
 -19593966.20949 -15215221.12649  21164712.1124   21164714.0014   21164712.049
        58.0004         54.0004
 -15381442.96748 -11936220.08447  21918204.8644   21918209.6074   21918204.182
        52.0004         47.0004
  -4312896.47848  -3304391.39847  24077234.4434   24077236.9334   24077234.972
        50.0004         45.0004
  -1730604.97846  -1316882.14546  25345630.9804   25345633.2194   25345630.439
        40.0004         36.0004
    169375.42847    181142.60446  24972522.2884   24972525.8324   24972518.891
        46.0004         41.0004
 -11756363.78648  -9109564.23647  22831601.6514   22831606.3854   22831601.671
        49.0004         44.0004
  -2572922.10547  -1948701.07846  24138662.5784   24138664.7294   24138662.718
        46.0004         41.0004
 -20881159.93449 -16230821.54648  21142199.2034   21142199.8644   21142199.776
        56.0004         51.0004
   1441300.98147   1145524.04747  24880797.7694   24880804.3874   24880797.933
        47.0004         42.0004
 20 11  6  0  4  0.0000000  0  9G05G06G29G07G12G09G19G02G25
 -19646102.29349 -15255846.64349  21154790.7604   21154792.6954   21154790.410
        58.0004         54.0004
 -15318235.93348 -11886967.86647  21930232.6394   21930237.8054   21930232.058
        52.0004         47.0004
  -4407486.90848  -3378098.23647  24059235.0754   24059237.3824   24059234.681
        50.0004         45.0004
  -1792696.37846  -1365264.84246  25333815.1424   25333818.3554   25333815.602
        41.0004         36.0004
    256932.90147    249369.15246  24989183.0884   24989186.6454   24989181.588
        46.0004         41.0004
 -11687212.66948  -9055680.28047  22844761.5004   22844764.5324   22844761.697
        49.0004         44.0004
  -2453705.41347  -1855805.00646  24161348.8984   24161351.4084   24161348.714
        46.0004         41.0004
 -20899851.65449 -16245386.52748  21138642.3774   21138642.6774   21138642.773
        56.0004         51.0004
   1497294.53447   1189155.33347  24891453.5104   24891460.3464   24891454.908
        47.0004         43.0004
 20 11  6  0  4 30.0000000  0  9G05G06G29G07G12G09G19G02G25
 -19697889.23349 -15296200.10149  21144936.0064   21144937.8784   21144935.804
        58.0004         54.0004
 -15254736.05248 -11837487.44747  21942316.3304   21942322.2504   21942315.554
        52.0004         47.0004
  -4501776.12648  -3451570.34847  24041292.2504   24041294.8854   24041292.950
        50.0004         46.0004
  -1854563.40146  -1413472.76946  25322043.3744   25322043.6834   25322042.580
        41.0004         36.0004
    344621.24947    317697.70247  25005871.9744   25005875.3794   25005870.746
        47.0004         42.0004
 -11617615.01048  -9001448.36647  22858005.2544   22858009.3834   22858005.436
        49.0004         44.0004
  -2334376.92847  -1762821.82347  24184056.5424   24184058.7314   24184057.253
        46.0004         42.0004
 -20918244.79949 -16259718.85648  21135142.5084   21135142.8314   21135142.967
        56.0004         51.0004
   1553668.71247   1233083.19847  24902181.2244   24902187.4324   24902180.886
        47.0004         42.0004
 20 11  6  0  5  0.0000000  0  9G05G06G29G07G12G09G19G02G25
 -19749326.94749 -15336281.43449  21135147.7714   21135149.6664   21135147.764
        58.0004         54.0004
 -15190943.65948 -11787779.10747  21954455.2854   21954461.0314   21954454.979
        52.0004         47.0004
  -4595761.27748  -3524805.51447  24023407.5104   24023409.5304   24023407.836
        50.0004         46.0004
  -1916203.27846  -1461503.68546  25310312.3664   25310315.2194   25310311.996
        41.0004         36.0004
    432436.98647    386125.52547  25022581.7484   25022585.0544   25022580.724
        47.0004         42.0004
 -11547573.15548  -8946870.33247  22871332.8614   22871337.1624   22871333.576
        49.0004         44.0004
  -2214939.22247  -1669753.52946  24206784.5184   24206786.8894   24206784.669
        46.0004         41.0004
 -20936338.55349 -16273817.89348  21131699.2634   21131699.6984   21131699.851
        56.0004         51.0004
   1610420.80947   1277305.56847  24912979.7734   24912987.5854   24912980.306
        47.0004         42.0004
 20 11  6  0  5 30.0000000  0  9G05G06G29G07G12G09G19G02G25
 -19800414.94949 -15376090.26549  21125426.0254   21125428.0114   21125426.250
        59.0004         54.0004
 -15126859.12848 -11737843.12247  21966650.6824   21966655.7724   21966650.362
        52.0004         47.0004
  -4689439.79248  -3597801.74547  24005581.0184   24005582.3334   24005580.883
        50.0004         45.0004
  -1977613.25846  -1509355.54346  25298626.8994   25298629.0094   25298626.983
        41.0004         36.0004
    520376.77147    454650.00047  25039316.8894   25039318.5234   25039315.376
        46.0004         42.0004
 -11477089.45348  -8891948.00147  22884745.7214   22884751.1464   22884745.885
        49.0004         44.0004
  -2095395.07847  -1576602.30546  24229532.7144   24229536.0384   24229534.393
        46.0004         41.0004
 -20954131.17649 -16287682.28148  21128313.4024   21128313.8584   21128313.815
        56.0004         51.0004
   1667548.14847   1321820.33847  24923851.9704   24923859.5024   24923852.950
        47.0004         43.0004
 20 11  6  0  6  0.0000000  0  9G05G06G29G07G12G09G19G02G25
 -19851152.94549 -15415626.36149  21115770.8224   21115772.8964   21115770.758
        59.0004         54.0004
 -15062482.75948 -11687679.74947  21978900.8794   21978906.0234   21978900.202
        52.0004         47.0004
  -4782808.84848  -3670556.86047  23987813.8094   23987815.7374   23987811.836
        50.0004         45.0004
  -2038790.98546  -1557026.41246  25286983.9314   25286984.8914   25286984.590
        41.0004         36.0004
    608437.62247    523268.82147  25056073.6904   25056076.5284   25056074.339
        46.0004         42.0004
 -11406166.30548  -8836683.24447  22898241.9404   22898247.3884   22898241.467
        49.0004         44.0004
  -1975746.75947  -1483369.91346  24252301.5524   24252304.1294   24252302.754
        46.0004         41.0004
 -20971621.67949 -16301311.24948  21124985.1844   21124985.5664   21124985.853
        56.0004         51.0004
   1725048.02647   1366625.40047  24934794.0534   24934800.7714   24934793.234
        47.0004         43.0004
 20 11  6  0  6 30.0000000  0  9G05G06G29G07G12G09G19G02G25
 -19901540.60049 -15454889.46049  21106182.2974   21106184.6984   21106181.988
        59.0004         54.0004
 -14997814.97048 -11637289.28647  21991206.7214   21991211.6324   21991205.883
        52.0004         47.0004
  -4875866.11648  -3743069.00747  23970104.6984   23970106.6974   23970105.645
        50.0004         45.0004
  -2099733.83646  -1604514.26346  25275387.1714   25275390.9214   25275388.385
        41.0004         36.0004
    696616.37047    591979.50047  25072854.1884   25072855.6924   25072856.594
        46.0004         42.0004
 -11334806.09548  -8781077.92347  22911821.3194   22911826.6474   22911822.232
        49.0004         44.0004
  -1855997.01547  -1390058.48146  24275089.6784   24275091.3494   24275091.417
        46.0004         41.0004
 -20988808.78549 -16314703.80748  21121714.8184   21121714.9624   21121715.784
        56.0004         51.0004
   1782917.71148   1411718.61047  24945806.6664   24945812.5024   24945807.413
        48.0004         43.0004
 20 11  6  0  7  0.0000000  0  9G05G06G29G07G12G09G19G02G25
 -19951577.91249 -15493879.56849  21096660.8764   21096662.9084   21096660.523
        59.0004         54.0004
 -14932856.11448 -11586672.02947  22003567.7974   22003573.8214   22003567.533
        52.0004         47.0004
  -4968608.11148  -3815335.47947  23952456.3014   23952458.7804   23952455.225
        50.0004         46.0004
  -2160439.06446  -1651816.99746  25263835.5564   25263837.5744   25263834.799
        41.0004         37.0004
    784909.25747    660779.14546  25089655.6574   25089658.8564   25089655.903
        46.0004         41.0004
 -11263011.20848  -8725133.88547  22925484.5094   22925488.7374   22925484.065
        49.0004         44.0004
  -1736148.45047  -1296670.02946  24297895.7374   24297897.1384   24297896.341
        45.0004         40.0004
 -21005691.55549 -16327859.22148  21118501.7294   21118502.2294   21118502.516
        56.0004         51.0004
   1841154.47447   1457097.84847  24956888.5134   24956895.6764   24956886.361
        47.0004         42.0004
 20 11  6  0  7 30.0000000  0  9G05G06G29G07G12G09G19G02G25
 -20001264.37949 -15532596.28549  21087205.5624   21087207.5124   21087205.568
        59.0004         54.0004
 -14867606.53448 -11535828.22047  22015984.3544   22015990.0864   22015984.014
        52.0004         47.0004
  -5061032.31948  -3887354.35347  23934868.9754   23934871.5574   23934868.911
        50.0004         46.0004
  -2220904.32546  -1698932.78546  25252330.7684   25252333.6594   25252330.566
        41.0004         37.0004
    873313.89247    729665.84246  25106478.1464   25106481.3144   25106479.627
        46.0004         41.0004
 -11190784.00348  -8668852.97747  22939228.8814   22939233.1114   22939228.846
        49.0004         44.0004
  -1616203.74647  -1203206.64746  24320720.4964   24320723.4074   24320721.319
        44.0004         39.0004
 -21022268.69849 -16340776.48248  21115347.2994   21115347.5694   21115348.219
        56.0004         51.0004
   1899755.53447   1502760.95847  24968039.6514   24968046.9034   24968038.069
        47.0004         43.0004
 20 11  6  0  8  0.0000000  0  9G05G06G29G07G12G09G19G02G25
 -20050600.17949 -15571039.76449  21077817.3144   21077819.3134   21077816.799
        59.0004         54.0004
 -14802066.67348 -11484758.22947  22028456.4354   22028461.6294   22028455.510
        52.0004         47.0004
  -5153136.70848  -3959124.00547  23917341.6474   23917344.6734   23917342.793
        51.0004         46.0004
  -2281127.25246  -1745859.79346  25240870.2814   25240874.0324   25240870.450
        41.0004         36.0004
    961826.57247    798636.73047  25123320.5954   25123325.5384   25123322.414
        46.0004         42.0004
 -11118126.91448  -8612237.07747  22953054.5774   22953058.2574   22953055.356
        49.0004         44.0004
  -1496165.53147  -1109670.42646  24343563.2084   24343565.9234   24343563.478
        44.0004         39.0004
 -21038539.20149 -16353454.80548  21112251.0944   21112251.6664   21112251.729
        56.0004         51.0004
   1958718.20248   1548705.84347  24979259.9984   24979266.4304   24979259.823
        48.0004         43.0004
 20 11  6  0  8 30.0000000  0  9G05G06G29G07G12G09G19G02G25
 -20099584.61549 -15609209.44749  21068495.9344   21068497.8404   21068495.869
        59.0004         54.0004
 -14736236.86148 -11433462.28847  22040983.6954   22040988.6594   22040983.396
        52.0004         47.0004
  -5244917.33548  -4030641.37547  23899876.6624   23899879.5174   23899877.319
        50.0004         46.0004
  -2341104.83046  -1792595.63946  25229456.1484   25229457.4954   25229456.837
        41.0004         37.0004
   1050444.24747    867689.40446  25140183.6674   25140187.5694   25140183.665
        46.0004         41.0004
 -11045042.37048  -8555288.10347  22966962.0984   22966966.6884   22966962.324
        49.0004         44.0004
  -1376035.94347  -1016062.99246  24366423.1614   24366425.3644   24366423.653
        43.0004         38.0004
 -21054501.66649 -16365893.10148  21109213.6064   21109214.0234   21109214.056
        56.0004         51.0004
   2018039.74947   1594930.36447  24990548.6774   24990554.5954   24990551.205
        47.0004         42.0004
 20 11  6  0  9  0.0000000  0  9G05G06G29G07G12G09G19G02G25
 -20148217.42849 -15647105.13949  21059241.5124   21059243.3004   21059241.435
        59.0004         54.0004
 -14670117.51448 -11381940.73947  22053565.5614   22053570.8694   22053565.207
        52.0004         47.0004
  -5336371.64948  -4101904.48447  23882474.7994   23882476.5864   23882474.813
        51.0004         46.0004
  -2400834.49046  -1839138.32446  25218090.7854   25218092.3674   25218090.797
        41.0004         37.0004
   1139163.63647    936821.36647  25157067.4964   25157071.0224   25157069.457
        46.0004         42.0004
 -10971532.82148  -8498007.96247  22980951.4344   22980955.6724   22980950.385
        49.0004         44.0004
  -1255817.74247   -922386.54146  24389301.1074   24389301.6904   24389302.303
        42.0004         38.0004
 -21070155.06849 -16378090.56548  21106234.7714   21106235.5824   21106235.272
        56.0004         51.0004
   2077717.29147   1641432.28747  25001905.7354   25001912.0414   25001905.612
        47.0004         42.0004
 20 11  6  0  9 30.0000000  0  9G05G06G29G07G12G09G19G02G25
 -20196498.77349 -15684726.96049  21050054.0074   21050055.7404   21050053.529
        59.0004         54.0004
 -14603709.09048 -11330193.94347  22066203.1814   22066207.7224   22066202.327
        51.0004         47.0004
  -5427497.55148  -4172911.67647  23865133.7884   23865136.1634   23865133.200
        51.0004         46.0004
  -2460313.74346  -1885485.90646  25206772.9894   25206775.1504   25206771.078
        41.0004         37.0004
   1227981.75347   1006030.25647  25173970.2294   25173973.2834   25173971.638
        47.0004         42.0004
 -10897600.71048  -8440398.54647  22995019.5504   22995024.8324   22995019.508
        49.0004         44.0004
  -1135513.64047   -828643.13146  24412192.3604   24412195.4924   24412194.513
        43.0004         39.0004
 -21085498.34549 -16390046.37448  21103315.1174   21103315.8194   21103315.783
        56.0004         51.0004
   2137748.03547   1688209.44747  25013328.9434   25013335.0374   25013328.027
        47.0004         42.0004
 20 11  6  0 10  0.0000000  0  9G05G06G29G07G12G09G19G02G25
 -20244428.08849 -15722074.47149  21040932.8904   21040935.1154   21040932.590
        59.0004         54.0004
 -14537011.92848 -11278222.15247  22078893.7384   22078899.7294   22078893.638
        51.0004         46.0004
  -5518291.58848  -4243660.26847  23847855.7044   23847857.7274   23847856.729
        51.0004         46.0004
  -2519539.98446  -1931636.34746  25195501.4964   25195503.8104   25195500.508
        41.0004         37.0004
   1316895.26047   1075313.48147  25190890.4034   25190892.2524   25190891.554
        47.0004         42.0004
 -10823248.47048  -8382461.74947  23009168.6284   23009173.1344   23009168.566
        49.0004         44.0004
  -1015125.93647   -734834.57846  24435102.7134   24435104.8334   24435103.712
        44.0004         39.0004
 -21100530.18349 -16401759.50248  21100454.6824   21100455.2094   21100455.026
        56.0004         51.0004
   2198129.30247   1735259.70247  25024818.9914   25024824.5934   25024819.693
        47.0004         42.0004
 20 11  6  0 10 30.0000000  0  9G05G06G29G07G12G09G19G02G25
 -20292005.36649 -15759147.67149  21031879.6134   21031881.4184   21031878.964
        59.0004         54.0004
 -14470026.47748 -11226025.72347  22091640.9794   22091646.9324   22091640.046
        51.0004         46.0004
  -5608751.22148  -4314148.28547  23830641.1514   23830643.7054   23830641.588
        51.0004         46.0004
  -2578511.03747  -1977587.96046  25184279.5254   25184281.1544   25184279.405
        42.0004         37.0004
   1405900.97347   1144668.52347  25207827.2524   25207829.2764   25207827.981
        47.0004         42.0004
 -10748478.54548  -8324199.48447  23023396.5534   23023401.4564   23023396.375
        49.0004         44.0004
   -894657.15547   -640962.85846  24458026.1214   24458029.1844   24458028.576
        43.0004         38.0004
 -21115249.44549 -16413229.06748  21097653.7324   21097654.2574   21097654.567
        56.0004         51.0004
   2258858.24447   1782580.88447  25036374.9274   25036380.2294   25036376.285
        47.0004         42.0004
 20 11  6  0 11  0.0000000  0  9G05G06G29G07G12G09G19G02G25
 -20339230.33049 -15795946.34649  21022893.2004   21022895.0044   21022893.156
        59.0004         54.0004
 -14402753.10948 -11173604.94747  22104443.2184   22104448.6474   22104442.770
        51.0004         46.0004
  -5698873.99748  -4384373.83047  23813491.3294   23813493.5354   23813491.699
        51.0004         46.0004
  -2637223.75147  -2023338.25346  25173106.3124   25173110.3334   25173104.283
        42.0004         37.0004
   1494995.81147   1214093.04046  25224781.3104   25224783.8704   25224785.023
        46.0004         41.0004
 -10673293.36348  -8265613.63847  23037702.8064   23037708.3554   23037703.538
        48.0004         44.0004
   -774109.86147   -547029.94846  24480966.5064   24480967.8274   24480967.721
        43.0004         38.0004
 -21129655.04749 -16424454.21748  21094912.3524   21094913.0234   21094912.742
        56.0004         51.0004
   2319932.03747   1830170.84247  25047997.0694   25048002.2214   25047997.272
        47.0004         42.0004
 20 11  6  0 11 30.0000000  0  9G05G06G29G07G12G09G19G02G25
 -20386102.69749 -15832470.27349  21013973.4474   21013975.3104   21013973.372
        59.0004         54.0004
 -14335192.29648 -11120960.18247  22117300.0444   22117305.0094   22117299.591
        51.0004         47.0004
  -5788656.67248  -4454334.36247  23796406.3674   23796408.7034   23796405.765
        51.0004         46.0004
  -2695675.63046  -2068885.27746  25161983.9144   25161987.3784   25161982.348
        41.0004         37.0004
   1584176.58947   1283584.49246  25241752.9294   25241754.1454   25241755.020
        46.0004         41.0004
 -10597695.43948  -8206706.18747  23052088.4294   23052094.2744   23052088.329
        48.0004         43.0004
   -653486.71047   -453037.92446  24503920.2364   24503921.8424   24503921.075
        43.0004         39.0004
 -21143745.63149 -16435433.89848  21092231.1494   21092231.5204   21092231.519
        56.0004         52.0004
   2381347.94347   1878027.31046  25059684.9594   25059689.2644   25059683.249
        46.0004         41.0004
 20 11  6  0 12  0.0000000  0  9G05G06G29G07G12G09G19G02G25
 -20432622.28549 -15868719.30849  21005120.9864   21005122.5944   21005120.877
        59.0004         54.0004
 -14267344.50148 -11068091.80447  22130211.0904   22130215.7654   22130210.415
        51.0004         47.0004
  -5878096.56548  -4524027.77947  23779386.7584   23779389.0134   23779387.068
        51.0004         46.0004
  -2753864.38746  -2114227.21846  25150910.7274   25150914.4724   25150910.266
        41.0004         37.0004
   1673440.12947   1353140.44746  25258737.1004   25258741.4414   25258737.528
        46.0004         41.0004
 -10521687.27948  -8147479.07647  23066552.8154   23066557.7344   23066552.549
        48.0004         43.0004
   -532790.39747   -358988.90746  24526887.3434   24526889.1654   24526888.937
        44.0004         39.0004
 -21157520.15549 -16446167.29748  21089609.9814   21089610.4174   21089610.382
        56.0004         52.0004
   2443103.01547   1926148.09146  25071435.1014   25071441.5604   25071433.397
        46.0004         41.0004
 20 11  6  0 12 30.0000000  0  9G05G06G29G07G12G09G19G02G25
 -20478789.31449 -15904693.62949  20996335.7774   20996337.5184   20996335.663
        59.0004         54.0004
 -14199210.09448 -11015000.08747  22143176.7204   22143181.6314   22143176.506
        51.0004         47.0004
  -5967190.92348  -4593451.96747  23762432.8124   23762434.9664   23762432.552
        51.0004         46.0004
  -2811787.22446  -2159361.92846  25139889.3734   25139891.7184   25139889.239
        41.0004         37.0004
   1762783.29247   1422758.42746  25275739.2384   25275743.4824   25275738.834
        46.0004         41.0004
 -10445271.27148  -8087934.15347  23081094.8424   23081099.9834   23081095.166
        48.0004         44.0004
   -412023.12447   -264884.58746  24549869.5904   24549870.9124   24549870.314
        44.0004         40.0004
 -21170977.40849 -16456653.47248  21087049.1784   21087049.4834   21087050.037
        56.0004         52.0004
   2505194.47947   1974530.99146  25083251.6544   25083256.5834   25083249.999
        46.0004         41.0004
 20 11  6  0 13  0.0000000  0  8G05G06G29G07G09G19G02G25
 -20524602.98249 -15940392.59449  20987617.5244   20987619.6054   20987617.656
        59.0004         54.0004
 -14130789.58748 -10961685.44647  22156196.6394   22156201.3714   22156196.120
        51.0004         47.0004
  -6055936.97748  -4662604.74247  23745545.1904   23745547.1994   23745547.201
        51.0004         46.0004
  -2869441.65146  -2204287.45846  25128918.0464   25128921.9774   25128918.328
        41.0004         36.0004
 -10368450.01548  -8028073.45647  23095713.8054   23095717.6374   23095713.802
        48.0004         43.0004
   -291187.42847   -170726.95246  24572863.2584   24572865.3124   24572863.735
        44.0004         40.0004
 -21184116.47549 -16466891.70748  21084548.7614   21084549.3634   21084549.188
        56.0004         51.0004
   2567619.39947   2023173.73147  25095130.8814   25095136.4154   25095131.299
        46.0004         42.0004
 20 11  6  0 13 30.0000000  0  8G05G06G29G07G09G19G02G25
 -20570063.54649 -15975816.40949  20978966.8414   20978968.8234   20978966.656
        59.0004         54.0004
 -14062083.37448 -10908148.17447  22169271.5054   22169275.9014   22169271.725
        51.0004         47.0004
  -6144332.43048  -4731484.29947  23728723.9364   23728725.9234   23728725.103
        51.0004         47.0004
  -2926825.21346  -2249001.88646  25117997.9644   25117998.1104   25117999.651
        41.0004         37.0004
 -10291225.86448  -7967898.81947  23110409.1694   23110413.7334   23110409.436
        48.0004         43.0004
   -170286.11847    -76518.19846  24595870.2884   24595872.1064   24595871.599
        44.0004         39.0004
 -21196936.04049 -16476880.98248  21082108.9644   21082109.7284   21082109.761
        56.0004         51.0004
   2630375.10947   2072074.22647  25107072.9974   25107079.5734   25107072.981
        47.0004         43.0004
 20 11  6  0 14  0.0000000  0  8G05G06G29G07G09G19G02G25
 -20615170.50849 -16010964.69749  20970383.3484   20970385.3614   20970383.027
        59.0004         54.0004
 -13993091.93748 -10854388.64247  22182399.9604   22182405.0244   22182399.997
        51.0004         47.0004
  -6232373.76148  -4800087.91547  23711970.7304   23711972.8034   23711970.958
        52.0004         47.0004
  -2983935.59346  -2293503.40546  25107131.7234   25107132.7554   25107130.152
        41.0004         36.0004
 -10213601.43848  -7907412.27447  23125179.1694   23125185.3354   23125179.407
        48.0004         43.0004
    -49321.59747     17739.80046  24618888.9814   24618891.2434   24618888.869
        44.0004         39.0004
 -21209434.85449 -16486620.31948  21079730.8314   21079731.2754   21079731.456
        56.0004         52.0004
   2693458.57947   2121230.12347  25119077.7424   25119084.4794   25119078.272
        47.0004         42.0004
 20 11  6  0 14 30.0000000  0  8G05G06G29G07G09G19G02G25
 -20659923.78049 -16045837.38149  20961867.0914   20961868.9824   20961866.955
        59.0004         54.0004
 -13923815.72648 -10800407.20647  22195582.7354   22195587.6394   22195582.286
        51.0004         47.0004
  -6320058.83748  -4868413.93747  23695285.0734   23695286.5494   23695285.364
        52.0004         47.0004
  -3040770.26346  -2337790.06646  25096313.2684   25096318.4154   25096312.263
        41.0004         37.0004
 -10135579.11748  -7846615.69647  23140027.1714   23140033.1914   23140026.310
        48.0004         43.0004
     71703.48947    112044.98846  24641919.0134   24641920.6644   24641917.224
        43.0004         38.0004
 -21221612.01449 -16496109.01848  21077413.7814   21077414.0994   21077414.614
        56.0004         52.0004
   2756867.05347   2170639.26747  25131143.6694   25131149.6804   25131145.886
        47.0004         42.0004
 20 11  6  0 15  0.0000000  0  8G05G06G29G07G09G19G02G25
 -20704323.37649 -16080434.47349  20953417.9194   20953420.0534   20953418.088
        59.0004         54.0004
 -13854255.22048 -10746204.24747  22208819.4924   22208824.3794   22208819.300
        51.0004         47.0004
  -6407384.72948  -4936460.08747  23678666.8514   23678669.0314   23678666.426
        52.0004         47.0004
  -3097326.70846  -2381859.93646  25085551.6354   25085555.9394   25085554.419
        41.0004         36.0004
 -10057161.52048  -7785511.09947  23154950.6734   23154954.6134   23154951.273
        48.0004         43.0004
    192786.46147    206395.27846  24664960.2384   24664962.8594   24664961.317
        43.0004         38.0004
 -21233466.39949 -16505346.20248  21075157.7064   21075158.4734   21075158.290
        56.0004         52.0004
   2820597.69047   2220299.44147  25143271.7254   25143277.1854   25143272.594
        47.0004         42.0004
 20 11  6  0 15 30.0000000  0  9G05G06G29G07G12G09G19G02G25
 -20748369.15149 -16114755.85749  20945036.4704   20945038.4284   20945035.965
        59.0004         54.0004
 -13784410.97748 -10691780.19747  22222110.3764   22222115.5404   22222109.897
        51.0004         46.0004
  -6494348.40448  -5004223.99947  23662117.9604   23662120.2364   23662118.328
        51.0004         47.0004
  -3153602.48746  -2425711.07846  25074843.1914   25074846.1134   25074841.859
        41.0004         36.0004
                                                                  25378034.071

  -9978351.20748  -7724100.47647  23169947.6784   23169951.6514   23169947.842
        48.0004         43.0004
    313924.90047    300788.82846  24688012.3844   24688014.4064   24688013.164
        43.0004         38.0004
 -21244996.74049 -16514330.88548  21072963.6224   21072964.4434   21072964.188
        56.0004         52.0004
   2884647.45647   2270208.28746  25155459.6554   25155465.2394   25155460.721
        46.0004         41.0004
 20 11  6  0 16  0.0000000  0  9G05G06G29G07G12G09G19G02G25
 -20792060.96149 -16148801.41949  20936721.9384   20936724.0154   20936721.502
        59.0004         54.0004
 -13714283.38748 -10637135.35347  22235454.9994   22235460.6914   22235454.340
        51.0004         46.0004
  -6580947.68848  -5071703.95247  23645638.7664   23645641.1024   23645638.845
        51.0004         47.0004
  -3209595.07146  -2469341.59146  25064189.3804   25064189.3354   25064189.269
        41.0004         36.0004
    127258.95149     63800.67347  25395124.5584   25395126.4984   25395125.086
        55.0004         43.0004
  -9899150.59848  -7662385.72847  23185019.0714   23185023.3374   23185019.116
        48.0004         43.0004
    435116.73047    395223.97146  24711075.1054   24711077.6494   24711074.199
        42.0004         38.0004
 -21256201.98749 -16523062.25048  21070831.6454   21070831.8924   21070832.234
        56.0004         52.0004
   2949013.51347   2320363.59946  25167707.1954   25167714.5384   25167706.438
        46.0004         41.0004
 20 11  6  0 16 30.0000000  0  9G05G06G29G07G12G09G19G02G25
 -20835398.78449 -16182571.15049  20928475.2114   20928476.8794   20928474.969
        59.0004         54.0004
 -13643872.88948 -10582270.07347  22248853.6234   22248858.7724   22248853.456
        51.0004         46.0004
  -6667179.28748  -5138897.40147  23629228.9594   23629231.7124   23629228.890
        52.0004         47.0004
  -3265301.93246  -2512749.44746  25053586.3674   25053588.8234   25053586.000
        41.0004         36.0004
    217125.14048    133826.20647  25412224.0754   25412227.6354   25412224.612
        51.0004         43.0004
  -9819562.21448  -7600368.81047  23200164.4944   23200168.6764   23200163.956
        48.0004         43.0004
    556359.31547    489698.63546  24734145.2984   24734149.1474   24734146.094
        42.0004         37.0004
 -21267080.75449 -16531539.21548  21068761.4544   21068761.6744   21068761.933
        56.0004         52.0004
   3013693.11847   2370763.24147  25180015.8924   25180022.8554   25180015.741
        46.0004         42.0004
 20 11  6  0 17  0.0000000  0  9G05G06G29G07G12G09G19G02G25
 -20878382.35949 -16216064.83249  20920295.6764   20920297.6014   20920295.524
        59.0004         54.0004
 -13573180.13748 -10527184.84547  22262306.0954   22262311.3974   22262305.076
        51.0004         46.0004
  -6753040.59448  -5205802.29847  23612890.2924   23612892.6344   23612889.635
        52.0004         47.0004
  -3320720.35946  -2555932.57746  25043043.9744   25043045.6154   25043043.047
        41.0004         37.0004
    307042.53448    203891.64347  25429334.8214   25429338.1664   25429335.167
        48.0004         43.0004
  -9739588.70748  -7538051.80647  23215382.1844   23215386.8014   23215382.527
        48.0004         43.0004
    677649.69847    584210.55846  24757227.2864   24757229.8624   24757228.188
        42.0004         38.0004
 -21277632.29449 -16539761.20148  21066753.5884   21066753.9194   21066754.182
        56.0004         52.0004
   3078683.08247   2421404.70446  25192382.9164   25192389.8194   25192383.599
        46.0004         41.0004
 20 11  6  0 17 30.0000000  0  9G05G06G29G07G12G09G19G02G25
 -20921011.34749 -16249282.21249  20912183.3184   20912185.7174   20912183.472
        59.0004         55.0004
 -13502205.55348 -10471880.00047  22275812.0634   22275817.8504   22275812.034
        51.0004         46.0004
  -6838529.07948  -5272416.71647  23596623.2434   23596624.4224   23596623.752
        52.0004         47.0004
  -3375848.31546  -2598889.34546  25032551.2324   25032553.3684   25032549.356
        41.0004         36.0004
    397008.21348    273994.73947  25446453.9934   25446458.4024   25446453.971
        48.0004         42.0004
  -9659232.48848  -7475436.58247  23230673.5854   23230678.9554   23230674.338
        48.0004         43.0004
    798985.35747    678757.75746  24780316.3794   24780318.8854   24780316.207
        43.0004         38.0004
 -21287855.52549 -16547727.36148  21064808.0084   21064808.3274   21064808.796
        56.0004         52.0004
   3143980.72347   2472285.96246  25204809.1974   25204816.5204   25204808.042
        46.0004         41.0004
 20 11  6  0 18  0.0000000  0  9G05G06G29G07G12G09G19G02G25
 -20963285.49549 -16282223.09849  20904139.2074   20904141.3584   20904138.866
        59.0004         55.0004
 -13430949.61648 -10416355.92947  22289372.4084   22289377.0574   22289371.873
        51.0004         46.0004
  -6923642.04648  -5338738.49147  23580425.8594   23580428.1324   23580426.078
        52.0004         47.0004
  -3430683.11846  -2641617.74646  25022115.2094   25022120.5654   25022114.708
        41.0004         37.0004
    487018.89547    344132.89446  25463582.9254   25463585.5904   25463581.792
        46.0004         41.0004
  -9578496.15548  -7412525.15647  23246037.3024   23246041.6274   23246037.930
        48.0004         43.0004
    920364.07347    773338.51046  24803414.2014   24803417.9754   24803414.929
        43.0004         38.0004
 -21297749.17649 -16555436.70748  21062925.0514   21062926.0014   21062926.265
        56.0004         52.0004
   3209583.12447   2523404.69747  25217293.7894   25217300.0054   25217294.108
        46.0004         42.0004
 20 11  6  0 18 30.0000000  0  9G05G06G29G07G12G09G19G02G25
 -21005205.12349 -16314887.72949  20896162.1754   20896164.1404   20896162.286
        59.0004         55.0004
 -13359412.85748 -10360613.03647  22302984.8244   22302989.8774   22302984.753
        50.0004         46.0004
  -7008377.02548  -5404765.74647  23564301.2604   23564303.2564   23564302.277
        52.0004         47.0004
  -3485222.63446  -2684116.05746  25011737.3244   25011740.6274   25011737.581
        41.0004         37.0004
    577071.47747    414303.70246  25480718.9924   25480723.7054   25480717.233
        46.0004         41.0004
  -9497382.27448  -7349319.53347  23261473.6384   23261476.7994   23261474.055
        48.0004         43.0004
   1041783.25147    867950.78246  24826520.3244   24826522.0014   24826521.861
        43.0004         38.0004
 -21307311.78449 -16562888.09448  21061105.4494   21061106.1734   21061105.617
        56.0004         52.0004
   3275487.24047   2574758.44347  25229834.6884   25229840.1784   25229834.669
        46.0004         42.0004
 20 11  6  0 19  0.0000000  0 10G05G06G29G07G12G09G19G13G02G25
 -21046770.01149 -16347275.93949  20888252.4244   20888254.5614   20888252.448
        59.0004         54.0004
 -13287595.79348 -10304651.71847  22316650.6294   22316656.4054   22316651.257
        50.0004         46.0004
  -7092730.56148  -5470495.76547  23548249.3824   23548251.7894   23548248.881
        52.0004         47.0004
  -3539464.26146  -2726382.28346  25001415.5234   25001417.7684   25001415.069
        41.0004         36.0004
    667162.99847    484504.85546  25497862.3054   25497866.0994   25497861.071
        46.0004         41.0004
  -9415893.37948  -7285821.69647  23276980.3664   23276983.9734   23276980.423
        48.0004         43.0004
   1163240.37047    962592.62246  24849631.8964   24849634.4404   24849633.755
        43.0004         38.0004
   -282599.69048   -136937.04946  23960347.9684   23960350.4494   23960347.827
        51.0004         36.0004
 -21316542.55449 -16570080.91048  21059348.7114   21059349.3094   21059349.538
        56.0004         52.0004
   3341690.16447   2626345.08847  25242432.7764   25242440.1314   25242431.102
        46.0004         42.0004
 20 11  6  0 19 30.0000000  0 10G05G06G29G07G12G09G19G13G02G25
 -21087979.98349 -16379387.59149  20880410.2344   20880412.3454   20880410.210
        59.0004         54.0004
 -13215499.00848 -10248472.43247  22330370.6184   22330375.6044   22330369.612
        50.0004         46.0004
  -7176700.08048  -5535926.55547  23532270.5614   23532273.3634   23532270.188
        52.0004         47.0004
  -3593405.49046  -2768414.43246  24991150.8684   24991154.2434   24991152.784
        41.0004         37.0004
    757290.16147    554733.77246  25515013.7564   25515015.6104   25515015.577
        46.0004         41.0004
  -9334031.98748  -7222033.60847  23292556.3984   23292561.4744   23292556.209
        48.0004         43.0004
   1284732.98447   1057262.11946  24872751.8164   24872754.0374   24872751.292
        43.0004         38.0004
   -398714.09847   -227415.70346  23938251.9234   23938254.5194   23938251.826
        46.0004         36.0004
 -21325440.50549 -16577014.38648  21057655.6684   21057656.1084   21057656.837
        56.0004         52.0004
   3408189.00047   2678162.29846  25255085.2034   25255092.3694   25255084.045
        46.0004         41.0004
 20 11  6  0 20  0.0000000  0 10G05G06G29G07G12G09G19G13G02G25
 -21128834.91749 -16411222.59849  20872636.2134   20872638.0124   20872635.783
        59.0004         55.0004
 -13143122.99648 -10192075.56947  22344143.4594   22344149.1454   22344142.831
        50.0004         46.0004
  -7260283.23248  -5601056.29047  23516365.2234   23516367.3314   23516365.933
        52.0004         47.0004
  -3647043.74947  -2810210.51746  24980944.6014   24980947.5844   24980944.109
        42.0004         37.0004
    847450.38147    624988.42946  25532171.0674   25532173.9294   25532171.925
        45.0004         40.0004
  -9251800.78548  -7157957.36047  23308205.1844   23308210.0064   23308204.376
        48.0004         43.0004
   1406258.45847   1151957.21046  24895876.9694   24895880.4404   24895877.706
        43.0004         38.0004
   -514712.69547   -317804.16846  23916176.6754   23916181.3074   23916178.288
        43.0004         36.0004
 -21334004.50349 -16583687.64548  21056026.2734   21056026.4924   21056026.946
        56.0004         52.0004
   3474980.74347   2730207.73747  25267797.4724   25267803.9114   25267795.824
        46.0004         42.0004
 20 11  6  0 20 30.0000000  0 10G05G06G29G07G12G09G19G13G02G25
 -21169334.78749 -16442780.93249  20864929.4524   20864931.1934   20864929.514
        59.0004         55.0004
 -13070468.31248 -10135461.56647  22357969.1334   22357974.1484   22357968.790
        50.0004         46.0004
  -7343477.16148  -5665882.74047  23500533.8274   23500535.7804   23500534.675
        52.0004         47.0004
  -3700376.72647  -2851768.72346  24970796.4674   24970799.1204   24970796.095
        42.0004         37.0004
    937639.92747    695266.00946  25549334.5734   25549335.0344   25549335.928
        45.0004         40.0004
  -9169202.26948  -7093594.89647  23323922.6014   23323927.6514   23323922.922
        48.0004         43.0004
   1527814.57647   1246676.15546  24919009.0054   24919009.9364   24919009.637
        43.0004         38.0004
   -630592.87747   -408100.35446  23894126.3624   23894128.4764   23894126.014
        42.0004         37.0004
 -21342233.18049 -16590099.60848  21054460.0804   21054460.6854   21054460.793
        56.0004         52.0004
   3542062.57847   2782479.21147  25280562.6934   25280569.0504   25280562.978
        47.0004         42.0004
 20 11  6  0 21  0.0000000  0 10G05G06G29G07G12G09G19G13G02G25
 -21209479.30949 -16474062.36949  20857290.0844   20857291.9904   20857289.989
        59.0004         55.0004
 -12997535.55948 -10078630.90047  22371848.3904   22371853.3014   22371847.804
        50.0004         45.0004
  -7426279.50248  -5730404.03948  23484776.6564   23484779.3854   23484776.294
        52.0004         48.0004
  -3753402.24047  -2893087.34746  24960705.2674   24960707.7944   24960706.338
        42.0004         38.0004
   1027856.01647    765564.18846  25566500.8474   25566503.0664   25566501.238
        45.0004         40.0004
  -9086239.04947  -7028948.24747  23339710.2174   23339715.1874   23339708.608
        47.0004         43.0004
   1649398.46247   1341416.74346  24942146.6654   24942147.8674   24942147.764
        43.0004         38.0004
   -746351.87146   -498302.11546  23872097.2394   23872100.6394   23872097.297
        41.0004         37.0004
 -21350125.87849 -16596249.77148  21052958.3184   21052958.8884   21052958.947
        56.0004         52.0004
   3609431.31947   2834974.28847  25293382.4094   25293389.2324   25293384.201
        47.0004         42.0004
 20 11  6  0 21 30.0000000  0 11G05G06G29G07G30G12G09G19G13G02G25
 -21249268.67749 -16505067.06249  20849717.8424   20849720.2444   20849717.767
        59.0004         55.0004
 -12924325.20048 -10021583.91847  22385779.9184   22385784.2854   22385779.565
        50.0004         45.0004
  -7508686.96348  -5794617.63548  23469095.4294   23469098.4424   23469095.736
        52.0004         48.0004
  -3806117.75547  -2934164.41046  24950675.0994   24950676.6924   24950675.125
        42.0004         38.0004
   -211479.43848   -124068.69046  25191805.3164   25191812.2014   25191805.516
        48.0004         37.0004
   1118095.71747    835880.79646  25583674.3264   25583675.7534   25583673.716
        45.0004         40.0004
  -9002913.68947  -6964019.41847  23355566.0214   23355571.9494   23355566.405
        47.0004         43.0004
   1771007.55747   1436176.97446  24965287.7184   24965289.7044   24965287.965
        43.0004         39.0004
   -861987.23447   -588407.50546  23850094.0974   23850097.1114   23850093.937
        42.0004         38.0004
 -21357681.19349 -16602137.03948  21051520.7264   21051521.1564   21051521.533
        56.0004         52.0004
   3677084.23147   2887690.79747  25306256.2174   25306262.6324   25306257.729
        47.0004         42.0004
 20 11  6  0 22  0.0000000  0 11G05G06G29G07G30G12G09G19G13G02G25
 -21288702.70049 -16535794.86649  20842213.9894   20842216.2054   20842213.650
        59.0004         55.0004
 -12850837.78848  -9964321.04447  22399763.7504   22399768.7524   22399763.294
        50.0004         45.0004
  -7590697.02248  -5858521.57648  23453489.5114   23453492.4414   23453490.011
        53.0004         48.0004
  -3858520.88947  -2974998.04646  24940701.8834   24940703.5184   24940700.637
        43.0004         38.0004
   -290215.96247   -185421.61446  25176821.9784   25176828.5744   25176822.894
        44.0004         37.0004
   1208355.89147    906213.36846  25600849.4424   25600854.2264   25600849.502
        45.0004         40.0004
  -8919228.65347  -6898810.31847  23371491.7254   23371496.6384   23371491.736
        47.0004         43.0004
   1892639.81447   1530955.26746  24988432.6614   24988434.1364   24988433.716
        43.0004         39.0004
   -977495.96147   -678414.23446  23828113.7624   23828117.0724   23828113.470
        42.0004         38.0004
 -21364898.00949 -16607760.54248  21050147.1794   21050147.9274   21050147.608
        56.0004         52.0004
   3745018.27047   2940626.38746  25319183.2584   25319188.8634   25319183.827
        46.0004         41.0004
 20 11  6  0 22 30.0000000  0 11G05G06G29G07G30G12G09G19G13G02G25
 -21327781.43049 -16566245.81949  20834777.8154   20834779.9134   20834777.407
        59.0004         55.0004
 -12777073.97148  -9906842.79447  22413800.9254   22413805.9514   22413800.151
        50.0004         45.0004
  -7672307.18148  -5922113.91148  23437959.9244   23437961.8324   23437960.141
        53.0004         48.0004
  -3910609.20647  -3015586.37646  24930788.0774   24930793.7214   24930788.387
        43.0004         38.0004
   -368847.53947   -246692.76646  25161858.4684   25161864.7374   25161858.251
        42.0004         37.0004
   1298633.23147    976559.31946  25618027.7534   25618031.8174   25618029.320
        44.0004         39.0004
  -8835186.66447  -6833323.06347  23387484.0194   23387489.0424   23387483.975
        47.0004         43.0004
   2014292.30947   1625749.31946  25011582.7294   25011583.8954   25011583.627
        43.0004         38.0004
  -1092875.49247   -768320.31646  23806157.5224   23806159.6084   23806158.683
        42.0004         38.0004
 -21371775.31449 -16613119.48948  21048838.3374   21048839.1554   21048838.866
        56.0004         52.0004
   3813230.45847   2993778.66346  25332164.0544   25332171.1064   25332165.002
        46.0004         41.0004
 20 11  6  0 23  0.0000000  0 11G05G06G29G07G30G12G09G19G13G02G25
 -21366504.75249 -16596419.83549  20827409.0534   20827410.8034   20827408.768
        59.0004         55.0004
 -12703034.28748  -9849149.58047  22427890.2304   22427894.4464   22427889.631
        50.0004         45.0004
  -7753514.70748  -5985392.50448  23422506.7774   23422508.8414   23422506.693
        53.0004         48.0004
  -3962380.38047  -3055927.57646  24920937.8184   24920939.6484   24920937.522
        43.0004         39.0004
   -447371.41446   -307880.03446  25146916.9794   25146920.5124   25146914.655
        41.0004         36.0004
   1388925.25847   1046916.66046  25635209.3924   25635216.0774   25635210.985
        43.0004         38.0004
  -8750790.18947  -6767559.61547  23403544.8214   23403549.1904   23403545.016
        47.0004         43.0004
   2135962.92747   1720557.51746  25034735.2114   25034737.2974   25034736.559
        43.0004         38.0004
  -1208123.01747   -858123.51246  23784227.2784   23784229.0634   23784226.199
        42.0004         38.0004
 -21378312.11049 -16618213.10748  21047594.7134   21047595.0874   21047595.260
        56.0004         52.0004
   3881717.94557   3047145.44556  25345195.3635   25345203.5635   25345195.956
        45.0004         41.0004
 20 11  6  0 23 30.0000000  0 11G05G06G29G07G30G12G09G19G13G02G25
 -21404872.60049 -16626316.86049  20820107.7234   20820109.6884   20820107.619
        59.0004         55.0004
 -12628719.24548  -9791241.80947  22442031.5404   22442037.0764   22442031.217
        50.0004         45.0004
  -7834316.78148  -6048355.16048  23407130.5294   23407133.4124   23407129.637
        53.0004         48.0004
  -4013831.96847  -3096019.72046  24911148.2594   24911150.9404   24911147.249
        44.0004         39.0004
   -525784.63846   -368981.11245  25131995.9934   25131999.2414   25131994.538
        40.0004         35.0004
   1479228.30947   1117282.65746  25652393.6584   25652398.6834   25652393.363
        43.0004         38.0004
  -8666041.86047  -6701521.99547  23419671.8014   23419676.0064   23419671.126
        47.0004         43.0004
   2257648.99947   1815377.74946  25057891.7444   25057893.8274   25057892.517
        43.0004         38.0004
  -1323235.86147   -947821.77446  23762319.9634   23762323.6234   23762323.184
        43.0004         38.0004
 -21384507.28149 -16623040.51848  21046415.7434   21046416.4004   21046417.054
        56.0004         52.0004
   3950477.51447   3100724.26546  25358279.9284   25358287.8254   25358280.797
        46.0004         41.0004
 20 11  6  0 24  0.0000000  0 10G05G06G29G07G30G09G19G13G02G25
 -21442884.88649 -16655936.82749  20812874.4234   20812876.1254   20812873.939
        59.0004         55.0004
 -12554129.64648  -9733120.08047  22456225.1254   22456231.0524   22456224.944
        50.0004         45.0004
  -7914711.31248  -6111000.24748  23391831.6484   23391833.9094   23391831.110
        53.0004         48.0004
  -4064961.87347  -3135861.20846  24901417.5994   24901421.3764   24901417.635
        44.0004         39.0004
   -604084.48246   -429993.85845  25117093.0234   25117098.5924   25117094.138
        40.0004         35.0004
  -8580944.45547  -6635212.36247  23435864.8504   23435869.7954   23435865.286
        47.0004         42.0004
   2379348.08247   1910208.10746  25081049.0824   25081051.9444   25081051.588
        42.0004         37.0004
  -1438211.24447  -1037412.94146  23740442.8444   23740443.7604   23740442.786
        43.0004         38.0004
 -21390359.87549 -16627600.98648  21045301.7944   21045302.5004   21045302.548
        56.0004         52.0004
   4019506.28747   3154512.88146  25371417.2264   25371423.6254   25371417.930
        46.0004         41.0004
 20 11  6  0 24 30.0000000  0 10G05G06G29G07G30G09G19G13G02G25
 -21480541.52149 -16685279.66649  20805708.5594   20805710.3714   20805708.566
        59.0004         55.0004
 -12479265.88648  -9674784.72547  22470471.7464   22470476.8244   22470470.930
        50.0004         45.0004
  -7994695.08248  -6173325.26348  23376611.5624   23376613.4454   23376612.828
        53.0004         48.0004
  -4115767.37847  -3175449.91146  24891749.7054   24891752.6114   24891749.256
        44.0004         39.0004
   -682267.83046   -490915.84145  25102215.6054   25102221.7444   25102216.036
        40.0004         35.0004
  -8495500.28247  -6568632.49847  23452124.4954   23452128.3754   23452125.011
        47.0004         42.0004
   2501057.53346   2005046.53946  25104211.0434   25104213.7584   25104212.533
        41.0004         36.0004
  -1553046.41347  -1126894.83846  23718589.2364   23718591.9954   23718590.449
        43.0004         38.0004
 -21395868.62049 -16631893.52148  21044253.8414   21044254.4124   21044254.330
        56.0004         52.0004
   4088801.31147   3208508.93246  25384602.2084   25384609.1534   25384604.254
        46.0004         41.0004
 20 11  6  0 25  0.0000000  0 10G05G06G29G07G30G09G19G13G02G25
 -21517842.42249 -16714345.30449  20798610.2294   20798612.4764   20798610.299
        59.0004         55.0004
 -12404128.64448  -9616236.27247  22484769.8644   22484775.0964   22484768.855
        50.0004         45.0004
  -8074265.71148  -6235328.35848  23361469.4534   23361471.2974   23361469.411
        53.0004         48.0004
  -4166246.35247  -3214784.14246  24882143.5114   24882145.7954   24882144.190
        44.0004         39.0004
   -760331.90546   -551744.98345  25087361.6604   25087366.8174   25087361.353
        40.0004         35.0004
  -8409712.11347  -6501784.60347  23468449.5114   23468453.9834   23468449.309
        47.0004         42.0004
   2622775.27646   2099891.43146  25127374.5784   25127375.7054   25127374.861
        41.0004         36.0004
  -1667738.95047  -1216265.61046  23696764.7344   23696767.5454   23696764.434
        43.0004         39.0004
 -21401032.59349 -16635917.40548  21043271.2034   21043271.6924   21043271.772
        56.0004         52.0004
   4158359.47247   3262710.08746  25397840.2404   25397846.2544   25397840.569
        46.0004         41.0004
 20 11  6  0 25 30.0000000  0  9G05G06G29G07G30G09G19G13G02
 -21554788.10649 -16743134.15349  20791579.6654   20791582.1994   20791579.438
        59.0004         55.0004
 -12328718.40748  -9557475.09747  22499119.9204   22499125.5504   22499119.748
        50.0004         45.0004
  -8153420.35248  -6297007.29348  23346407.2364   23346409.1874   23346406.957
        53.0004         48.0004
  -4216396.46647  -3253862.07946  24872600.4284   24872603.8574   24872600.876
        44.0004         39.0004
   -838273.60246   -612478.72846  25072527.4274   25072535.3784   25072527.675
        40.0004         36.0004
  -8323582.38647  -6434670.56047  23484838.6994   23484844.1964   23484838.502
        47.0004         42.0004
   2744498.57746   2194740.69446  25150536.1174   25150540.2164   25150538.463
        41.0004         36.0004
  -1782286.07447  -1305523.06746  23674967.0564   23674969.9164   23674967.094
        44.0004         39.0004
 -21405850.62349 -16639671.71948  21042354.0474   21042354.7854   21042354.893
        56.0004         52.0004
 20 11  6  0 26  0.0000000  0 10G05G06G29G07G30G09G19G13G02G25
 -21591377.77849 -16771645.58449  20784616.8564   20784619.2754   20784616.656
        59.0004         55.0004
 -12253035.97848  -9498501.81947  22513522.2604   22513527.7874   22513521.477
        50.0004         45.0004
  -8232156.34048  -6358360.00948  23331423.7524   23331426.3694   23331424.223
        53.0004         48.0004
  -4266215.31947  -3292681.86946  24863119.7544   24863122.3634   24863119.796
        44.0004         39.0004
   -916090.36246   -673115.14446  25057720.7344   25057726.3294   25057721.818
        41.0004         36.0004
  -8237113.88747  -6367292.54847  23501293.7884   23501299.7894   23501293.790
        47.0004         42.0004
   2866224.90146   2289592.29246  25173699.7994   25173702.4744   25173702.019
        41.0004         36.0004
  -1896684.87447  -1394664.95246  23653197.6904   23653200.2444   23653197.561
        44.0004         39.0004
 -21410321.79949 -16643155.76248  21041503.3054   21041504.0894   21041503.710
        56.0004         52.0004
   4298253.97047   3371718.62246  25424461.2664   25424467.0954   25424460.525
        46.0004         41.0004
 20 11  6  0 26 30.0000000  0 10G05G06G29G07G30G09G19G13G02G25
 -21627611.54349 -16799879.68749  20777722.2084   20777724.1194   20777721.680
        59.0004         55.0004
 -12177081.85448  -9439316.82247  22527975.7034   22527981.8354   22527975.105
        50.0004         45.0004
  -8310471.04848  -6419384.45348  23316520.9544   23316523.8364   23316521.895
        53.0004         48.0004
  -4315700.61247  -3331241.72446  24853703.0744   24853705.8904   24853703.574
        44.0004         39.0004
   -993779.04246   -733651.78346  25042939.5734   25042944.8954   25042937.741
        41.0004         36.0004
  -8150309.11447  -6299652.50547  23517812.3274   23517818.4004   23517812.202
        47.0004         42.0004
   2987951.93546   2384444.44145  25196861.8474   25196866.7174   25196865.544
        40.0004         35.0004
  -2010932.50647  -1483689.06546  23631456.8484   23631459.7724   23631456.726
        44.0004         39.0004
 -21414445.07949 -16646368.71348  21040718.8774   21040719.3364   21040719.493
        56.0004         52.0004
   4368583.99247   3426521.19546  25437843.2494   25437850.3274   25437844.455
        45.0004         41.0004
 20 11  6  0 27  0.0000000  0 10G05G06G29G07G30G09G19G13G02G25
 -21663489.78149 -16827836.75549  20770894.7854   20770896.8084   20770894.484
        59.0004         55.0004
 -12100856.73348  -9379920.65647  22542480.6674   22542486.4584   22542479.659
        50.0004         45.0004
  -8388362.16948  -6480078.83448  23301699.1424   23301701.4214   23301699.470
        53.0004         48.0004
  -4364850.16347  -3369539.95346  24844351.1234   24844352.6464   24844350.201
        44.0004         39.0004
  -1071336.77146   -794086.37346  25028178.3594   25028183.7244   25028177.223
        41.0004         36.0004
  -8063170.75647  -6231752.51147  23534394.0224   23534399.5634   23534394.350
        47.0004         42.0004
   3109677.23446   2479295.23446  25220027.6524   25220029.3534   25220028.784
        40.0004         36.0004
  -2125026.27047  -1572593.27246  23609746.3014   23609748.2104   23609745.891
        44.0004         39.0004
 -21418219.44949 -16649309.79148  21040000.7454   21040001.1114   21040001.432
        56.0004         52.0004
   4439165.20647   3481519.50046  25451275.2374   25451281.8424   25451276.475
        46.0004         41.0004
 20 11  6  0 27 30.0000000  0 10G05G06G29G07G30G09G19G13G02G25
 -21699012.04949 -16855516.43949  20764135.2724   20764136.7944   20764135.349
        59.0004         55.0004
 -12024361.25848  -9320313.83047  22557037.0844   22557042.3154   22557037.040
        50.0004         45.0004
  -8465826.84948  -6540440.91248  23286958.0174   23286960.4524   23286958.528
        53.0004         49.0004
  -4413661.62847  -3407574.71346  24835061.2754   24835065.0814   24835061.333
        44.0004         39.0004
  -1148760.77247   -854416.78046  25013444.6324   25013450.4974   25013445.923
        42.0004         37.0004
  -7975701.36847  -6163594.56047  23551038.8174   23551043.9294   23551039.349
        47.0004         42.0004
   3231398.27546   2574142.74345  25243192.7724   25243191.6354   25243190.878
        40.0004         35.0004
  -2238963.66147  -1661375.65646  23588063.5354   23588066.4094   23588063.805
        44.0004         40.0004
 -21421643.70649 -16651978.04548  21039349.0994   21039349.6144   21039349.656
        56.0004         52.0004
   4509994.61947   3536711.16546  25464754.1234   25464760.4364   25464753.762
        46.0004         41.0004
 20 11  6  0 28  0.0000000  0 10G05G06G29G07G30G09G19G13G02G25
 -21734178.58149 -16882918.93149  20757443.0684   20757444.8704   20757442.938
        59.0004         55.0004
 -11947595.98948  -9260496.78547  22571645.3664   22571650.2644   22571645.090
        50.0004         45.0004
  -8542862.39848  -6600468.60548  23272298.4514   23272301.5304   23272297.672
        53.0004         49.0004
  -4462132.98947  -3445344.47646  24825836.8084   24825840.4094   24825837.928
        44.0004         39.0004
  -1226047.94246   -914640.53846  24998738.4024   24998742.7724   24998739.508
        41.0004         36.0004
  -7887903.56247  -6095180.71747  23567746.0024   23567750.8564   23567746.457
        47.0004         42.0004
   3353112.83346   2668985.19545  25266352.9944   25266354.4054   25266353.145
        40.0004         35.0004
  -2352742.09147  -1750034.16946  23566412.8884   23566414.7584   23566411.289
        44.0004         40.0004
 -21424716.97149 -16654372.81048  21038764.0824   21038764.8704   21038764.748
        56.0004         52.0004
   4581069.23447   3592093.92546  25478277.4564   25478285.9324   25478280.081
        45.0004         41.0004
 20 11  6  0 28 30.0000000  0 10G05G06G29G07G30G09G19G13G02G25
 -21768989.37149 -16910044.21949  20750818.6724   20750820.5314   20750818.532
        59.0004         55.0004
 -11870561.55948  -9200470.00147  22586304.9284   22586309.8024   22586303.719
        50.0004         45.0004
  -8619466.13048  -6660159.82348  23257720.7664   23257724.0904   23257719.945
        53.0004         48.0004
  -4510261.84847  -3482847.35246  24816679.2584   24816682.2134   24816679.506
        44.0004         39.0004
  -1303195.43846   -974755.48246  24984056.5934   24984063.9194   24984058.937
        41.0004         37.0004
  -7799779.85247  -6026512.91147  23584515.7654   23584520.0044   23584515.371
        47.0004         42.0004
   3474818.29146   2763820.57445  25289511.7554   25289511.7084   25289514.333
        39.0004         34.0004
  -2466358.34147  -1838566.33846  23544792.0254   23544793.8394   23544793.384
        44.0004         40.0004
 -21427438.17049 -16656493.22848  21038246.4734   21038246.8924   21038247.229
        56.0004         52.0004
   4652386.07847   3647665.46746  25491850.0614   25491857.0894   25491851.212
        45.0004         41.0004
 20 11  6  0 29  0.0000000  0 10G05G06G29G07G30G09G19G13G02G25
 -21803444.46449 -16936892.34349  20744262.0724   20744264.0274   20744261.910
        59.0004         55.0004
 -11793258.78148  -9140234.09747  22601015.1274   22601020.4744   22601014.385
        50.0004         45.0004
  -8695635.86448  -6719512.85948  23243226.4444   23243229.2784   23243225.888
        53.0004         49.0004
  -4558046.03347  -3520081.67946  24807586.4604   24807589.5274   24807585.246
        44.0004         39.0004
  -1380200.48846  -1034759.43746  24969404.2404   24969410.4094   24969402.196
        41.0004         37.0004
  -7711333.08247  -5957593.38247  23601346.2214   23601351.5294   23601346.490
        47.0004         42.0004
   3596512.01546   2858646.77745  25312669.3754   25312672.1544   25312671.042
        39.0004         34.0004
  -2579810.17747  -1926970.37046  23523202.0904   23523206.7574   23523202.298
        45.0004         40.0004
 -21429806.23649 -16658338.48448  21037795.8104   21037796.1564   21037796.688
        56.0004         52.0004
   4723942.00757   3703423.26456  25505466.1775   25505474.1145   25505466.330
        45.0004         40.0004
 20 11  6  0 29 30.0000000  0  9G05G06G29G07G30G09G13G02G25
 -21837543.64449 -16963463.13149  20737773.1364   20737775.3094   20737772.873
        59.0004         55.0004
 -11715688.13548  -9079789.47047  22615776.1294   22615782.3164   22615775.849
        50.0004         45.0004
  -8771369.00648  -6778525.68248  23228814.7594   23228817.2954   23228814.378
        53.0004         49.0004
  -4605483.14347  -3557045.57146  24798559.4524   24798561.1484   24798558.880
        44.0004         39.0004
  -1457059.74847  -1094649.78546  24954778.8934   24954782.9094   24954778.172
        42.0004         38.0004
  -7622565.63447  -5888423.99047  23618238.6914   23618242.8364   23618239.133
        47.0004         42.0004
  -2693094.51847  -2015243.87546  23501645.6674   23501648.5704   23501645.977
        45.0004         40.0004
 -21431820.18849 -16659907.80048  21037412.5084   21037413.0434   21037413.268
        56.0004         52.0004
   4795734.15247   3759365.10346  25519127.8384   25519136.3634   25519127.398
        45.0004         40.0004
 20 11  6  0 30  0.0000000  0  8G05G06G29G07G30G09G13G02
 -21871287.04149 -16989756.69049  20731352.2634   20731354.2244   20731352.127
        59.0004         55.0004
 -11637850.36148  -9019136.69247  22630588.5104   22630593.0014   22630588.459
        50.0004         45.0004
  -8846662.63848  -6837196.04548  23214487.5074   23214489.6164   23214487.784
        53.0004         49.0004
  -4652571.06847  -3593737.41046  24789598.9654   24789601.0744   24789598.555
        44.0004         40.0004
  -1533770.58647  -1154424.44446  24940180.4684   24940187.5194   24940180.432
        43.0004         38.0004
  -7533480.25347  -5819006.83147  23635191.1024   23635195.4594   23635190.890
        47.0004         42.0004
  -2806208.71047  -2103384.83346  23480121.2934   23480123.7914   23480121.245
        45.0004         41.0004
 -21433479.09349 -16661200.46148  21037096.8904   21037097.4334   21037097.069
        56.0004         52.0004
 20 11  6  0 30 30.0000000  0  8G05G06G29G07G30G09G13G02
 -21904674.64849 -17015773.01149  20724998.8724   20725000.8394   20724998.857
        59.0004         55.0004
 -11559746.15248  -8958276.30547  22645450.9954   22645456.2904   22645450.736
        50.0004         45.0004
  -8921514.76449  -6895522.36948  23200243.7424   23200246.0924   23200244.085
        54.0004         49.0004
  -4699307.46947  -3630155.35346  24780705.2824   24780707.1674   24780704.526
        44.0004         39.0004
  -1610330.04947  -1214081.09046  24925611.6924   24925618.3494   24925611.516
        43.0004         38.0004
  -7444079.51547  -5749343.95547  23652202.9804   23652208.6014   23652201.498
        46.0004         42.0004
  -2919150.05247  -2191391.08646  23458628.7394   23458631.4804   23458627.743
        45.0004         40.0004
 -21434782.02549 -16662215.74248  21036848.9294   21036849.4754   21036849.474
        56.0004         52.0004
 20 11  6  0 31  0.0000000  0  8G05G06G29G07G30G09G13G02
 -21937706.48149 -17041512.10749  20718712.9714   20718715.0884   20718712.777
        59.0004         55.0004
 -11481376.20148  -8897208.83847  22660364.0124   22660368.8874   22660363.204
        49.0004         44.0004
  -8995922.11149  -6953502.11448  23186084.8594   23186086.5734   23186085.332
        54.0004         49.0004
  -4745690.15347  -3666297.66546  24771878.8894   24771881.2274   24771879.532
        44.0004         39.0004
  -1686735.23547  -1273617.50646  24911072.1994   24911078.4224   24911073.164
        43.0004         38.0004
  -7354366.10747  -5679437.44147  23669275.2544   23669280.0384   23669275.044
        46.0004         42.0004
  -3031915.99447  -2279260.68346  23437170.6094   23437173.3514   23437170.856
        45.0004         41.0004
 -21435727.68949 -16662952.63248  21036669.3504   21036669.5224   21036670.157
        56.0004         52.0004
 20 11  6  0 31 30.0000000  0  8G05G06G29G07G30G09G13G02
 -21970382.73549 -17066974.13149  20712494.9254   20712496.9324   20712494.756
        59.0004         55.0004
 -11402741.16748  -8835934.81047  22675328.8414   22675333.8394   22675328.397
        49.0004         44.0004
  -9069882.21549  -7011133.36748  23172010.4384   23172012.6294   23172010.600
        54.0004         49.0004
  -4791717.21147  -3702162.89246  24763120.7844   24763122.8204   24763119.242
        44.0004         39.0004
  -1762983.23647  -1333031.44446  24896563.1444   24896570.2944   24896563.548
        43.0004         39.0004
  -7264342.56547  -5609289.25946  23686405.6404   23686411.4354   23686405.368
        46.0004         41.0004
  -3144503.60247  -2366991.30846  23415746.0904   23415748.1724   23415745.833
        45.0004         41.0004
 -21436315.33649 -16663410.54648  21036556.9404   21036557.6154   21036557.774
        56.0004         52.0004
 20 11  6  0 32  0.0000000  0  8G05G06G29G07G30G09G13G02
 -22002703.42449 -17092159.08849  20706344.2654   20706346.3374   20706343.853
        59.0004         55.0004
 -11323841.74848  -8774454.76847  22690342.1904   22690347.9194   22690340.907
        49.0004         45.0004
  -9143392.93549  -7068414.44648  23158021.9494   23158024.0094   23158021.698
        54.0004         49.0004
  -4837386.22347  -3737749.14046  24754429.0764   24754432.2734   24754428.415
        44.0004         39.0004
  -1839071.16947  -1392320.61746  24882082.4044   24882090.4244   24882082.507
        43.0004         38.0004
  -7174011.54647  -5538901.47746  23703594.5764   23703599.9764   23703594.297
        46.0004         41.0004
  -3256910.26947  -2454580.95846  23394355.2074   23394357.0874   23394355.474
        45.0004         41.0004
 -21436543.98949 -16663588.72848  21036513.6904   21036514.3254   21036514.253
        56.0004         52.0004
 20 11  6  0 32 30.0000000  0  8G05G06G29G07G30G09G13G02
 -22034668.49649 -17117066.94449  20700261.6374   20700263.7074   20700261.601
        59.0004         55.0004
 -11244678.65048  -8712769.26147  22705407.0274   22705412.3594   22705406.972
        49.0004         45.0004
  -9216451.69649  -7125343.34148  23144119.0784   23144120.8714   23144119.319
        54.0004         49.0004
  -4882695.13147  -3773054.81646  24745807.6124   24745810.9474   24745806.803
        44.0004         39.0004
  -1914996.16747  -1451482.86146  24867635.3494   24867641.0634   24867633.223
        43.0004         38.0004
  -7083375.67847  -5468276.15746  23720842.5154   23720848.9314   23720841.738
        46.0004         41.0004
  -3369133.22747  -2542027.45146  23373000.6974   23373002.5104   23372999.423
        45.0004         41.0004
 -21436412.57349 -16663486.33248  21036538.8834   21036539.1284   21036539.654
        56.0004         52.0004
 20 11  6  0 33  0.0000000  0  8G05G06G29G07G30G09G13G02
 -22066278.06449 -17141697.78649  20694246.5324   20694248.6534   20694246.480
        59.0004         55.0004
 -11165252.56348  -8650878.82647  22720520.9714   22720526.1304   22720520.881
        49.0004         44.0004
  -9289056.08049  -7181918.20048  23130302.6174   23130304.3004   23130303.218
        54.0004         49.0004
  -4927641.66447  -3808078.13846  24737254.4254   24737257.1104   24737255.649
        44.0004         39.0004
  -1990755.40147  -1510515.95346  24853219.2274   24853225.5954   24853219.644
        43.0004         38.0004
  -6992437.51147  -5397415.27746  23738148.1304   23738153.3154   23738148.493
        46.0004         41.0004
  -3481169.72647  -2629328.65446  23351680.7084   23351683.2694   23351680.994
        45.0004         41.0004
 -21435920.09349 -16663102.59148  21036632.4944   21036632.8604   21036633.079
        56.0004         52.0004
 20 11  6  0 33 30.0000000  0  8G05G06G29G07G30G09G13G02
 -22097532.14549 -17166051.62549  20688299.1544   20688301.0434   20688298.475
        59.0004         55.0004
 -11085564.21548  -8588784.03047  22735684.5254   22735690.5584   22735683.871
        49.0004         44.0004
  -9361203.06349  -7238136.61448  23116573.9524   23116575.7064   23116573.185
        54.0004         49.0004
  -4972223.86047  -3842817.57046  24728770.4984   24728772.5444   24728770.898
        44.0004         39.0004
  -2066345.75647  -1569417.43046  24838834.3234   24838840.8464   24838835.206
        43.0004         38.0004
  -6901199.77847  -5326320.96446  23755509.9214   23755515.0124   23755509.619
        46.0004         41.0004
  -3593016.98747  -2716482.37946  23330396.6944   23330397.8574   23330396.895
        46.0004         41.0004
 -21435065.81549 -16662436.93048  21036794.8884   21036795.4154   21036795.460
        56.0004         51.0004
 20 11  6  0 34  0.0000000  0  8G05G06G29G07G30G09G13G02
 -22128430.61549 -17190128.36349  20682419.6004   20682421.4004   20682419.275
        59.0004         55.0004
 -11005614.41248  -8526485.49747  22750898.3134   22750903.9774   22750898.457
        49.0004         44.0004
  -9432890.61049  -7293997.03148  23102932.2244   23102934.0774   23102932.421
        54.0004         49.0004
  -5016439.32647  -3877271.22646  24720355.6474   24720358.5774   24720355.632
        44.0004         39.0004
  -2141764.52847  -1628185.24146  24824483.2074   24824489.1744   24824482.699
        43.0004         38.0004
  -6809665.05747  -5254995.25446  23772928.0424   23772934.1484   23772927.769
        46.0004         41.0004
  -3704672.31547  -2803486.55946  23309148.3334   23309152.4284   23309149.154
        46.0004         41.0004
 -21433848.75449 -16661488.58448  21037026.3794   21037027.2374   21037027.152
        56.0004         51.0004
 20 11  6  0 34 30.0000000  0  8G05G06G29G07G30G09G13G02
 -22158973.54049 -17213928.04749  20676607.1294   20676609.4004   20676607.316
        59.0004         55.0004
 -10925403.66548  -8463983.63947  22766162.8374   22766167.5844   22766163.187
        49.0004         44.0004
  -9504115.80949  -7349497.19148  23089378.8014   23089380.4244   23089377.738
        54.0004         49.0004
  -5060285.72247  -3911437.32446  24712012.8454   24712015.2544   24712012.466
        44.0004         39.0004
  -2217008.57247  -1686816.87846  24810165.6934   24810169.4184   24810164.732
        43.0004         38.0004
  -6717835.86347  -5183440.08946  23790403.0694   23790408.1254   23790403.046
        46.0004         41.0004
  -3816133.02447  -2890339.06046  23287939.8664   23287941.9144   23287939.083
        45.0004         41.0004
 -21432267.78249 -16660256.66348  21037327.2074   21037327.9604   21037327.909
        56.0004         51.0004
 20 11  6  0 35  0.0000000  0  8G05G06G29G07G30G09G13G02
 -22189161.18849 -17237450.89449  20670862.4354   20670864.7434   20670862.192
        59.0004         55.0004
 -10844932.91548  -8401279.17847  22781476.1734   22781480.6124   22781476.041
        49.0004         44.0004
  -9574876.60149  -7404635.46848  23075912.8434   23075915.0804   23075912.913
        54.0004         49.0004
  -5103761.45747  -3945314.56246  24703739.0014   24703741.8094   24703738.805
        44.0004         39.0004
  -2292075.20147  -1745310.25746  24795878.9854   24795885.1064   24795878.811
        43.0004         38.0004
  -6625714.94547  -5111657.59846  23807933.5554   23807939.0614   23807932.257
        46.0004         41.0004
  -3927396.52847  -2977037.90846  23266766.0204   23266767.8434   23266766.153
        46.0004         41.0004
 -21430322.00449 -16658740.47648  21037697.4264   21037698.2594   21037698.434
        56.0004         52.0004
 20 11  6  0 35 30.0000000  0  8G05G06G29G07G30G09G13G02
 -22218993.33149 -17260696.72549  20665185.8244   20665188.0674   20665185.618
        59.0004         55.0004
 -10764202.76848  -8338372.59347  22796837.4414   22796843.5004   22796837.355
        49.0004         44.0004
  -9645170.30949  -7459409.79748  23062535.9874   23062539.1074   23062535.907
        54.0004         49.0004
  -5146864.10347  -3978901.11446  24695536.2974   24695539.3764   24695537.369
        44.0004         39.0004
  -2366961.41647  -1803663.09146  24781628.2754   24781635.3224   24781627.503
        43.0004         38.0004
  -6533304.81647  -5039649.75746  23825519.0054   23825522.9364   23825518.396
        46.0004         41.0004
  -4038460.20947  -3063581.04046  23245631.1674   23245634.5674   23245631.479
        46.0004         41.0004
 -21428010.46349 -16656939.28548  21038137.6164   21038138.2554   21038138.225
        56.0004         52.0004
 20 11  6  0 36  0.0000000  0  8G05G06G29G07G30G09G13G02
 -22248470.58149 -17283666.01249  20659576.4914   20659578.7074   20659576.442
        59.0004         55.0004
 -10683214.19648  -8275264.63047  22812249.3374   22812255.9434   22812248.396
        49.0004         44.0004
  -9714995.07249  -7513818.70548  23049248.9534   23049251.3094   23049248.733
        54.0004         49.0004
  -5189592.03747  -4012195.65046  24687406.7374   24687409.8294   24687407.360
        44.0004         39.0004
  -2441664.52947  -1861873.26146  24767413.2514   24767418.8844   24767414.054
        44.0004         39.0004
  -6440608.33547  -4967418.77546  23843157.5274   23843162.9804   23843157.829
        46.0004         41.0004
  -4149320.88647  -3149965.98846  23224536.0184   23224537.5134   23224536.188
        46.0004         41.0004
 -21425332.31049 -16654852.42048  21038647.4334   21038647.9574   21038648.070
        56.0004         52.0004
 20 11  6  0 36 30.0000000  0  8G05G06G29G07G30G09G13G02
 -22277592.43049 -17306358.36249  20654034.7444   20654036.7104   20654034.770
        59.0004         55.0004
 -10601967.70648  -8211955.69047  22827709.9224   22827715.7824   22827709.322
        49.0004         44.0004
  -9784347.71849  -7567859.73448  23036051.5444   23036054.1114   23036051.775
        54.0004         49.0004
  -5231942.72447  -4045196.21446  24679348.0944   24679350.3144   24679348.357
        44.0004         39.0004
  -2516181.34147  -1919938.24746  24753232.6104   24753239.0594   24753233.737
        44.0004         39.0004
  -6347627.85647  -4894966.51646  23860851.4814   23860855.5854   23860850.616
        45.0004         40.0004
  -4259976.09147  -3236190.82646  23203478.7864   23203482.0554   23203477.365
        46.0004         41.0004
 -21422286.38749 -16652478.98248  21039226.9254   21039227.3834   21039227.606
        56.0004         52.0004
 20 11  6  0 37  0.0000000  0  8G05G06G29G07G30G09G13G02
 -22306359.24349 -17328774.06449  20648560.9424   20648562.7934   20648560.958
        59.0004         55.0004
 -10520464.12548  -8148446.42547  22843219.7354   22843224.9094   22843218.768
        49.0004         44.0004
  -9853225.93949  -7621531.08048  23022945.1084   23022947.0694   23022945.779
        54.0004         49.0004
  -5273914.11647  -4077901.18446  24671361.0854   24671363.8844   24671361.227
        44.0004         39.0004
  -2590509.03347  -1977855.91446  24739088.4574   24739094.6094   24739088.980
        44.0004         39.0004
  -6254366.05347  -4822295.03046  23878598.7124   23878602.5864   23878598.653
        45.0004         41.0004
  -4370423.08347  -3322253.40646  23182462.0864   23182462.7784   23182461.366
        46.0004         41.0004
 -21418872.04549 -16649818.46648  21039876.4954   21039876.9914   21039877.000
        56.0004         51.0004
 20 11  6  0 37 30.0000000  0  8G05G06G29G07G30G09G13G02
 -22334770.98649 -17350913.08349  20643154.1094   20643156.0844   20643154.025
        59.0004         55.0004
 -10438704.34348  -8084737.52747  22858778.0354   22858784.0174   22858776.974
        49.0004         44.0004
  -9921627.38249  -7674830.91048  23009929.1354   23009931.0144   23009929.320
        54.0004         50.0004
  -5315504.25647  -4110309.07246  24663445.7694   24663449.3894   24663446.409
        44.0004         39.0004
  -2664644.85547  -2035624.09146  24724982.2674   24724987.0804   24724984.067
        44.0004         39.0004
  -6160825.66547  -4749406.45946  23896398.2794   23896402.8164   23896397.993
        45.0004         41.0004
  -4480659.38447  -3408151.82346  23161483.4844   23161486.1094   23161484.178
        46.0004         41.0004
 -21415088.52749 -16646870.28148  21040596.5264   21040596.9684   21040597.220
        56.0004         51.0004
 20 11  6  0 38  0.0000000  0  8G05G06G29G07G30G09G13G02
 -22362827.83049 -17372775.55249  20637815.0864   20637817.0814   20637814.918
        59.0004         55.0004
 -10356688.99748  -8020829.48147  22874385.3474   22874390.6424   22874385.647
        49.0004         44.0004
  -9989549.66649  -7727757.36048  22997003.6774   22997005.6804   22997004.018
        54.0004         50.0004
  -5356711.01847  -4142418.18846  24655605.8634   24655608.4184   24655606.536
        44.0004         39.0004
  -2738585.78847  -2093240.39246  24710910.9934   24710917.4024   24710910.388
        44.0004         39.0004
  -6067009.17547  -4676302.74546  23914251.1354   23914257.2184   23914251.000
        45.0004         40.0004
  -4590681.79447  -3493883.59346  23140548.0684   23140550.0214   23140547.418
        46.0004         41.0004
 -21410934.54949 -16643633.42748  21041387.1884   21041387.4574   21041387.794
        56.0004         51.0004
 20 11  6  0 38 30.0000000  0  8G05G06G29G07G30G09G13G02
 -22390529.94849 -17394361.61249  20632543.6044   20632545.6634   20632543.498
        60.0004         55.0004
 -10274418.88148  -7956722.92747  22890041.3154   22890046.7674   22890040.915
        49.0004         44.0004
 -10056990.75249  -7780308.84448  22984169.3704   22984172.0734   22984168.935
        54.0004         49.0004
  -5397532.50947  -4174227.08946  24647836.5334   24647839.5184   24647836.916
        44.0004         39.0004
  -2812328.87047  -2150702.53746  24696877.0714   24696884.1444   24696877.176
        43.0004         39.0004
  -5972919.19947  -4602985.94146  23932155.6334   23932161.2064   23932156.120
        45.0004         40.0004
  -4700487.84347  -3579446.76046  23119652.1954   23119655.0174   23119650.584
        46.0004         41.0004
 -21406409.40749 -16640107.35448  21042248.0814   21042248.4444   21042248.935
        56.0004         51.0004
 20 11  6  0 39  0.0000000  0  8G05G06G29G07G30G09G13G02
 -22417877.30949 -17415671.23149  20627339.3454   20627341.5914   20627339.341
        60.0004         55.0004
 -10191894.87548  -7892418.52347  22905744.0074   22905750.0254   22905745.018
        49.0004         44.0004
 -10123947.90949  -7832483.26948  22971427.6924   22971430.5874   22971427.279
        54.0004         49.0004
  -5437966.56447  -4205734.06646  24640142.6454   24640144.7804   24640143.244
        44.0004         39.0004
  -2885871.37847  -2208008.40346  24682883.3014   24682889.0364   24682882.737
        43.0004         38.0004
  -5878558.46647  -4529458.12446  23950111.6744   23950117.2904   23950111.249
        45.0004         40.0004
  -4810075.11047  -3664839.43246  23098797.1694   23098801.2934   23098797.655
        46.0004         41.0004
 -21401512.38449 -16636291.50348  21043180.0844   21043180.4834   21043180.457
        56.0004         51.0004
 20 11  6  0 39 30.0000000  0  8G05G06G29G07G30G09G13G02
 -22444869.91149 -17436704.41549  20622203.0094   20622205.0824   20622202.876
        60.0004         55.0004
 -10109117.68248  -7827916.84347  22921496.5744   22921502.3094   22921495.293
        49.0004         44.0004
 -10190418.34849  -7884278.41748  22958778.4474   22958781.5744   22958778.495
        54.0004         50.0004
  -5478011.29647  -4236937.65546  24632521.4834   24632525.5464   24632522.948
        44.0004         39.0004
  -2959210.22747  -2265155.56846  24668927.7094   24668933.8234   24668926.425
        43.0004         38.0004
  -5783929.47847  -4455721.29846  23968118.6974   23968124.8004   23968119.565
        45.0004         40.0004
  -4919440.65347  -3750059.34646  23077985.7534   23077988.6974   23077986.545
        45.0004         41.0004
 -21396242.41449 -16632185.04348  21044182.6874   21044183.2874   21044183.514
        56.0004         51.0004
 20 11  6  0 40  0.0000000  0  8G05G06G29G07G30G09G13G02
 -22471508.06849 -17457461.40849  20617133.7434   20617135.6864   20617133.664
        60.0004         55.0004
 -10026088.13748  -7763218.51647  22937296.0944   22937302.5374   22937295.401
        48.0004         44.0004
 -10256400.32049  -7935692.94648  22946222.6024   22946225.5814   22946222.078
        54.0004         50.0004
  -5517664.97147  -4267836.55946  24624977.8264   24624979.8044   24624977.622
        44.0004         40.0004
  -3032342.71047  -2322141.94146  24655010.3634   24655017.1404   24655009.546
        43.0004         38.0004
  -5689034.90347  -4381777.52546  23986177.5324   23986183.3284   23986178.205
        45.0004         40.0004
  -5028581.68647  -3835104.32446  23057217.4474   23057219.6314   23057217.665
        45.0004         41.0004
 -21390598.65549 -16627787.32348  21045256.9214   21045257.2744   21045257.520
        56.0004         51.0004
 20 11  6  0 40 30.0000000  0  8G05G06G29G07G30G09G13G02
 -22497791.93049 -17477942.32749  20612132.1514   20612134.1254   20612132.242
        60.0004         55.0004
  -9942807.08948  -7698324.22747  22953144.5144   22953149.5354   22953143.736
        48.0004         44.0004
 -10321891.57449  -7986725.09848  22933760.8434   22933762.8914   22933760.816
        54.0004         50.0004
  -5556925.54847  -4298429.15146  24617506.2124   24617508.6614   24617505.681
        44.0004         40.0004
  -3105265.77547  -2378965.13646  24641133.7214   24641139.4194   24641134.154
        43.0004         38.0004
  -5593877.37647  -4307628.85846  24004285.7414   24004290.9084   24004286.557
        45.0004         41.0004
  -5137495.82147  -3919972.51046  23036491.7344   23036494.1364   23036492.401
        45.0004         41.0004
 -21384580.17149 -16623097.60648  21046402.1484   21046402.8684   21046402.927
        56.0004         51.0004
 20 11  6  0 41  0.0000000  0  8G05G06G29G07G30G09G13G02
 -22523721.46949 -17498147.15449  20607197.8304   20607200.0544   20607197.643
        60.0004         55.0004
  -9859275.31948  -7633234.56247  22969040.0484   22969045.3204   22969038.973
        48.0004         44.0004
 -10386889.16349  -8037372.56548  22921392.1654   22921394.4924   22921391.474
        54.0004         50.0004
  -5595790.87047  -4328713.74546  24610109.0684   24610112.5414   24610108.931
        44.0004         40.0004
  -3177976.61647  -2435622.96546  24627297.9004   24627303.9474   24627297.793
        43.0004         38.0004
  -5498459.46747  -4233277.26946  24022443.9004   24022449.0654   24022444.160
        45.0004         41.0004
  -5246180.02447  -4004661.52246  23015809.7064   23015812.5524   23015809.485
        46.0004         41.0004
 -21378186.06749 -16618115.20248  21047619.0364   21047619.5354   21047619.714
        56.0004         51.0004
 20 11  6  0 41 30.0000000  0  8G05G06G29G07G30G09G13G02
 -22549296.56349 -17518075.78749  20602331.3564   20602333.4034   20602331.229
        60.0004         55.0004
  -9775493.62248  -7567950.15947  22984983.6924   22984989.1214   22984983.217
        48.0004         43.0004
 -10451391.34549  -8087634.00948  22909117.5104   22909120.3164   22909117.101
        54.0004         50.0004
  -5634259.02147  -4358688.87546  24602789.5664   24602792.1464   24602790.461
        45.0004         40.0004
  -3250472.42847  -2492113.19746  24613503.1694   24613508.2064   24613503.073
        43.0004         38.0004
  -5402783.73747  -4158724.80046  24040651.0494   24040656.6084   24040650.052
        45.0004         41.0004
  -5354631.54447  -4089169.23446  22995172.8604   22995174.6144   22995172.227
        46.0004         41.0004
 -21371415.50149 -16612839.44848  21048907.4164   21048908.0144   21048908.049
        56.0004         51.0004
 20 11  6  0 42  0.0000000  0  8G05G06G29G07G30G09G13G02
 -22574517.96549 -17537728.81849  20597531.6384   20597533.9274   20597531.449
        60.0004         55.0004
  -9691462.83248  -7502471.65047  23000973.8244   23000979.4524   23000973.267
        48.0004         43.0004
 -10515395.54749  -8137507.41348  22896937.7964   22896940.4504   22896938.413
        54.0004         50.0004
  -5672328.18547  -4388353.12546  24595544.1194   24595548.5414   24595544.392
        45.0004         40.0004
  -3322750.08847  -2548433.50146  24599747.2114   24599754.4944   24599747.784
        42.0004         37.0004
  -5306852.79847  -4083973.47646  24058906.0564   24058910.0824   24058906.073
        45.0004         40.0004
  -5462847.88547  -4173493.65246  22974579.9514   22974582.6144   22974579.748
        46.0004         41.0004
 -21364267.77649 -16607269.80448  21050267.4424   21050267.8984   21050268.017
        56.0004         51.0004
 20 11  6  0 42 30.0000000  0  8G05G06G29G07G30G09G13G02
 -22599385.42649 -17557106.05049  20592799.3724   20592801.6774   20592799.427
        60.0004         55.0004
  -9607183.83548  -7436799.73247  23017011.8614   23017017.2414   23017011.317
        48.0004         43.0004
 -10578899.71349  -8186991.18848  22884853.4234   22884855.8494   22884853.459
        54.0004         50.0004
  -5709996.47647  -4417705.01046  24588376.0374   24588381.0044   24588376.632
        44.0004         40.0004
  -3394806.96847  -2604581.72446  24586037.7244   24586041.7414   24586037.346
        42.0004         37.0004
  -5210669.36647  -4009025.39046  24077208.8674   24077213.5074   24077208.914
        45.0004         40.0004
  -5570826.43247  -4257632.77246  22954031.4424   22954035.3314   22954032.357
        46.0004         41.0004
 -21356742.21049 -16601405.73748  21051699.6074   21051700.1254   21051700.399
        56.0004         51.0004
 20 11  6  0 43  0.0000000  0  8G05G06G29G07G30G09G13G02
 -22623898.98649 -17576207.52149  20588134.8024   20588136.8004   20588134.644
        60.0004         55.0004
  -9522657.40048  -7370934.99647  23033096.1654   23033102.6484   23033095.769
        48.0004         43.0004
 -10641901.43349  -8236083.42748  22872864.2424   22872867.0384   22872864.230
        54.0004         50.0004
  -5747261.87247  -4446742.97646  24581286.2164   24581288.7224   24581286.543
        44.0004         40.0004
  -3466640.03747  -2660555.56446  24572365.9774   24572372.6744   24572366.059
        42.0004         37.0004
  -5114235.90147  -3933882.46646  24095559.2784   24095564.0094   24095559.267
        45.0004         40.0004
  -5678564.36347  -4341584.40046  22933529.8544   22933533.1204   22933530.907
        46.0004         41.0004
 -21348837.58349 -16595246.29948  21053203.9464   21053204.4714   21053204.644
        56.0004         51.0004
 20 11  6  0 43 30.0000000  0  8G05G06G29G07G30G09G13G02
 -22648058.85949 -17595033.39449  20583537.3354   20583539.3574   20583537.009
        60.0004         56.0004
  -9437884.41848  -7304878.15547  23049228.5314   23049233.9724   23049229.057
        48.0004         43.0004
 -10704398.01149  -8284782.07548  22860972.3354   22860974.4414   22860972.213
        54.0004         50.0004
  -5784122.58647  -4475465.60946  24574271.0694   24574274.0694   24574270.663
        44.0004         39.0004
  -3538246.48547  -2716352.81646  24558741.3454   24558747.6284   24558741.658
        42.0004         38.0004
  -5017555.05947  -3858546.79246  24113955.9714   24113961.8554   24113956.190
        45.0004         40.0004
  -5786059.13147  -4425346.52246  22913075.4524   22913077.5504   22913074.661
        46.0004         41.0004
 -21340553.54649 -16588791.21148  21054780.2114   21054780.5714   21054780.779
        56.0004         51.0004
 20 11  6  0 44  0.0000000  0  8G05G06G29G07G30G09G13G02
 -22671865.42649 -17613583.97049  20579007.1354   20579009.0274   20579007.013
        60.0004         56.0004
  -9352865.80848  -7238629.92047  23065407.1054   23065413.0324   23065407.337
        48.0004         43.0004
 -10766387.95249  -8333085.92948  22849176.2384   22849178.6694   22849175.959
        54.0004         50.0004
  -5820576.74747  -4503871.47046  24567334.4064   24567337.1244   24567333.656
        44.0004         39.0004
  -3609623.54147  -2771971.31546  24545158.8974   24545163.1084   24545157.731
        43.0004         38.0004
  -4920629.50347  -3783020.45746  24132400.2424   24132406.1874   24132399.977
        45.0004         40.0004
  -5893307.70747  -4508916.78647  22892666.6754   22892667.7554   22892665.570
        46.0004         42.0004
 -21331888.72649 -16582039.41648  21056428.9724   21056429.9054   21056429.693
        56.0004         51.0004
 20 11  6  0 44 30.0000000  0  8G05G06G29G07G30G09G13G02
 -22695318.67049 -17631859.22649  20574544.1814   20574546.0904   20574543.873
        60.0004         56.0004
  -9267602.31948  -7172190.87747  23081631.4654   23081637.2414   23081630.296
        48.0004         43.0004
 -10827868.55749  -8380992.89348  22837475.9794   22837479.1814   22837476.199
        54.0004         50.0004
  -5856622.32847  -4531958.96346  24560474.0794   24560476.6844   24560474.328
        43.0004         38.0004
  -3680768.15247  -2827408.69846  24531620.2794   24531625.1544   24531620.659
        42.0004         38.0004
  -4823461.69747  -3707305.34546  24150890.1354   24150895.7304   24150890.277
        45.0004         40.0004
  -6000307.71647  -4592293.35646  22872305.1884   22872307.1064   22872304.357
        46.0004         41.0004
 -21322842.59349 -16574990.49048  21058150.3064   21058151.1304   21058150.799
        56.0004         51.0004
 20 11  6  0 45  0.0000000  0  8G05G06G29G07G30G09G13G02
 -22718418.61549 -17649859.19349  20570148.4144   20570150.4344   20570148.194
        60.0004         56.0004
  -9182094.88347  -7105561.74147  23097903.3244   23097909.6014   23097902.578
        47.0004         43.0004
 -10888837.53449  -8428501.18848  22825874.0144   22825876.9894   22825874.215
        54.0004         50.0004
  -5892257.61447  -4559726.72746  24553692.2024   24553696.2884   24553691.382
        43.0004         39.0004
  -3751677.53247  -2882662.75546  24518127.0004   24518133.0864   24518127.705
        43.0004         39.0004
  -4726054.28847  -3631403.50746  24169426.3594   24169432.3524   24169426.847
        45.0004         40.0004
  -6107056.48247  -4675474.14646  22851989.5284   22851993.0564   22851990.307
        46.0004         41.0004
 -21313414.68349 -16567644.08048  21059944.6124   21059945.1604   21059945.248
        56.0004         51.0004
 20 11  6  0 45 30.0000000  0  8G05G06G29G07G30G09G13G02
 -22741165.43649 -17667583.99749  20565819.8754   20565821.8604   20565819.651
        60.0004         56.0004
  -9096344.30147  -7038743.14147  23114220.9494   23114227.3414   23114219.923
        47.0004         43.0004
 -10949292.76849  -8475609.16248  22814370.1804   22814372.9684   22814370.287
        54.0004         50.0004
  -5927480.48247  -4587173.15246  24546990.1714   24546993.7764   24546989.282
        44.0004         39.0004
  -3822348.76047  -2937731.23346  24504677.7734   24504684.1984   24504678.034
        44.0004         39.0004
  -4628409.82547  -3555316.94046  24188007.9144   24188012.0964   24188008.126
        44.0004         40.0004
  -6213551.05747  -4758456.86647  22831725.0554   22831726.9544   22831725.273
        46.0004         42.0004
 -21303603.87849 -16559999.30348  21061811.4914   21061812.1474   21061812.041
        56.0004         51.0004
 20 11  6  0 46  0.0000000  0  8G05G06G29G07G30G09G13G02
 -22763559.47049 -17685033.90949  20561558.4734   20561560.3894   20561558.223
        60.0004         56.0004
  -9010351.56948  -6971735.84847  23130585.0834   23130591.0234   23130583.973
        48.0004         43.0004
 -11009232.57349  -8522315.49648  22802964.4964   22802966.3334   22802964.605
        55.0004         50.0004
  -5962289.93047  -4614297.40346  24540366.0914   24540370.1334   24540365.193
        44.0004         40.0004
  -3892779.10447  -2992612.01546  24491276.0274   24491282.6644   24491275.354
        44.0004         39.0004
  -4530531.04747  -3479047.82546  24206632.9334   24206637.8404   24206634.304
        44.0004         39.0004
  -6319789.23547  -4841239.77947  22811508.7794   22811512.9364   22811508.477
        46.0004         42.0004
 -21293409.60949 -16552055.72748  21063751.7084   21063751.8604   21063752.154
        56.0004         51.0004
 20 11  6  0 46 30.0000000  0  8G05G06G29G07G30G09G13G02
 -22785600.69449 -17702208.90049  20557364.0114   20557366.0664   20557363.775
        60.0004         56.0004
  -8924117.47047  -6904540.46747  23146994.7944   23147000.6604   23146995.089
        47.0004         43.0004
 -11068654.15249  -8568618.02848  22791656.6614   22791658.3984   22791656.472
        55.0004         50.0004
  -5996683.34947  -4641097.50746  24533822.2704   24533825.4044   24533821.924
        45.0004         40.0004
  -3962965.55847  -3047302.75746  24477919.6014   24477925.6584   24477919.445
        44.0004         39.0004
  -4432420.32147  -3402597.95846  24225303.7204   24225309.2954   24225304.155
        44.0004         40.0004
  -6425767.99647  -4923820.54747  22791342.6904   22791345.2674   22791341.894
        47.0004         42.0004
 -21282830.74049 -16543812.46248  21065764.6244   21065765.1284   21065765.328
        56.0004         51.0004
 20 11  6  0 47  0.0000000  0  8G05G06G29G07G30G09G13G02
 -22807289.25949 -17719109.09349  20553236.5854   20553239.0324   20553236.453
        60.0004         56.0004
  -8837642.96847  -6837157.76247  23163450.7254   23163457.3484   23163449.728
        47.0004         43.0004
 -11127555.74349  -8614515.36648  22780447.5904   22780450.3174   22780447.518
        55.0004         50.0004
  -6030659.42147  -4667572.38646  24527357.3834   24527359.3804   24527357.145
        45.0004         41.0004
  -4032905.44747  -3101801.31946  24464610.6414   24464616.0664   24464611.715
        44.0004         40.0004
  -4334080.35047  -3325969.45146  24244018.7434   24244023.3904   24244018.309
        45.0004         40.0004
  -6531484.83047  -5006197.23347  22771224.7194   22771227.3354   22771224.469
        47.0004         42.0004
 -21271866.78349 -16535269.13148  21067850.7894   21067851.4544   21067851.405
        56.0004         51.0004
 20 11  6  0 47 30.0000000  0  8G05G06G29G07G30G09G13G02
 -22828625.18649 -17735734.49949  20549176.6514   20549178.9844   20549176.267
        60.0004         56.0004
  -8750928.96347  -6769588.43047  23179952.4664   23179957.2974   23179951.590
        47.0004         42.0004
 -11185934.65449  -8660005.43348  22769338.2184   22769340.7784   22769338.070
        55.0004         50.0004
  -6064215.96747  -4693720.33546  24520971.8094   24520973.6634   24520972.235
        45.0004         40.0004
  -4102595.79147  -3156105.44746  24451348.6314   24451354.9544   24451348.633
        44.0004         40.0004
  -4235513.71347  -3249164.30546  24262774.2284   24262778.8514   24262774.818
        45.0004         40.0004
  -6636936.90247  -5088367.61047  22751157.5894   22751160.2964   22751157.560
        47.0004         42.0004
 -21260516.84649 -16526425.03948  21070010.6024   21070011.2934   21070011.226
        56.0004         51.0004
 20 11  6  0 48  0.0000000  0  8G05G06G29G07G30G09G13G02
 -22849608.80649 -17752085.38049  20545183.6984   20545185.7164   20545183.835
        60.0004         56.0004
  -8663976.22547  -6701833.09747  23196498.2874   23196504.2074   23196497.145
        47.0004         42.0004
 -11243789.10149  -8705086.83148  22758329.0654   22758331.8294   22758328.502
        55.0004         50.0004
  -6097351.34247  -4719540.11146  24514665.6004   24514668.1504   24514666.235
        45.0004         40.0004
  -4172033.75947  -3210212.90146  24438134.8984   24438142.0464   24438136.431
        44.0004         40.0004
  -4136722.86847  -3172184.46446  24281572.5804   24281578.2984   24281573.509
        45.0004         40.0004
  -6742121.72047  -5170329.74747  22731141.3974   22731143.7774   22731142.123
        47.0004         42.0004
 -21248780.39449 -16517279.75848  21072244.2904   21072244.8394   21072244.638
        56.0004         51.0004
 20 11  6  0 48 30.0000000  0  8G05G06G29G07G30G09G13G02
 -22870240.58949 -17768162.10149  20541257.6884   20541259.4904   20541257.472
        60.0004         56.0004
  -8576786.00447  -6633892.68947  23213090.0474   23213095.6954   23213088.963
        47.0004         42.0004
 -11301117.04249  -8749757.96348  22747420.2304   22747422.6634   22747420.057
        55.0004         50.0004
  -6130064.25147  -4745030.67846  24508440.2724   24508442.5104   24508440.773
        45.0004         40.0004
  -4241216.70847  -3264121.65846  24424969.7654   24424974.9304   24424971.456
        45.0004         40.0004
  -4037710.57547  -3095032.08446  24300414.0704   24300419.0924   24300414.131
        44.0004         40.0004
  -6847037.00247  -5252081.86947  22711176.1914   22711179.5434   22711176.323
        47.0004         42.0004
 -21236656.79749 -16507832.81448  21074551.1864   21074551.9044   21074552.062
        55.0004         51.0004
 20 11  6  0 49  0.0000000  0  9G05G06G29G15G07G30G09G13G02
 -22890520.59049 -17783964.70349  20537398.5334   20537400.5354   20537398.369
        60.0004         56.0004
  -8489358.86947  -6565767.67147  23229726.5214   23229732.7814   23229725.067
        47.0004         42.0004
 -11357916.31649  -8794017.14548  22736611.7684   22736613.5284   22736610.790
        55.0004         50.0004
   -303703.87048   -179069.17347  25278839.1824   25278841.4994   25278838.998
        50.0004         43.0004
  -6162352.76847  -4770190.55346  24502296.4004   24502298.7904   24502296.485
        44.0004         40.0004
  -4310141.63747  -3317829.33446  24411854.4214   24411858.9524   24411854.038
        45.0004         40.0004
  -3938479.22747  -3017709.00546  24319297.8704   24319303.0974   24319297.083
        44.0004         40.0004
  -6951679.48747  -5333621.40847  22691264.4044   22691266.1754   22691264.298
        47.0004         42.0004
 -21224144.91949 -16498083.31248  21076932.1694   21076932.9684   21076932.645
        55.0004         51.0004
 20 11  6  0 49 30.0000000  0  9G05G06G29G15G07G30G09G13G02
 -22910449.01849 -17799493.35249  20533606.3524   20533608.1524   20533605.896
        60.0004         56.0004
  -8401695.92047  -6497458.92547  23246409.0194   23246414.5884   23246408.758
        47.0004         43.0004
 -11414184.71249  -8837862.64748  22725904.3814   22725906.0484   22725904.332
        55.0004         50.0004
   -423866.52248   -272702.41347  25255972.5164   25255975.0054   25255973.699
        48.0004         43.0004
  -6194214.96847  -4795018.20546  24496232.8094   24496235.5674   24496232.045
        44.0004         40.0004
  -4378805.74647  -3371333.78746  24398788.4674   24398793.5864   24398787.397
        45.0004         40.0004
  -3839031.44847  -2940217.28146  24338221.8274   24338227.1134   24338221.172
        45.0004         40.0004
  -7056046.84647  -5414946.57447  22671402.5074   22671406.5964   22671403.179
        47.0004         42.0004
 -21211244.43349 -16488031.00048  21079386.9094   21079387.4704   21079387.890
        55.0004         51.0004
 20 11  6  0 50  0.0000000  0  9G05G06G29G15G07G30G09G13G02
 -22930025.83449 -17814748.00849  20529880.8104   20529882.8524   20529880.813
        60.0004         56.0004
  -8313798.05547  -6428967.11747  23263134.7024   23263141.4804   23263133.914
        47.0004         43.0004
 -11469920.23849  -8881292.93248  22715298.6534   22715299.6494   22715299.389
        55.0004         50.0004
   -543990.74948   -366305.63147  25233113.4514   25233116.7754   25233113.351
        48.0004         43.0004
  -6225649.24747  -4819512.42746  24490250.3714   24490254.3194   24490249.807
        44.0004         40.0004
  -4447206.23347  -3424632.81346  24385770.3944   24385777.2544   24385768.774
        45.0004         40.0004
  -3739369.84147  -2862558.93046  24357186.4444   24357192.7194   24357185.433
        44.0004         40.0004
  -7160136.49447  -5496055.33647  22651596.3784   22651598.4714   22651596.142
        47.0004         43.0004
 -21197954.29049 -16477675.06148  21081915.9834   21081916.6074   21081916.680
        55.0004         51.0004
 20 11  6  0 50 30.0000000  0  9G05G06G29G15G07G30G09G13G02
 -22949251.17549 -17829728.79149  20526222.3984   20526224.1894   20526222.434
        60.0004         56.0004
  -8225666.20547  -6360292.99447  23279905.6404   23279912.2534   23279905.391
        47.0004         43.0004
 -11525121.16649  -8924306.65348  22704793.9644   22704795.9094   22704794.040
        55.0004         50.0004
   -664074.50748   -459877.26447  25210262.2664   25210265.4194   25210263.107
        48.0004         43.0004
  -6256654.11047  -4843672.02046  24484351.1714   24484353.8104   24484350.891
        44.0004         40.0004
  -4515340.25947  -3477724.22546  24372805.3544   24372811.1754   24372805.634
        45.0004         40.0004
  -3639496.89447  -2784735.90746  24376191.3644   24376197.8804   24376191.517
        44.0004         39.0004
  -7263945.61247  -5576945.52547  22631840.5754   22631843.2934   22631841.642
        47.0004         43.0004
 -21184274.01549 -16467015.12148  21084519.1784   21084519.8424   21084519.772
        55.0004         51.0004
 20 11  6  0 51  0.0000000  0  9G05G06G29G15G07G30G09G13G02
 -22968125.32149 -17844435.91149  20522630.6174   20522632.6694   20522630.345
        60.0004         56.0004
  -8137301.34447  -6291437.29347  23296721.3414   23296727.6684   23296721.713
        47.0004         42.0004
 -11579785.14449  -8966901.97048  22694391.6094   22694393.5634   22694391.294
        55.0004         50.0004
   -784115.96148   -553415.90647  25187419.2114   25187422.0754   25187418.400
        48.0004         43.0004
  -6287227.59147  -4867495.50146  24478533.7994   24478535.7084   24478533.479
        45.0004         40.0004
  -4583205.09447  -3530605.84146  24359890.6614   24359897.3374   24359891.667
        45.0004         40.0004
  -3539415.19547  -2706750.21846  24395238.3344   24395243.0274   24395236.960
        44.0004         40.0004
  -7367471.77248  -5657615.23047  22612142.5674   22612144.5424   22612140.519
        48.0004         43.0004
 -21170202.92649 -16456050.65148  21087197.0684   21087197.5084   21087197.896
        55.0004         51.0004
 20 11  6  0 51 30.0000000  0  9G05G06G29G15G07G30G09G13G02
 -22986648.47949 -17858869.52449  20519105.8334   20519108.0684   20519105.483
        60.0004         56.0004
  -8048704.37147  -6222400.73947  23313581.4354   23313586.5404   23313580.269
        47.0004         42.0004
 -11633910.12949  -9009077.29948  22684091.9524   22684094.3884   22684091.688
        55.0004         50.0004
   -904112.89148   -646919.84247  25164584.8944   25164587.9354   25164585.577
        48.0004         43.0004
  -6317368.12347  -4890981.60046  24472797.7974   24472800.3324   24472797.175
        45.0004         40.0004
  -4650797.79347  -3583275.41346  24347028.2594   24347034.1074   24347029.359
        44.0004         40.0004
  -3439127.19147  -2628603.76146  24414322.7464   24414326.7114   24414323.424
        44.0004         40.0004
  -7470712.12148  -5738062.24447  22592494.7624   22592498.3274   22592495.195
        48.0004         43.0004
 -21155740.50349 -16444781.24448  21089949.0394   21089949.7384   21089949.549
        55.0004         51.0004
 20 11  6  0 52  0.0000000  0  9G05G06G29G15G07G30G09G13G02
 -23004821.16049 -17873030.03949  20515647.8164   20515649.7244   20515647.414
        60.0004         56.0004
  -7959876.29547  -6153184.08747  23330484.8044   23330489.2924   23330484.026
        47.0004         42.0004
 -11687494.29849  -9050831.19848  22673895.0224   22673897.3354   22673895.322
        55.0004         50.0004
  -1024063.49048   -740387.67347  25141758.7374   25141761.2114   25141757.540
        48.0004         43.0004
  -6347074.45647  -4914129.38246  24467144.0904   24467147.7024   24467143.389
        45.0004         40.0004
  -4718115.66247  -3635730.84446  24334219.4814   24334224.2414   24334218.986
        45.0004         40.0004
  -3338635.56047  -2550298.64046  24433446.2034   24433449.3994   24433447.004
        44.0004         40.0004
  -7573664.11848  -5818284.55047  22572903.2214   22572907.3684   22572903.645
        48.0004         43.0004
 -21140886.04949 -16433206.35948  21092775.8514   21092776.5174   21092776.395
        55.0004         51.0004
 20 11  6  0 52 30.0000000  0  9G05G06G29G15G07G30G09G13G02
 -23022642.91749 -17886917.10449  20512256.3754   20512258.4014   20512256.442
        60.0004         56.0004
  -7870818.00747  -6083788.05047  23347431.5564   23347438.0504   23347430.852
        47.0004         42.0004
 -11740535.40349  -9092161.93648  22663802.0744   22663804.0674   22663802.071
        55.0004         50.0004
  -1143965.40148   -833817.59347  25118942.2294   25118945.2964   25118942.890
        48.0004         43.0004
  -6376344.61747  -4936937.26046  24461574.5724   24461578.3674   24461574.483
        45.0004         41.0004
  -4785155.87047  -3687969.90046  24321461.2224   24321467.9494   24321461.470
        45.0004         40.0004
  -3237942.64647  -2471836.66846  24452606.7384   24452611.0904   24452607.732
        44.0004         39.0004
  -7676325.27848  -5898280.24447  22553368.5154   22553370.8994   22553367.628
        48.0004         43.0004
 -21125638.54049 -16421325.19748  21095677.5864   21095677.9874   21095678.073
        55.0004         51.0004
 20 11  6  0 53  0.0000000  0  9G05G06G29G15G07G30G09G13G02
 -23040114.58049 -17900531.37549  20508931.7074   20508933.6284   20508931.580
        60.0004         56.0004
  -7781530.59547  -6014213.47547  23364422.8794   23364427.6704   23364423.134
        47.0004         42.0004
 -11793031.81449  -9133068.23648  22653812.2834   22653813.9754   22653812.207
        55.0004         50.0004
  -1263816.71647   -927208.08847  25096133.5894   25096137.8844   25096133.569
        47.0004         42.0004
  -6405177.20647  -4959404.19346  24456087.9504   24456091.1634   24456086.595
        45.0004         40.0004
  -4851915.64047  -3739990.44946  24308757.1554   24308762.6414   24308756.765
        44.0004         39.0004
  -3137051.23147  -2393220.02946  24471806.1834   24471811.3774   24471805.915
        44.0004         39.0004
  -7778692.85948  -5978047.18247  22533889.3474   22533890.4814   22533888.664
        48.0004         43.0004
 -21109997.54349 -16409137.42048  21098653.7454   21098654.2064   21098654.405
        55.0004         51.0004
 20 11  6  0 53 30.0000000  0  9G05G06G29G15G07G30G09G13G02
 -23057236.01849 -17913872.74249  20505673.3324   20505675.3304   20505672.972
        60.0004         56.0004
  -7692015.03047  -5944461.11647  23381456.3214   23381462.9794   23381455.415
        47.0004         42.0004
 -11844981.40049  -9173548.43748  22643926.3024   22643929.0044   22643926.550
        55.0004         50.0004
  -1383615.35547  -1020557.56447  25073337.2984   25073341.0614   25073336.451
        47.0004         42.0004
  -6433570.57947  -4981528.87846  24450684.4134   24450688.6634   24450683.608
        45.0004         40.0004
  -4918392.21847  -3791790.30346  24296105.7464   24296112.3054   24296106.168
        44.0004         39.0004
  -3035963.67047  -2314450.53746  24491042.2784   24491048.7684   24491042.223
        44.0004         39.0004
  -7880764.36248  -6057583.43247  22514464.9234   22514466.9654   22514465.331
        48.0004         43.0004
 -21093962.40449 -16396642.52848  21101705.0614   21101705.4784   21101705.758
        55.0004         51.0004
 20 11  6  0 54  0.0000000  0  9G05G06G29G15G07G30G09G13G02
 -23074007.34849 -17926941.30349  20502482.2144   20502483.7654   20502482.072
        60.0004         56.0004
  -7602272.24247  -5874531.72247  23398534.2074   23398540.4174   23398533.510
        47.0004         42.0004
 -11896382.60049  -9213601.32348  22634145.0704   22634147.6184   22634145.288
        55.0004         50.0004
  -1503359.26147  -1113864.42947  25050550.6074   25050553.7324   25050552.478
        47.0004         42.0004
  -6461523.16347  -5003310.09946  24445364.9724   24445368.7294   24445363.914
        45.0004         40.0004
  -4984582.85047  -3843367.35746  24283511.8504   24283516.3374   24283511.796
        44.0004         39.0004
  -2934682.58647  -2235530.25046  24510314.9734   24510320.8594   24510314.895
        44.0004         39.0004
  -7982537.04348  -6136886.81447  22495097.8544   22495100.5784   22495097.845
        48.0004         43.0004
 -21077532.73349 -16383840.19948  21104831.4114   21104832.1174   21104832.391
        55.0004         51.0004
 20 11  6  0 54 30.0000000  0  9G05G06G29G15G07G30G09G13G02
 -23090429.05749 -17939737.43249  20499357.0944   20499359.0144   20499357.169
        60.0004         56.0004
  -7512303.21547  -5804426.02047  23415655.2004   23415660.4124   23415655.478
        47.0004         42.0004
 -11947232.90749  -9253224.94648  22624468.5894   22624470.8774   22624468.672
        55.0004         50.0004
  -1623046.23547  -1207126.94147  25027774.4994   25027778.4664   25027775.785
        47.0004         42.0004
  -6489033.55847  -5024746.75846  24440130.5754   24440133.5024   24440130.029
        45.0004         40.0004
  -5050484.71247  -3894719.41846  24270969.9614   24270976.3954   24270971.834
        44.0004         39.0004
  -2833210.44647  -2156461.07246  24529624.1544   24529631.0574   24529624.529
        44.0004         40.0004
  -8084008.36748  -6215955.38647  22475789.1384   22475791.6584   22475788.899
        48.0004         43.0004
 -21060707.77849 -16370729.86048  21108033.3234   21108033.8584   21108033.628
        55.0004         50.0004
 20 11  6  0 55  0.0000000  0  9G05G06G29G15G07G30G09G13G02
 -23106501.37749 -17952261.31349  20496298.6194   20496300.7934   20496298.602
        60.0004         56.0004
  -7422108.94247  -5734144.81847  23432818.1594   23432824.2924   23432817.315
        47.0004         42.0004
 -11997530.90549  -9292418.19048  22614897.2554   22614899.8704   22614897.136
        55.0004         51.0004
  -1742674.06447  -1300343.37647  25005010.1084   25005014.0584   25005009.735
        47.0004         42.0004
  -6516099.94747  -5045837.43146  24434979.5304   24434983.0744   24434978.994
        44.0004         40.0004
  -5116094.98947  -3945844.28046  24258485.8304   24258490.1954   24258484.851
        44.0004         39.0004
  -2731549.70147  -2077244.95746  24548968.5474   24548975.4684   24548967.569
        44.0004         39.0004
  -8185175.78348  -6294787.16047  22456537.1934   22456540.3564   22456537.225
        48.0004         43.0004
 -21043486.45749 -16357310.66048  21111310.3524   21111310.8404   21111310.673
        55.0004         50.0004
 20 11  6  0 55 30.0000000  0  9G05G06G29G15G07G30G09G13G02
 -23122224.55349 -17964513.13549  20493306.5264   20493308.7724   20493305.957
        60.0004         56.0004
  -7331690.48347  -5663688.91347  23450022.5704   23450030.2084   23450021.369
        46.0004         42.0004
 -12047274.57549  -9331179.49448  22605431.3134   22605433.5074   22605431.470
        55.0004         50.0004
  -1862240.73247  -1393512.20247  24982257.4574   24982261.2804   24982256.769
        47.0004         42.0004
  -6542721.09547  -5066581.17246  24429913.8974   24429916.2334   24429912.030
        44.0004         40.0004
  -5181411.07847  -3996739.90246  24246056.1614   24246061.6984   24246056.311
        44.0004         39.0004
  -2629702.96747  -1997883.91246  24568349.5114   24568356.7244   24568348.563
        44.0004         39.0004
  -8286036.79648  -6373380.16747  22437344.5124   22437346.3004   22437344.275
        48.0004         43.0004
 -21025868.96149 -16343582.75548  21114662.8224   21114663.5194   21114663.552
        55.0004         50.0004
 20 11  6  0 56  0.0000000  0  9G05G06G29G15G07G30G09G13G02
 -23137598.58649 -17976492.90349  20490381.0904   20490383.0734   20490380.841
        60.0004         56.0004
  -7241048.81147  -5593059.07746  23467272.8144   23467278.3894   23467271.751
        46.0004         41.0004
 -12096461.78849  -9369507.20848  22596071.6844   22596073.8134   22596071.692
        55.0004         50.0004
  -1981744.30547  -1486631.88547  24959516.7834   24959521.3174   24959514.917
        47.0004         43.0004
  -6568895.17347  -5086976.56146  24424933.5044   24424935.1814   24424933.115
        44.0004         40.0004
  -5246430.10947  -4047404.06646  24233682.6834   24233689.2134   24233681.659
        44.0004         39.0004
  -2527672.76047  -1918379.89146  24587764.7404   24587772.5554   24587765.181
        44.0004         39.0004
  -8386588.79748  -6451732.40547  22418209.7314   22418212.1444   22418209.724
        48.0004         43.0004
 -21007854.40649 -16329545.45348  21118090.8644   21118091.5424   21118091.695
        55.0004         50.0004
 20 11  6  0 56 30.0000000  0  9G05G06G29G15G07G30G09G13G02
 -23152623.66149 -17988200.75949  20487521.7654   20487523.7834   20487521.787
        60.0004         56.0004
  -7150184.93947  -5522256.10246  23484563.3164   23484569.0934   23484562.711
        46.0004         41.0004
 -12145091.05149  -9407400.13948  22586817.4084   22586819.9714   22586817.193
        55.0004         50.0004
  -2101182.55447  -1579700.66147  24936788.9954   24936792.3414   24936789.881
        47.0004         43.0004
  -6594620.71547  -5107022.41946  24420038.6224   24420041.8774   24420038.858
        45.0004         41.0004
  -5311149.37347  -4097834.67746  24221365.6004   24221372.9974   24221366.673
        44.0004         39.0004
  -2425461.43247  -1838734.74946  24607215.8644   24607222.3264   24607215.267
        44.0004         39.0004
  -8486829.10048  -6529841.76947  22399134.7804   22399136.7874   22399133.976
        48.0004         43.0004
 -20989442.24149 -16315198.32148  21121594.7344   21121595.2754   21121595.279
        55.0004         50.0004
 20 11  6  0 57  0.0000000  0  9G05G06G29G15G07G30G09G13G02
 -23167300.19849 -17999637.02449  20484728.8684   20484731.1004   20484728.634
        60.0004         56.0004
  -7059099.99047  -5451280.84146  23501896.7074   23501902.0964   23501895.365
        46.0004         41.0004
 -12193160.52549  -9444856.87548  22577670.1774   22577672.4794   22577670.443
        55.0004         50.0004
  -2220553.51547  -1672717.00747  24914072.5344   24914076.0284   24914073.238
        47.0004         42.0004
  -6619896.77947  -5126718.03546  24415228.9554   24415231.9564   24415227.362
        46.0004         41.0004
  -5375566.17747  -4148029.60346  24209109.6344   24209116.2114   24209109.897
        44.0004         40.0004
  -2323071.65647  -1758950.55646  24626700.7504   24626706.9714   24626699.423
        43.0004         39.0004
  -8586755.32148  -6607706.38947  22380118.8234   22380121.6864   22380119.612
        48.0004         43.0004
 -20970631.77349 -16300540.81948  21125174.4044   21125174.9804   21125174.989
        55.0004         50.0004
 20 11  6  0 57 30.0000000  0  9G05G06G29G15G07G30G09G13G02
 -23181628.27449 -18010801.76349  20482002.3514   20482004.3864   20482002.203
        60.0004         56.0004
  -6967794.78647  -5380133.96746  23519271.7904   23519276.6994   23519271.659
        46.0004         41.0004
 -12240668.30949  -9481875.92548  22568629.8224   22568631.8874   22568630.631
        55.0004         51.0004
  -2339855.07947  -1765679.28647  24891370.8394   24891373.9424   24891370.198
        47.0004         42.0004
  -6644721.65447  -5146062.05746  24410503.8344   24410507.5744   24410503.576
        46.0004         41.0004
  -5439677.68747  -4197986.64346  24196909.9174   24196915.4444   24196909.323
        44.0004         39.0004
  -2220505.74147  -1679029.10446  24646218.8234   24646223.9234   24646218.673
        43.0004         38.0004
  -8686364.71948  -6685324.13947  22361164.3554   22361166.8534   22361164.347
        48.0004         43.0004
 -20951422.54649 -16285572.60148  21128829.8174   21128830.2614   21128830.309
        55.0004         50.0004
 20 11  6  0 58  0.0000000  0  9G05G06G29G15G07G30G09G13G02
 -23195608.63049 -18021695.55749  20479342.2174   20479344.0364   20479342.012
        60.0004         56.0004
  -6876270.60847  -5308816.46546  23536688.2014   23536693.2704   23536688.508
        46.0004         41.0004
 -12287612.92149  -9518456.14048  22559696.4264   22559699.1014   22559696.259
        55.0004         51.0004
  -2459085.18447  -1858585.86147  24868681.3714   24868685.5774   24868681.476
        47.0004         42.0004
  -6669093.90047  -5165053.39446  24405865.7464   24405869.9784   24405866.722
        46.0004         41.0004
  -5503481.25447  -4247703.74446  24184767.6234   24184774.2524   24184766.771
        44.0004         39.0004
  -2117766.39347  -1598972.51646  24665770.9614   24665775.7824   24665771.307
        43.0004         39.0004
  -8785655.00148  -6762693.21647  22342270.3024   22342272.5674   22342269.236
        48.0004         43.0004
 -20931814.08849 -16270293.29248  21132560.9434   21132561.4734   21132561.351
        55.0004         50.0004
 20 11  6  0 58 30.0000000  0  9G05G06G29G15G07G30G09G13G02
 -23209241.06949 -18032318.24749  20476747.9624   20476749.8734   20476747.871
        60.0004         56.0004
  -6784528.38747  -5237329.07046  23554146.6134   23554151.0314   23554145.572
        46.0004         41.0004
 -12333992.12049  -9554595.77848  22550871.3594   22550873.2074   22550871.187
        55.0004         51.0004
  -2578241.56947  -1951434.98247  24846008.0174   24846011.0144   24846007.436
        47.0004         43.0004
  -6693011.86947  -5183690.75046  24401315.0214   24401318.5084   24401314.457
        46.0004         41.0004
  -5566974.12547  -4297178.75246  24172687.1104   24172692.2354   24172687.048
        44.0004         40.0004
  -2014855.92247  -1518782.59346  24685353.0754   24685358.0334   24685353.869
        43.0004         38.0004
  -8884623.00148  -6839811.17147  22323436.3044   22323438.5554   22323437.355
        48.0004         43.0004
 -20911805.83149 -16254702.45348  21136368.2944   21136369.2704   21136368.712
        55.0004         50.0004
 20 11  6  0 59  0.0000000  0  9G05G06G29G15G07G30G09G13G02
 -23222525.70149 -18042669.91649  20474219.7564   20474221.9354   20474219.433
        60.0004         56.0004
  -6692569.03747  -5165672.47146  23571644.8184   23571650.4154   23571643.548
        46.0004         41.0004
 -12379804.30049  -9590293.57848  22542153.4194   22542155.1514   22542153.381
        55.0004         51.0004
  -2697321.95348  -2044224.91447  24823347.4804   24823350.5494   24823348.057
        48.0004         43.0004
  -6716474.49047  -5201973.29846  24396851.2414   24396853.5394   24396850.626
        46.0004         41.0004
  -5630153.51847  -4346409.43546  24160663.3894   24160668.5874   24160664.440
        45.0004         40.0004
  -1911776.75347  -1438461.21546  24704968.0064   24704973.8704   24704968.922
        43.0004         38.0004
  -8983266.63248  -6916676.35747  22304665.8254   22304668.3194   22304665.745
        48.0004         44.0004
 -20891396.96349 -16238799.44748  21140251.9574   21140252.7834   21140252.651
        55.0004         50.0004
 20 11  6  0 59 30.0000000  0  9G05G06G29G15G07G30G09G13G02
 -23235462.86749 -18052750.83349  20471758.1094   20471760.0554   20471757.864
        60.0004         56.0004
  -6600393.83147  -5093847.68646  23589185.8284   23589192.3474   23589186.207
        46.0004         41.0004
 -12425047.86249  -9625548.31648  22533543.8064   22533545.8654   22533543.642
        55.0004         51.0004
  -2816324.43348  -2136954.11347  24800701.9834   24800705.3034   24800702.529
        48.0004         43.0004
  -6739480.43447  -5219900.00046  24392472.4644   24392474.0074   24392472.401
        45.0004         40.0004
  -5693016.82347  -4395393.83346  24148699.9894   24148706.2324   24148699.741
        44.0004         40.0004
  -1808531.54747  -1358010.47546  24724614.6474   24724620.2394   24724615.565
        43.0004         38.0004
  -9081583.59548  -6993287.00447  22285956.5204   22285958.7564   22285956.886
        49.0004         44.0004
 -20870587.32549 -16222584.14948  21144211.7714   21144212.7584   21144212.520
        55.0004         50.0004
 20 11  6  1  0  0.0000000  0  9G05G06G29G15G07G30G09G13G02
 -23248052.94649 -18062561.29249  20469362.2944   20469364.1244   20469361.849
        60.0004         56.0004
  -6508003.75247  -5021855.46046  23606766.4914   23606773.2084   23606765.180
        46.0004         41.0004
 -12469721.49649  -9660358.93948  22525041.9434   22525044.7444   22525041.793
        55.0004         50.0004
  -2935247.13848  -2229621.18147  24778070.3324   24778074.6254   24778069.901
        48.0004         43.0004
  -6762028.24747  -5237469.71446  24388181.5964   24388183.3284   24388181.620
        45.0004         40.0004
  -5755561.27547  -4444129.75646  24136798.0274   24136804.5044   24136799.464
        45.0004         40.0004
  -1705122.68247  -1277432.19346  24744292.5764   24744298.1954   24744293.521
        43.0004         38.0004
  -9179570.98748  -7069640.81847  22267310.5384   22267313.0384   22267310.394
        49.0004         44.0004
 -20849376.29849 -16206056.08248  21148248.3984   21148248.9954   21148249.199
        55.0004         50.0004
 20 11  6  1  0 30.0000000  0  9G05G06G29G15G07G30G09G13G02
 -23260296.53749 -18072101.76149  20467032.4524   20467034.3864   20467032.567
        60.0004         56.0004
  -6415399.83947  -4949696.60146  23624388.6464   23624395.3474   23624386.731
        46.0004         41.0004
 -12513823.08449  -9694723.81248  22516649.7664   22516652.1564   22516650.246
        55.0004         50.0004
  -3054087.77748  -2322224.28647  24755456.5484   24755460.4154   24755455.211
        48.0004         43.0004
  -6784116.64847  -5254681.45446  24383978.8954   24383980.4714   24383979.610
        45.0004         40.0004
  -5817784.26647  -4492615.19346  24124958.3374   24124963.6014   24124959.120
        45.0004         40.0004
  -1601552.57047  -1196728.26246  24764002.0314   24764007.0814   24764003.089
        43.0004         38.0004
  -9277226.36448  -7145735.93547  22248727.7964   22248729.7574   22248727.671
        49.0004         44.0004
 -20827763.34049 -16189214.81948  21152361.1784   21152361.8074   21152362.187
        55.0004         50.0004
 20 11  6  1  1  0.0000000  0  9G05G06G29G15G07G30G09G13G02
 -23272192.91549 -18081371.66849  20464768.3704   20464770.5234   20464768.053
        60.0004         56.0004
  -6322583.16047  -4877371.95146  23642050.6144   23642057.6084   23642049.775
        46.0004         41.0004
 -12557350.90449  -9728641.59648  22508366.6414   22508368.9864   22508366.708
        55.0004         51.0004
  -3172844.33748  -2414761.89147  24732857.1064   24732860.9274   24732857.389
        48.0004         43.0004
  -6805743.93847  -5271533.87546  24379862.8294   24379865.0044   24379861.581
        45.0004         40.0004
  -5879682.98747  -4540847.95846  24113179.0634   24113185.2474   24113179.402
        45.0004         40.0004
  -1497823.64047  -1115900.54546  24783739.9914   24783746.4414   24783742.410
        43.0004         38.0004
  -9374547.28948  -7221570.42447  22230207.8074   22230210.1404   22230206.741
        49.0004         44.0004
 -20805748.19849 -16172060.16648  21156550.5974   21156551.4454   21156551.319
        55.0004         50.0004
 20 11  6  1  1 30.0000000  0  9G05G06G29G15G07G30G09G13G02
 -23283743.13249 -18090371.83749  20462570.5224   20462572.8524   20462570.264
        60.0004         56.0004
  -6229554.85447  -4804882.41346  23659753.7864   23659760.5314   23659752.980
        46.0004         41.0004
 -12600303.39049  -9762111.07948  22500193.1294   22500195.4074   22500192.398
        55.0004         50.0004
  -3291514.61248  -2507232.26447  24710276.4974   24710279.4354   24710277.204
        48.0004         43.0004
  -6826909.05347  -5288026.15646  24375834.8974   24375837.2744   24375834.342
        44.0004         40.0004
  -5941254.90247  -4588826.04046  24101462.3044   24101467.9644   24101463.670
        45.0004         40.0004
  -1393938.47447  -1034951.11146  24803508.4154   24803515.7874   24803509.094
        43.0004         38.0004
  -9471531.56548  -7297142.58247  22211751.6174   22211754.8924   22211752.223
        49.0004         44.0004
 -20783330.43449 -16154591.78448  21160816.5534   21160817.3234   21160817.004
        55.0004         50.0004
 20 11  6  1  2  0.0000000  0  9G05G06G29G15G07G30G09G13G02
 -23294947.31949 -18099102.37349  20460438.7204   20460440.5744   20460438.443
        60.0004         56.0004
  -6136316.00547  -4732228.82146  23677496.1024   23677502.1954   23677495.336
        46.0004         41.0004
 -12642679.28849  -9795131.25648  22492129.3354   22492131.7804   22492128.537
        55.0004         51.0004
  -3410096.55948  -2599633.82247  24687710.9894   24687713.9044   24687712.765
        48.0004         43.0004
  -6847610.95547  -5304157.47646  24371895.3474   24371899.1884   24371894.811
        45.0004         40.0004
  -6002497.32247  -4636547.35946  24089809.1434   24089814.6624   24089809.135
        45.0004         41.0004
  -1289899.35747   -953881.70446  24823305.4234   24823313.4054   24823305.981
        42.0004         38.0004
  -9568176.27848  -7372450.13347  22193361.2724   22193364.0784   22193361.092
        49.0004         45.0004
 -20760509.32949 -16136809.11148  21165159.1474   21165160.1554   21165159.893
        55.0004         50.0004
 20 11  6  1  2 30.0000000  0  9G05G06G29G15G07G30G09G13G02
 -23305805.56249 -18107563.34249  20458372.2854   20458374.1274   20458372.093
        60.0004         56.0004
  -6042867.66947  -4659411.97946  23695279.0114   23695286.0644   23695279.271
        46.0004         41.0004
 -12684476.57149  -9827700.56648  22484175.9734   22484177.8344   22484176.141
        55.0004         51.0004
  -3528588.15348  -2691965.00347  24665163.1364   24665166.3034   24665163.483
        48.0004         43.0004
  -6867848.28247  -5319926.82546  24368044.2374   24368046.9104   24368043.807
        45.0004         40.0004
  -6063407.65347  -4684009.93646  24078217.8694   24078223.8644   24078217.815
        45.0004         41.0004
  -1185708.81247   -872694.30746  24843132.1284   24843139.7674   24843133.095
        42.0004         37.0004
  -9664478.92448  -7447491.13847  22175035.3834   22175038.6684   22175035.672
        49.0004         45.0004
 -20737284.54349 -16118711.88148  21169578.7054   21169579.6874   21169579.262
        55.0004         50.0004
 20 11  6  1  3  0.0000000  0  9G05G06G29G15G07G30G09G13G02
 -23316318.18349 -18115754.98949  20456372.0244   20456373.9224   20456371.675
        60.0004         56.0004
  -5949210.90747  -4586432.75646  23713101.7714   23713108.7604   23713102.058
        46.0004         41.0004
 -12725694.05649  -9859818.07948  22476331.8564   22476333.8554   22476332.090
        55.0004         50.0004
  -3646987.31847  -2784224.13947  24642632.9694   24642635.6514   24642633.433
        47.0004         42.0004
  -6887619.80047  -5335333.20246  24364282.6094   24364283.8764   24364281.680
        45.0004         40.0004
  -6123983.09247  -4731211.56946  24066689.2714   24066695.5854   24066689.683
        45.0004         40.0004
  -1081369.19547   -791390.75946  24862987.1754   24862996.2294   24862988.919
        42.0004         37.0004
  -9760437.17848  -7522263.78347  22156775.2634   22156777.6284   22156774.966
        49.0004         45.0004
 -20713655.53849 -16100299.66848  21174075.0854   21174075.6744   21174075.978
        55.0004         50.0004
 20 11  6  1  3 30.0000000  0  9G05G06G29G15G07G30G09G13G02
 -23326485.61649 -18123677.66349  20454437.2404   20454439.1484   20454436.999
        60.0004         56.0004
  -5855346.91447  -4513292.04946  23730964.1344   23730969.7894   23730963.397
        46.0004         41.0004
 -12766330.04149  -9891482.47748  22468598.9354   22468601.5064   22468598.818
        55.0004         50.0004
  -3765292.01457  -2876409.60957  24620118.7535   24620122.6885   24620117.124
        47.0004         42.0004
  -6906924.15447  -5350375.56046  24360608.6354   24360611.3774   24360609.006
        45.0004         40.0004
  -6184221.13847  -4778150.28646  24055227.1204   24055233.9224   24055228.711
        45.0004         41.0004
   -976883.00147   -709972.98046  24882870.5434   24882877.0944   24882871.028
        42.0004         37.0004
  -9856048.53148  -7596766.10247  22138580.7044   22138584.0374   22138580.713
        49.0004         45.0004
 -20689622.26549 -16081572.45048  21178648.5964   21178649.2754   21178648.819
        55.0004         50.0004
 20 11  6  1  4  0.0000000  0  9G05G06G29G15G07G30G09G13G02
 -23336308.03949 -18131331.50049  20452568.0384   20452569.7434   20452567.780
        60.0004         56.0004
  -5761276.71847  -4439990.65046  23748865.1204   23748871.0964   23748865.048
        46.0004         41.0004
 -12806382.66049  -9922692.31848  22460977.6234   22460979.5564   22460977.697
        55.0004         51.0004
  -3883499.92547  -2968519.65747  24597624.6524   24597629.0454   24597622.516
        46.0004         42.0004
  -6925760.27347  -5365053.07246  24357024.6994   24357026.2094   24357024.679
        45.0004         41.0004
  -6244119.11747  -4824824.00546  24043829.0294   24043836.2494   24043828.943
        45.0004         40.0004
   -872252.61247   -628442.86246  24902781.5304   24902787.3504   24902781.833
        42.0004         37.0004
  -9951310.36148  -7670996.07147  22120452.7634   22120455.3684   22120452.845
        49.0004         45.0004
 -20665184.04049 -16062529.68548  21183299.0484   21183299.7274   21183299.707
        55.0004         50.0004
 20 11  6  1  4 30.0000000  0  9G05G06G29G15G07G30G09G13G02
 -23345785.52149 -18138716.55049  20450764.5034   20450766.3824   20450764.410
        60.0004         56.0004
  -5667001.51047  -4366529.52446  23766805.0094   23766810.3304   23766804.611
        46.0004         41.0004
 -12845850.88149  -9953446.78848  22453467.3384   22453469.0934   22453467.243
        55.0004         51.0004
  -4001608.85747  -3060552.62847  24575149.3124   24575153.7914   24575148.485
        47.0004         43.0004
  -6944126.63547  -5379364.53146  24353530.3284   24353531.3674   24353529.541
        45.0004         41.0004
  -6303674.41547  -4871230.75446  24032496.0874   24032502.4294   24032496.926
        45.0004         40.0004
   -767480.47647   -546802.29546  24922720.0704   24922725.0584   24922718.924
        42.0004         37.0004
 -10046220.42548  -7744951.94847  22102392.0924   22102394.8204   22102392.304
        49.0004         45.0004
 -20640340.42049 -16043171.02348  21188026.3394   21188027.3574   21188027.392
        55.0004         50.0004
 20 11  6  1  5  0.0000000  0  9G05G06G29G15G07G30G09G13G02
 -23354918.43149 -18145833.10849  20449026.5384   20449028.3854   20449026.478
        60.0004         56.0004
  -5572522.43047  -4292909.52446  23784784.0244   23784789.5824   23784784.237
        46.0004         41.0004
 -12884733.03349  -9983744.57348  22446068.3064   22446070.2164   22446068.833
        55.0004         51.0004
  -4119616.92248  -3152506.97247  24552694.0294   24552697.8674   24552693.913
        48.0004         43.0004
  -6962022.21247  -5393309.14946  24350123.6834   24350126.4544   24350123.524
        45.0004         41.0004
  -6362884.49847  -4917368.48946  24021229.6594   24021234.7064   24021228.397
        45.0004         40.0004
   -662568.95447   -465053.13146  24942685.0864   24942689.5144   24942685.094
        42.0004         38.0004
 -10140776.47948  -7818631.95847  22084398.9794   22084401.5774   22084398.470
        49.0004         45.0004
 -20615091.04449 -16023496.20248  21192831.5664   21192832.1334   21192832.350
        55.0004         50.0004
 20 11  6  1  5 30.0000000  0  9G05G06G29G15G07G30G09G13G02
 -23363707.11849 -18152681.43549  20447353.8694   20447356.0654   20447353.286
        60.0004         56.0004
  -5477840.43947  -4219131.40246  23802801.0764   23802806.0624   23802800.032
        46.0004         41.0004
 -12923027.59049 -10013584.48748  22438780.9944   22438783.2294   22438781.389
        55.0004         51.0004
  -4237521.83048  -3244380.92747  24530257.0764   24530260.9604   24530254.789
        49.0004         45.0004
  -6979446.29247  -5406886.37146  24346807.9954   24346811.2824   24346807.552
        45.0004         40.0004
  -6421746.56847  -4963235.02446  24010028.3164   24010032.5524   24010028.512
        45.0004         40.0004
   -557520.37447   -383197.14446  24962674.3874   24962678.8264   24962674.591
        42.0004         38.0004
 -10234975.74348  -7892033.94647  22066473.2134   22066476.1754   22066472.741
        49.0004         45.0004
 -20589435.36749 -16003504.76948  21197713.6814   21197714.3034   21197714.291
        55.0004         50.0004
 20 11  6  1  6  0.0000000  0  9G05G06G29G15G07G30G09G13G02
 -23372151.96949 -18159261.83549  20445746.7794   20445748.9344   20445746.598
        60.0004         56.0004
  -5382956.83147  -4145196.16946  23820856.0134   23820861.7694   23820856.652
        46.0004         41.0004
 -12960733.10349 -10042965.40348  22431605.4654   22431608.1494   22431605.584
        55.0004         51.0004
  -4355321.58548  -3336172.94547  24507841.0424   24507844.3404   24507839.178
        50.0004         45.0004
  -6996397.48947  -5420095.09046  24343581.1424   24343585.5774   24343581.019
        45.0004         40.0004
  -6480258.09147  -5008828.36646  23998894.2344   23998898.7144   23998894.410
        45.0004         40.0004
   -452337.20747   -301236.28546  24982691.1944   24982695.1234   24982690.535
        42.0004         38.0004
 -10328815.61748  -7965155.89547  22048616.6204   22048618.9924   22048616.119
        49.0004         45.0004
 -20563373.41949 -15983196.76548  21202672.8464   21202673.6904   21202673.635
        55.0004         50.0004
 20 11  6  1  6 30.0000000  0  9G05G06G29G15G07G30G09G13G02
 -23380253.18949 -18165574.47249  20444205.2254   20444207.2094   20444204.981
        60.0004         56.0004
  -5287872.71847  -4071104.68646  23838950.5494   23838957.4864   23838950.217
        46.0004         41.0004
 -12997848.21049 -10071886.27448  22424542.2234   22424545.2564   22424542.447
        55.0004         50.0004
  -4473014.20448  -3427881.47647  24485444.8634   24485448.1734   24485443.833
        50.0004         46.0004
  -7012874.46547  -5432934.32346  24340446.4444   24340450.1664   24340446.249
        45.0004         40.0004
  -6538416.51047  -5054146.56546  23987826.5074   23987832.3194   23987825.975
        45.0004         40.0004
   -347021.81347   -219172.39846  25002732.5384   25002735.3584   25002731.544
        42.0004         38.0004
 -10422294.02948  -8037996.19247  22030828.1004   22030830.2144   22030827.737
        49.0004         45.0004
 -20536904.77349 -15962571.85748  21207709.8864   21207710.6584   21207710.257
        55.0004         50.0004
 20 11  6  1  7  0.0000000  0  9G05G06G29G15G07G30G09G13G02
 -23388010.91749 -18171619.45549  20442729.0954   20442731.1674   20442728.858
        60.0004         56.0004
  -5192589.21147  -3996857.83346  23857082.6964   23857089.6124   23857082.099
        45.0004         41.0004
 -13034371.57549 -10100346.03448  22417592.0744   22417594.6574   22417592.013
        55.0004         50.0004
  -4590597.52548  -3519504.83847  24463069.1894   24463072.9844   24463069.264
        50.0004         45.0004
  -7028876.25847  -5445403.26746  24337402.9684   24337405.5314   24337402.074
        45.0004         41.0004
  -6596219.25147  -5099187.57046  23976826.3794   23976831.6454   23976826.851
        45.0004         40.0004
   -241576.58447   -137007.33646  25022796.8714   25022801.5924   25022798.575
        42.0004         37.0004
 -10515408.64548  -8110552.99847  22013108.6294   22013111.3794   22013108.731
        49.0004         45.0004
 -20510028.81249 -15941629.56348  21212824.1254   21212824.9924   21212824.520
        54.0004         50.0004
 20 11  6  1  7 30.0000000  0  9G05G06G29G15G07G30G09G13G02
 -23395425.58649 -18177397.11749  20441318.0764   20441320.2224   20441317.922
        60.0004         56.0004
  -5097107.49247  -3922456.53246  23875252.2134   23875258.7734   23875251.861
        45.0004         41.0004
 -13070301.66349 -10128343.50548  22410755.4014   22410757.8624   22410755.803
        55.0004         51.0004
  -4708069.52148  -3611041.42647  24440714.8104   24440718.4104   24440713.613
        50.0004         45.0004
  -7044401.93347  -5457501.23546  24334447.6864   24334450.3624   24334447.605
        45.0004         41.0004
  -6653663.78447  -5143949.45746  23965894.9334   23965900.5014   23965894.801
        44.0004         40.0004
   -136003.89347    -54742.95746  25042887.2794   25042890.7024   25042887.767
        42.0004         37.0004
 -10608156.85648  -8182824.30247  21995459.3484   21995460.4214   21995459.028
        50.0004         45.0004
 -20482745.57549 -15920369.91548  21218015.8104   21218016.7424   21218016.337
        54.0004         50.0004
 20 11  6  1  8  0.0000000  0  9G05G06G29G15G07G30G09G13G02
 -23402497.29449 -18182907.53949  20439972.5234   20439974.5464   20439972.019
        60.0004         56.0004
  -5001428.65747  -3847901.64046  23893459.7234   23893466.1754   23893458.567
        45.0004         40.0004
 -13105637.42049 -10155877.87648  22404031.5134   22404033.4624   22404031.520
        55.0004         51.0004
  -4825428.02648  -3702489.57747  24418382.5124   24418386.1544   24418382.916
        50.0004         45.0004
  -7059450.19247  -5469227.19046  24331584.9094   24331586.8774   24331583.653
        45.0004         41.0004
  -6710747.51747  -5188430.19146  23955032.4114   23955038.1854   23955034.482
        45.0004         40.0004
    -30306.07847     27618.93546  25063001.4434   25063004.4854   25063001.206
        42.0004         37.0004
 -10700536.32348  -8254808.25947  21977879.9934   21977882.5034   21977879.700
        50.0004         45.0004
 -20455054.54049 -15898792.50448  21223285.5144   21223286.2494   21223285.807
        54.0004         50.0004
 20 11  6  1  8 30.0000000  0  9G05G06G29G15G07G30G09G13G02
 -23409226.62449 -18188151.17249  20438691.9554   20438694.1374   20438691.585
        60.0004         56.0004
  -4905554.00047  -3773194.13846  23911703.6164   23911709.7234   23911703.702
        45.0004         40.0004
 -13140377.39149 -10182947.98848  22397420.8384   22397422.6784   22397421.265
        55.0004         51.0004
  -4942670.84648  -3793847.58647  24396071.7294   24396075.1984   24396070.610
        49.0004         44.0004
  -7074020.16247  -5480580.45646  24328812.8304   24328813.6484   24328811.929
        45.0004         41.0004
  -6767467.93647  -5232627.83646  23944240.6064   23944245.4014   23944239.937
        45.0004         40.0004
     75514.43047    110076.43946  25083137.3624   25083140.1194   25083138.126
        42.0004         37.0004
 -10792544.74248  -8326503.08947  21960371.0454   21960373.5424   21960370.988
        50.0004         45.0004
 -20426955.51349 -15876897.17548  21228632.6524   21228633.0124   21228633.487
        54.0004         50.0004
 20 11  6  1  9  0.0000000  0  9G05G06G29G15G07G30G09G13G02
 -23415613.73249 -18193128.14249  20437476.4354   20437478.6024   20437476.315
        60.0004         56.0004
  -4809484.52847  -3698334.84346  23929984.2034   23929990.8254   23929983.957
        45.0004         40.0004
 -13174520.16649 -10209552.75948  22390923.6074   22390925.8434   22390923.918
        55.0004         51.0004
  -5059795.85748  -3885113.82147  24373783.7644   24373786.5104   24373784.191
        49.0004         44.0004
  -7088110.76047  -5491560.18346  24326130.9674   24326132.5714   24326130.756
        45.0004         41.0004
  -6823822.58147  -5276540.48346  23933515.6704   23933520.9724   23933516.527
        45.0004         40.0004
    181455.38847    192627.78846  25103298.7114   25103300.3464   25103297.324
        42.0004         37.0004
 -10884179.65148  -8397906.87947  21942933.1474   21942936.0734   21942933.681
        50.0004         45.0004
 -20398447.86149 -15854683.44148  21234057.4494   21234058.1544   21234058.343
        54.0004         50.0004
 20 11  6  1  9 30.0000000  0  9G05G06G29G15G07G30G09G13G02
 -23421658.76249 -18197838.55949  20436326.3274   20436328.2224   20436326.207
        60.0004         56.0004
  -4713221.60347  -3623324.82246  23948303.4064   23948309.6114   23948302.372
        44.0004         40.0004
 -13208064.75449 -10235691.41248  22384540.3674   22384542.4934   22384540.328
        55.0004         51.0004
  -5176801.13248  -3976286.74747  24351518.6514   24351520.6694   24351518.751
        48.0004         43.0004
  -7101721.01647  -5502165.59046  24323540.6984   24323543.9184   24323540.300
        45.0004         41.0004
  -6879808.91447  -5320166.16246  23922861.9084   23922867.3734   23922861.500
        45.0004         40.0004
    287514.40346    275271.12346  25123479.5244   25123483.2324   25123479.651
        41.0004         37.0004
 -10975438.62748  -8469017.73147  21925567.6524   21925570.1954   21925567.919
        50.0004         45.0004
 -20369531.62649 -15832151.33248  21239559.7304   21239560.5464   21239560.372
        54.0004         50.0004
 20 11  6  1 10  0.0000000  0  9G05G06G29G15G07G30G09G13G02
 -23427362.11049 -18202282.72749  20435240.7694   20435242.9994   20435240.879
        60.0004         56.0004
  -4616766.25047  -3548164.85846  23966658.4274   23966663.7434   23966658.564
        44.0004         39.0004
 -13241009.85149 -10261362.92848  22378271.4624   22378273.3844   22378271.936
        55.0004         51.0004
  -5293684.70948  -4067364.81247  24329276.3024   24329279.8624   24329276.583
        48.0004         43.0004
  -7114849.82747  -5512395.84446  24321041.7724   24321044.9954   24321042.062
        45.0004         41.0004
  -6935424.40347  -5363502.84646  23912278.3704   23912282.9994   23912278.499
        45.0004         40.0004
    393689.16647    358004.65246  25143683.8334   25143688.4634   25143684.592
        42.0004         37.0004
 -11066319.08248  -8539833.63547  21908273.4384   21908276.0604   21908273.360
        50.0004         45.0004
 -20340207.12249 -15809301.09248  21245139.9994   21245140.9464   21245140.537
        54.0004         50.0004
 20 11  6  1 10 30.0000000  0  9G05G06G29G15G07G30G09G13G02
 -23432724.14849 -18206460.93449  20434220.3254   20434222.4424   20434220.172
        60.0004         56.0004
  -4520119.72147  -3472855.91546  23985050.0404   23985054.4564   23985049.784
        44.0004         39.0004
 -13273354.09649 -10286566.24648  22372116.0644   22372118.9944   22372116.166
        56.0004         51.0004
  -5410444.26448  -4158346.22147  24307057.9714   24307060.7044   24307056.643
        48.0004         43.0004
  -7127496.25647  -5522250.19946  24318635.4794   24318639.0484   24318636.408
        45.0004         41.0004
  -6990666.61747  -5406548.68546  23901765.5034   23901771.8384   23901765.769
        45.0004         40.0004
    499977.26847    440826.50246  25163911.1814   25163913.8144   25163910.875
        42.0004         37.0004
 -11156819.09548  -8610353.09247  21891051.5604   21891054.5844   21891052.263
        50.0004         45.0004
 -20310473.24849 -15786131.86248  21250798.7304   21250798.9194   21250799.495
        54.0004         50.0004
 20 11  6  1 11  0.0000000  0  9G05G06G29G15G07G30G09G13G02
 -23437745.16549 -18210373.41649  20433264.9764   20433267.1844   20433264.846
        60.0004         56.0004
  -4423283.26647  -3397398.99346  24003477.1274   24003483.1554   24003478.514
        44.0004         39.0004
 -13305096.33649 -10311300.47748  22366075.3764   22366078.5894   22366075.042
        56.0004         51.0004
  -5527077.77347  -4249229.42347  24284862.1404   24284865.6964   24284860.911
        47.0004         42.0004
  -7139659.47147  -5531728.02146  24316320.8274   24316323.9774   24316321.086
        45.0004         41.0004
  -7045532.92747  -5449301.65146  23891324.4514   23891330.2634   23891324.059
        45.0004         40.0004
    606376.50246    523734.96046  25184157.9794   25184162.2704   25184157.767
        41.0004         36.0004
 -11246936.26748  -8680574.23947  21873903.0344   21873906.2504   21873903.442
        50.0004         46.0004
 -20280329.92149 -15762643.57648  21256534.5984   21256535.4714   21256535.685
        54.0004         50.0004
 20 11  6  1 11 30.0000000  0  9G05G06G29G15G07G30G09G13G02
 -23442425.50649 -18214020.43449  20432374.4274   20432376.6824   20432374.186
        60.0004         56.0004
  -4326258.09847  -3321795.01246  24021939.6834   24021946.7764   24021939.865
        44.0004         39.0004
 -13336235.38549 -10335564.67348  22360149.6154   22360152.8674   22360149.092
        56.0004         51.0004
  -5643583.42047  -4340012.96747  24262691.9634   24262696.2354   24262690.765
        47.0004         42.0004
  -7151338.52447  -5540828.55346  24314098.5084   24314102.2734   24314098.638
        45.0004         41.0004
  -7100021.00547  -5491759.92246  23880956.2554   23880962.3964   23880956.481
        45.0004         41.0004
    712884.52646    606728.17546  25204425.1864   25204428.9454   25204425.100
        41.0004         36.0004
 -11336668.16848  -8750495.16947  21856827.9524   21856830.6514   21856827.913
        50.0004         45.0004
 -20249777.04149 -15738836.15848  21262348.8094   21262349.3424   21262349.456
        54.0004         50.0004
 20 11  6  1 12  0.0000000  0  9G05G06G29G15G07G30G09G13G02
 -23446765.43849 -18217402.19449  20431548.4104   20431550.5974   20431548.066
        60.0004         56.0004
  -4229045.23747  -3246044.78246  24040439.0244   24040445.5844   24040438.795
        44.0004         39.0004
 -13366769.89649 -10359357.81948  22354339.0384   22354342.1854   22354338.978
        56.0004         51.0004
  -5759958.97547  -4430695.09847  24240546.1004   24240550.1944   24240544.341
        47.0004         42.0004
  -7162532.57947  -5549551.17246  24311968.1384   24311971.7454   24311968.773
        45.0004         41.0004
  -7154128.26547  -5533921.40546  23870660.3684   23870663.3914   23870661.081
        45.0004         41.0004
    819499.06346    689804.38446  25224713.0454   25224717.1824   25224712.638
        41.0004         36.0004
 -11426012.52648  -8820114.12347  21839826.4894   21839827.9354   21839826.887
        50.0004         45.0004
 -20218814.26749 -15714709.34048  21268240.4524   21268241.2724   21268241.168
        54.0004         50.0004
 20 11  6  1 12 30.0000000  0  9G05G06G29G15G07G30G09G13G02
 -23450765.26349 -18220518.94249  20430787.3034   20430789.4034   20430787.267
        60.0004         56.0004
  -4131646.00847  -3170149.32946  24058974.3124   24058979.8184   24058973.381
        44.0004         40.0004
 -13396698.89449 -10382679.12248  22348644.2114   22348646.8254   22348644.300
        56.0004         51.0004
  -5876202.18747  -4521274.14247  24218424.9524   24218429.6764   24218422.473
        47.0004         43.0004
  -7173240.46347  -5557894.96946  24309931.8904   24309933.6874   24309931.052
        45.0004         41.0004
  -7207852.24347  -5575784.24046  23860436.7964   23860441.7864   23860437.805
        45.0004         41.0004
    926217.74546    772961.74245  25245022.5234   25245025.3334   25245020.777
        40.0004         35.0004
 -11514967.07948  -8889429.33947  21822899.2304   21822900.7384   21822898.966
        50.0004         46.0004
 -20187441.32649 -15690262.91548  21274210.6514   21274211.3914   21274211.220
        54.0004         50.0004
 20 11  6  1 13  0.0000000  0  9G05G06G29G15G07G30G09G13G02
 -23454425.15849 -18223370.80749  20430090.8244   20430093.0654   20430090.191
        60.0004         56.0004
  -4034061.62747  -3094109.61046  24077544.6304   24077550.6984   24077543.407
        44.0004         40.0004
 -13426021.14949 -10405527.63948  22343064.4554   22343066.4894   22343064.913
        56.0004         51.0004
  -5992310.94748  -4611748.43047  24196331.3814   24196334.7144   24196331.290
        49.0004         44.0004
  -7183461.61947  -5565859.48746  24307985.9834   24307989.7864   24307985.624
        45.0004         41.0004
  -7261190.51547  -5617346.51646  23850286.6284   23850293.1124   23850287.259
        45.0004         41.0004
   1033038.29646    856198.46346  25265349.8094   25265351.5504   25265349.329
        40.0004         36.0004
 -11603529.37048  -8958438.89547  21806045.5344   21806047.8884   21806045.785
        50.0004         46.0004
 -20155658.16149 -15665496.83048  21280258.7854   21280259.7954   21280259.352
        54.0004         50.0004
 20 11  6  1 13 30.0000000  0  9G05G06G29G15G07G30G09G13G02
 -23457745.77349 -18225958.29749  20429458.7154   20429461.1644   20429458.389
        60.0004         56.0004
  -3936293.32447  -3017926.58346  24096147.2314   24096154.3454   24096146.581
        45.0004         40.0004
 -13454735.78249 -10427902.67548  22337600.3834   22337603.0694   22337599.860
        56.0004         51.0004
  -6108282.98948  -4702116.17947  24174262.2464   24174265.8984   24174260.830
        49.0004         45.0004
  -7193194.77647  -5573443.71846  24306132.9734   24306136.6724   24306133.041
        45.0004         41.0004
  -7314140.66847  -5658606.36646  23840210.5224   23840216.4914   23840209.865
        46.0004         41.0004
   1139958.40446    939512.81545  25285693.5034   25285700.9044   25285695.676
        40.0004         35.0004
 -11691697.20748  -9027141.08647  21789268.2224   21789270.4734   21789268.082
        50.0004         46.0004
 -20123464.61349 -15640410.96148  21286385.0304   21286385.9754   21286385.529
        54.0004         50.0004
 20 11  6  1 14  0.0000000  0  9G05G06G29G15G07G30G09G13G02
 -23460727.04949 -18228281.37049  20428891.8034   20428893.6674   20428891.486
        60.0004         56.0004
  -3838342.44747  -2941601.26946  24114787.5574   24114794.3714   24114787.371
        45.0004         40.0004
 -13482841.75749 -10449803.43948  22332252.5374   22332254.3604   22332252.817
        56.0004         51.0004
  -6224116.56548  -4792376.04247  24152220.2594   24152223.4974   24152219.608
        50.0004         45.0004
  -7202439.68247  -5580647.50546  24304373.6194   24304377.3934   24304373.445
        45.0004         41.0004
  -7366700.34147  -5699561.92346  23830208.9824   23830214.7604   23830208.325
        46.0004         41.0004
   1246975.79246   1022902.92945  25306057.7884   25306064.2374   25306059.875
        40.0004         35.0004
 -11779468.17248  -9095534.03347  21772565.5114   21772568.5524   21772565.939
        50.0004         46.0004
 -20090860.35749 -15615005.06248  21292589.6474   21292590.4454   21292590.470
        54.0004         50.0004
 20 11  6  1 14 30.0000000  0  9G05G06G29G15G07G30G09G13G02
 -23463369.41149 -18230340.35549  20428388.8394   20428390.8894   20428388.190
        60.0004         56.0004
  -3740209.99147  -2865134.49846  24133462.2034   24133467.8664   24133460.964
        44.0004         40.0004
 -13510337.87349 -10471228.99048  22327019.8214   22327022.1504   22327020.321
        56.0004         51.0004
  -6339809.71148  -4882526.49647  24130205.0254   24130208.1464   24130204.896
        51.0004         46.0004
  -7211195.55747  -5587470.24446  24302707.8024   24302710.4034   24302706.869
        45.0004         41.0004
  -7418867.04047  -5740211.26146  23820281.4284   23820287.0044   23820281.496
        45.0004         41.0004
   1354088.27656   1106367.14555  25326441.4245   25326446.2675   25326441.191
        40.0004         35.0004
 -11866840.02948  -9163615.99147  21755939.6284   21755942.3954   21755939.879
        50.0004         46.0004
 -20057845.62049 -15589279.31148  21298872.0264   21298873.1504   21298873.000
        54.0004         50.0004
 20 11  6  1 15  0.0000000  0  8G05G06G29G15G07G30G13G02
 -23465672.99449 -18232135.35349  20427950.6914   20427952.5764   20427950.572
        60.0004         56.0004
  -3641897.27547  -2788527.24146  24152170.5654   24152175.9864   24152171.206
        45.0004         40.0004
 -13537223.06849 -10492178.49648  22321903.7544   22321906.1514   22321904.232
        56.0004         51.0004
  -6455360.19848  -4972565.78547  24108216.4754   24108219.4404   24108217.173
        51.0004         47.0004
  -7219461.11947  -5593910.91846  24301134.0354   24301137.1774   24301132.848
        45.0004         40.0004
  -7470638.35547  -5780552.49546  23810430.2454   23810436.3894   23810429.546
        45.0004         41.0004
 -11953810.68848  -9231385.32147  21739389.8354   21739391.9854   21739390.149
        51.0004         46.0004
 -20024420.14649 -15563233.50148  21305232.5154   21305233.5834   21305233.060
        54.0004         50.0004
 20 11  6  1 15 30.0000000  0  8G05G06G29G15G07G30G13G02
 -23467638.30449 -18233666.75949  20427576.5684   20427578.4074   20427576.171
        60.0004         56.0004
  -3543405.66147  -2711780.56846  24170912.9834   24170919.0034   24170912.308
        45.0004         40.0004
 -13563496.41449 -10512651.22948  22316904.0464   22316906.2244   22316903.579
        56.0004         51.0004
  -6570765.96448  -5062492.31447  24086255.3364   24086258.7004   24086256.864
        51.0004         47.0004
  -7227236.05747  -5599969.28546  24299655.3814   24299657.6594   24299654.992
        45.0004         40.0004
  -7522011.98947  -5820583.85146  23800652.7844   23800660.3084   23800653.184
        46.0004         41.0004
 -12040377.75048  -9298840.16047  21722916.5104   21722918.8474   21722916.739
        51.0004         46.0004
 -19990583.44849 -15536867.26248  21311671.6344   21311672.2244   21311672.040
        54.0004         49.0004
 20 11  6  1 16  0.0000000  0  8G05G06G29G15G07G30G13G02
 -23469266.06149 -18234935.14249  20427266.8804   20427268.8354   20427266.803
        60.0004         56.0004
  -3444736.31047  -2634895.41846  24189688.6294   24189695.1654   24189687.647
        45.0004         40.0004
 -13589157.36449 -10532646.76448  22312020.5354   22312022.7544   22312020.024
        56.0004         51.0004
  -6686024.85148  -5152304.37647  24064322.1744   24064325.4804   24064322.891
        51.0004         46.0004
  -7234519.09647  -5605644.37546  24298270.0614   24298271.6194   24298269.609
        45.0004         41.0004
  -7572985.48747  -5860303.44746  23790953.8934   23790958.9964   23790954.534
        45.0004         41.0004
 -12126539.03948  -9365978.82847  21706520.0484   21706522.7564   21706520.585
        51.0004         46.0004
 -19956335.53949 -15510180.59448  21318188.7344   21318189.6414   21318189.609
        54.0004         49.0004
 20 11  6  1 16 30.0000000  0  8G05G06G29G15G07G30G13G02
 -23470556.04449 -18235940.31949  20427021.0294   20427023.3904   20427020.677
        60.0004         56.0004
  -3345890.48547  -2557872.75946  24208498.2774   24208503.8994   24208497.116
        45.0004         40.0004
 -13614204.22449 -10552163.79148  22307254.6814   22307256.8014   22307254.924
        56.0004         51.0004
  -6801134.89348  -5242000.48247  24042417.4144   24042420.7494   24042417.418
        51.0004         46.0004
  -7241309.88147  -5610935.85546  24296977.2514   24296979.8974   24296978.544
        45.0004         40.0004
  -7623556.58447  -5899709.44946  23781330.3044   23781335.8834   23781330.038
        45.0004         41.0004
 -12212292.48148  -9432799.66847  21690201.6894   21690204.3134   21690202.225
        51.0004         46.0004
 -19921676.71849 -15483173.73348  21324784.0484   21324784.4774   21324784.835
        54.0004         49.0004
 20 11  6  1 17  0.0000000  0  8G05G06G29G15G07G30G13G02
 -23471508.53449 -18236682.52149  20426839.9704   20426842.1594   20426839.894
        60.0004         56.0004
  -3246869.38647  -2480713.51146  24227341.2044   24227347.0254   24227340.480
        45.0004         40.0004
 -13638636.50749 -10571201.92948  22302604.6704   22302607.7664   22302604.430
        56.0004         51.0004
  -6916093.65248  -5331578.70947  24020541.3884   24020544.4434   24020540.735
        51.0004         46.0004
  -7247607.54247  -5615843.09746  24295779.0074   24295781.4214   24295779.169
        45.0004         40.0004
  -7673722.83547  -5938799.98146  23771784.5154   23771789.4184   23771784.287
        46.0004         41.0004
 -12297635.53148  -9499300.72947  21673961.8974   21673964.1484   21673961.543
        51.0004         46.0004
 -19886606.42249 -15455846.24248  21331458.0024   21331458.4884   21331458.310
        54.0004         49.0004
 20 11  6  1 17 30.0000000  0  8G05G06G29G15G07G30G13G02
 -23472124.14649 -18237162.22249  20426722.8084   20426724.9494   20426722.710
        60.0004         56.0004
  -3147674.33447  -2403418.70446  24246217.7584   24246224.3214   24246217.963
        44.0004         39.0004
 -13662453.35449 -10589760.50848  22298072.6664   22298075.8834   22298072.263
        56.0004         51.0004
  -7030899.53948  -5421037.81647  23998694.4684   23998698.1234   23998693.568
        50.0004         45.0004
  -7253411.72947  -5620365.79346  24294673.7104   24294677.5694   24294673.504
        45.0004         40.0004
  -7723482.07747  -5977573.37046  23762314.9794   23762321.1424   23762315.673
        46.0004         41.0004
 -12382566.34048  -9565480.56347  21657799.6604   21657802.1534   21657799.328
        51.0004         46.0004
 -19851124.65349 -15428198.12048  21338209.8364   21338210.3054   21338210.246
        54.0004         49.0004
 20 11  6  1 18  0.0000000  0  8G05G06G29G15G07G30G13G02
 -23472403.11949 -18237379.60749  20426669.7274   20426671.9264   20426669.848
        60.0004         56.0004
  -3048306.62947  -2325989.38346  24265127.1704   24265133.8644   24265127.735
        44.0004         40.0004
 -13685654.02149 -10607838.94248  22293657.8254   22293660.8464   22293657.938
        56.0004         51.0004
  -7145550.39948  -5510376.09547  23976877.4164   23976880.6944   23976878.126
        50.0004         45.0004
  -7258721.46847  -5624503.22646  24293664.2424   24293666.1974   24293663.745
        45.0004         40.0004
  -7772831.86047  -6016027.71946  23752924.4964   23752929.4714   23752923.099
        45.0004         41.0004
 -12467082.62048  -9631337.38847  21641716.8744   21641719.3704   21641717.317
        51.0004         46.0004
 -19815231.50049 -15400229.44248  21345040.0094   21345040.8654   21345040.790
        54.0004         49.0004
 20 11  6  1 18 30.0000000  0  8G05G06G29G15G07G30G13G02
 -23472345.91649 -18237335.03649  20426680.4504   20426682.7164   20426680.169
        60.0004         56.0004
  -2948767.55047  -2248426.53346  24284068.1934   24284075.2474   24284068.883
        44.0004         39.0004
 -13708237.64549 -10625436.57048  22289360.1644   22289363.0994   22289360.020
        56.0004         51.0004
  -7260044.14248  -5599591.97947  23955090.1434   23955093.3374   23955090.364
        50.0004         45.0004
  -7263535.98347  -5628254.74646  24292748.0754   24292750.7664   24292746.850
        45.0004         41.0004
  -7821769.89847  -6054161.22046  23743611.0914   23743617.1844   23743611.437
        45.0004         41.0004
 -12551182.02148  -9696869.36047  21625713.2954   21625715.3554   21625713.082
        51.0004         46.0004
 -19778926.73549 -15371940.03048  21351948.6284   21351949.5934   21351949.158
        54.0004         49.0004
 20 11  6  1 19  0.0000000  0  8G05G06G29G15G07G30G13G02
 -23471952.60349 -18237028.56649  20426755.5304   20426757.6874   20426755.317
        60.0004         56.0004
  -2849058.37447  -2170731.12246  24303042.1754   24303049.1054   24303041.185
        44.0004         39.0004
 -13730203.35249 -10642552.69948  22285180.3364   22285183.0874   22285180.191
        56.0004         51.0004
  -7374378.54948  -5688683.71547  23933332.1854   23933335.4594   23933330.618
        49.0004         43.0004
  -7267855.03647  -5631620.21246  24291924.6694   24291928.5474   24291925.103
        45.0004         41.0004
  -7870293.90147  -6091972.10946  23734377.6144   23734384.1574   23734377.084
        45.0004         41.0004
 -12634862.45248  -9762074.87847  21609789.7264   21609792.2134   21609789.894
        51.0004         46.0004
 -19742210.68349 -15343330.13248  21358935.4134   21358936.2604   21358936.201
        54.0004         49.0004
 20 11  6  1 19 30.0000000  0  8G05G06G29G15G07G30G13G02
 -23471223.68149 -18236460.57649  20426894.0884   20426896.3694   20426894.011
        60.0004         56.0004
  -2749180.32847  -2092904.12546  24322048.6354   24322055.7654   24322048.014
        43.0004         39.0004
 -13751550.22849 -10659186.62848  22281118.4534   22281120.5794   22281118.485
        56.0004         51.0004
  -7488551.50348  -5777649.64247  23911606.4214   23911608.5834   23911606.363
        48.0004         43.0004
  -7271677.83147  -5634598.98546  24291198.1404   24291200.9184   24291197.861
        46.0004         41.0004
  -7918401.59747  -6129458.63746  23725222.8074   23725228.6274   23725222.842
        45.0004         41.0004
 -12718121.95848  -9826952.38547  21593945.1884   21593948.2424   21593945.777
        51.0004         46.0004
 -19705083.13749 -15314399.58348  21366000.4244   21366001.5644   21366001.083
        54.0004         49.0004
 20 11  6  1 20  0.0000000  0  8G05G06G29G15G07G30G13G02
 -23470159.33049 -18235631.21449  20427096.7724   20427099.0714   20427096.613
        60.0004         56.0004
  -2649134.73547  -2014946.60346  24341087.3344   24341092.7694   24341085.306
        43.0004         38.0004
 -13772277.49849 -10675337.74348  22277174.3494   22277176.5264   22277174.676
        56.0004         51.0004
  -7602560.83448  -5866488.06047  23889911.0594   23889913.9184   23889909.915
        49.0004         44.0004
  -7275003.78547  -5637190.61646  24290565.5804   24290567.4344   24290565.198
        45.0004         41.0004
  -7966090.81447  -6166619.08346  23716148.6104   23716154.5514   23716148.127
        46.0004         41.0004
 -12800958.24348  -9891500.11947  21578182.4674   21578184.6424   21578182.827
        51.0004         46.0004
 -19667543.89249 -15285148.23948  21373144.4204   21373144.7784   21373144.879
        54.0004         49.0004
 20 11  6  1 20 30.0000000  0  8G05G06G29G15G07G30G13G02
 -23468759.85649 -18234540.72049  20427363.2064   20427365.2204   20427363.322
        60.0004         56.0004
  -2548922.85647  -1936859.48846  24360156.7874   24360163.6344   24360154.893
        43.0004         38.0004
 -13792384.46849 -10691005.51348  22273348.1494   22273350.3264   22273348.469
        56.0004         51.0004
  -7716404.89648  -5955197.70247  23868247.1994   23868250.2674   23868247.557
        50.0004         45.0004
  -7277832.50947  -5639394.78846  24290027.4584   24290028.1694   24290027.047
        45.0004         40.0004
  -8013359.25447  -6203451.65046  23707154.0394   23707158.9854   23707154.424
        46.0004         41.0004
 -12883369.06148  -9955716.31447  21562500.3244   21562502.8284   21562500.085
        51.0004         46.0004
 -19629592.91549 -15255576.06048  21380365.8544   21380366.5824   21380366.657
        54.0004         49.0004
 20 11  6  1 21  0.0000000  0  8G05G06G29G15G07G30G13G02
 -23467025.75249 -18233189.47049  20427693.0604   20427695.2594   20427692.862
        60.0004         56.0004
  -2448546.12147  -1858643.90046  24379258.0134   24379265.0724   24379256.711
        43.0004         38.0004
 -13811870.50249 -10706189.43748  22269640.0924   22269642.1134   22269640.394
        56.0004         51.0004
  -7830081.29648  -6043776.70047  23846615.2684   23846617.9694   23846615.086
        50.0004         45.0004
  -7280163.17247  -5641210.87846  24289582.9124   24289585.4194   24289583.613
        45.0004         40.0004
  -8060204.62547  -6239954.55146  23698238.9804   23698245.0164   23698238.546
        46.0004         41.0004
 -12965352.35148 -10019599.37547  21546899.3094   21546901.5764   21546899.585
        51.0004         47.0004
 -19591230.41049 -15225683.20948  21387665.9774   21387666.6934   21387666.955
        54.0004         49.0004
 20 11  6  1 21 30.0000000  0  8G05G06G29G15G07G30G13G02
 -23464957.13749 -18231577.56549  20428087.0114   20428089.0074   20428087.052
        60.0004         56.0004
  -2348005.74747  -1780300.81246  24398389.4414   24398397.2394   24398390.425
        43.0004         38.0004
 -13830735.16649 -10720889.17748  22266050.1874   22266052.5764   22266050.621
        56.0004         51.0004
  -7943588.18248  -6132223.62547  23825015.4484   23825018.1924   23825016.853
        50.0004         45.0004
  -7281995.17847  -5642638.42846  24289234.7994   24289236.6584   24289234.704
        45.0004         40.0004
  -8106624.65247  -6276126.01146  23689405.7254   23689412.1654   23689404.403
        46.0004         41.0004
 -13046906.07148 -10083147.71147  21531380.1624   21531382.7394   21531380.132
        51.0004         47.0004
 -19552456.41449 -15195469.72048  21395044.5324   21395045.2514   21395044.581
        54.0004         49.0004
 20 11  6  1 22  0.0000000  0  8G05G06G29G15G07G30G13G02
 -23462555.00649 -18229705.77149  20428544.0634   20428545.9824   20428543.866
        60.0004         56.0004
  -2247303.05747  -1701831.24146  24417551.6284   24417557.3664   24417552.443
        42.0004         36.0004
 -13848977.43049 -10735103.93348  22262578.7204   22262580.9814   22262578.904
        56.0004         51.0004
  -8056923.47548  -6220536.81347  23803448.9064   23803451.5964   23803449.044
        50.0004         46.0004
  -7283328.45847  -5643677.34746  24288981.8404   24288983.5804   24288979.817
        45.0004         40.0004
  -8152617.16947  -6311964.34547  23680652.6694   23680659.8604   23680653.980
        46.0004         42.0004
 -13128028.07448 -10146359.64047  21515943.1074   21515944.9624   21515943.134
        51.0004         47.0004
 -19513270.89349 -15164935.55648  21402501.4734   21402502.0744   21402502.001
        54.0004         49.0004
 20 11  6  1 22 30.0000000  0  8G05G06G29G15G07G30G13G02
 -23459819.01849 -18227573.83049  20429064.8074   20429066.5504   20429064.807
        60.0004         56.0004
  -2146439.33846  -1623236.17546  24436747.8484   24436751.4854   24436746.712
        41.0004         36.0004
 -13866596.89649 -10748833.39748  22259225.9314   22259227.9784   22259226.197
        56.0004         51.0004
  -8170085.07348  -6308714.66847  23781914.2944   23781917.4604   23781914.959
        51.0004         46.0004
  -7284162.22047  -5644327.03746  24288821.8644   24288825.3904   24288821.762
        45.0004         40.0004
  -8198180.00447  -6347467.84347  23671982.6984   23671989.2534   23671982.885
        46.0004         42.0004
 -13208716.40148 -10209233.64347  21500588.9184   21500590.8994   21500588.743
        52.0004         47.0004
 -19473673.97249 -15134080.82348  21410036.4714   21410037.1044   21410037.215
        54.0004         49.0004
 20 11  6  1 23  0.0000000  0  8G05G06G29G15G07G30G13G02
 -23456749.44949 -18225181.95649  20429648.9144   20429650.5324   20429648.610
        60.0004         56.0004
  -2045415.95146  -1544516.67946  24455970.8604   24455976.2024   24455968.112
        41.0004         36.0004
 -13883592.74449 -10762076.92048  22255991.8754   22255993.6654   22255991.012
        56.0004         51.0004
  -8283070.93848  -6396755.57147  23760413.9784   23760416.8644   23760414.140
        51.0004         46.0004
  -7284495.99647  -5644587.12746  24288759.7024   24288762.3564   24288759.140
        45.0004         41.0004
  -8243310.93847  -6382634.78246  23663394.6344   23663399.7524   23663394.705
        46.0004         41.0004
 -13288968.93448 -10271768.06547  21485317.5824   21485319.7434   21485316.793
        52.0004         47.0004
 -19433665.74049 -15102905.59048  21417649.5454   21417650.6104   21417650.242
        54.0004         49.0004
 20 11  6  1 23 30.0000000  0  8G05G06G29G15G07G30G13G02
 -23453347.26949 -18222530.90449  20430296.1964   20430298.0134   20430296.149
        60.0004         56.0004
  -1944234.21646  -1465673.84146  24475225.3534   24475232.8924   24475224.853
        41.0004         37.0004
 -13899964.56749 -10774834.19048  22252876.7014   22252878.8374   22252876.383
        56.0004         52.0004
  -8395878.95248  -6484657.90047  23738947.7104   23738950.5564   23738946.246
        51.0004         46.0004
  -7284329.33647  -5644457.29246  24288791.0484   24288792.6034   24288790.991
        45.0004         41.0004
  -8288007.84747  -6417463.51547  23654889.8704   23654894.9464   23654889.644
        46.0004         42.0004
 -13368783.67448 -10333961.34947  21470128.5364   21470131.4074   21470128.453
        52.0004         47.0004
 -19393246.26949 -15071409.90948  21425341.1014   21425342.3494   21425342.030
        54.0004         49.0004
 20 11  6  1 24  0.0000000  0  8G05G06G29G15G07G30G13G02
 -23449612.28349 -18219620.52349  20431006.8994   20431008.7684   20431006.941
        60.0004         56.0004
  -1842895.48747  -1386708.64946  24494510.0844   24494516.8684   24494508.328
        42.0004         38.0004
 -13915711.94349 -10787104.88548  22249879.6524   22249882.0484   22249879.228
        56.0004         51.0004
  -8508507.23948  -6572420.16147  23717514.4544   23717517.7464   23717513.975
        51.0004         46.0004
  -7283662.03147  -5643937.34446  24288918.1904   24288920.6204   24288917.523
        46.0004         41.0004
  -8332268.59347  -6451952.37147  23646467.3234   23646471.7164   23646467.798
        46.0004         42.0004
 -13448158.26548 -10395811.66247  21455024.4344   21455027.0054   21455023.978
        52.0004         47.0004
 -19352415.64849 -15039593.85648  21433110.7354   21433111.7134   21433111.156
        54.0004         49.0004
 20 11  6  1 24 30.0000000  0  8G05G06G29G15G07G30G13G02
 -23445544.57849 -18216450.88049  20431781.0114   20431782.8244   20431780.509
        60.0004         56.0004
  -1741401.16247  -1307622.21946  24513823.3094   24513829.8994   24513823.528
        43.0004         38.0004
 -13930834.29449 -10798888.55248  22247002.5664   22247004.2864   22247003.670
        56.0004         52.0004
  -8620953.56548  -6660040.63247  23696115.8784   23696119.6894   23696115.026
        51.0004         46.0004
  -7282493.48547  -5643026.82846  24289140.9134   24289142.4524   24289141.065
        46.0004         41.0004
  -8376091.02047  -6486099.68946  23638127.5744   23638133.5964   23638127.552
        46.0004         41.0004
 -13527091.04748 -10457317.72447  21440003.9424   21440006.2364   21440004.235
        52.0004         47.0004
 -19311173.93449 -15007457.47048  21440958.9944   21440959.9714   21440959.283
        54.0004         49.0004
 20 11  6  1 25  0.0000000  0  8G05G06G29G15G07G30G13G02
 -23441145.09449 -18213022.70949  20432617.8174   20432619.8584   20432617.729
        60.0004         56.0004
  -1639752.54647  -1228415.56346  24533166.5834   24533172.8114   24533166.767
        44.0004         39.0004
 -13945330.95449 -10810184.65648  22244244.0084   22244245.6424   22244244.292
        56.0004         52.0004
  -8733216.12248  -6747517.89047  23674753.5914   23674757.3464   23674753.845
        51.0004         46.0004
  -7280823.43647  -5641725.51446  24289458.5924   24289461.3984   24289458.830
        46.0004         41.0004
  -8419473.02747  -6519903.80846  23629872.2214   23629876.5704   23629872.535
        46.0004         41.0004
 -13605579.94448 -10518477.89347  21425067.9524   21425070.0304   21425067.722
        52.0004         47.0004
 -19269521.05049 -14975000.69448  21448885.4344   21448886.3304   21448886.091
        54.0004         49.0004
 20 11  6  1 25 30.0000000  0  8G05G06G29G15G07G30G13G02
 -23436414.03849 -18209336.17149  20433518.0784   20433520.2884   20433517.758
        60.0004         56.0004
  -1537950.92847  -1149089.68446  24552538.3244   24552545.8294   24552538.440
        44.0004         39.0004
 -13959201.55849 -10820992.92248  22241604.4764   22241606.1124   22241604.699
        56.0004         52.0004
  -8845292.86248  -6834850.35647  23653425.9384   23653429.7144   23653424.383
        51.0004         46.0004
  -7278651.47647  -5640033.12646  24289871.4894   24289874.3754   24289871.153
        46.0004         41.0004
  -8462412.47047  -6553363.04746  23621701.4754   23621706.1434   23621701.482
        46.0004         41.0004
 -13683622.78648 -10579290.48347  21410216.6224   21410218.9394   21410216.497
        52.0004         47.0004
 -19227457.37249 -14942223.81748  21456889.9224   21456890.5644   21456890.434
        54.0004         49.0004
 20 11  6  1 26  0.0000000  0  8G05G06G29G15G07G30G13G02
 -23431351.62949 -18205391.43449  20434481.4774   20434483.5484   20434481.165
        60.0004         56.0004
  -1435997.70347  -1069645.66046  24571939.6604   24571946.4214   24571939.649
        44.0004         40.0004
 -13972445.69149 -10831313.03548  22239084.0744   22239085.6594   22239083.924
        56.0004         51.0004
  -8957181.56048  -6922036.27647  23632133.8104   23632137.4284   23632134.114
        51.0004         46.0004
  -7275977.19447  -5637949.33346  24290380.3644   24290384.2624   24290379.425
        46.0004         41.0004
  -8504907.35547  -6586475.88347  23613615.4214   23613620.5264   23613615.448
        46.0004         42.0004
 -13761217.85148 -10639754.17447  21395450.9024   21395453.6624   21395450.477
        52.0004         47.0004
 -19184982.93048 -14909126.86448  21464972.3574   21464973.0744   21464972.955
        53.0004         49.0004
 20 11  6  1 26 30.0000000  0  8G05G06G29G15G07G30G13G02
 -23425958.48549 -18201188.98649  20435507.7394   20435509.9314   20435507.607
        60.0004         56.0004
  -1333894.19447   -990084.54546  24591369.7404   24591376.4274   24591369.214
        44.0004         39.0004
 -13985062.89849 -10841144.63648  22236682.5724   22236684.7254   22236682.887
        56.0004         51.0004
  -9068879.80548  -7009073.81047  23610879.0194   23610882.4554   23610878.958
        51.0004         46.0004
  -7272800.26947  -5635473.87546  24290984.3774   24290987.0724   24290984.950
        46.0004         41.0004
  -8546955.48147  -6619240.61047  23605613.1334   23605618.9334   23605613.027
        47.0004         42.0004
 -13838362.82248 -10699867.13347  21380770.9384   21380773.1884   21380770.800
        52.0004         47.0004
 -19142097.83548 -14875709.92248  21473133.0534   21473134.0144   21473133.859
        53.0004         49.0004
 20 11  6  1 27  0.0000000  0  8G05G06G29G15G07G30G13G02
 -23420234.62449 -18196728.83649  20436597.1834   20436599.2824   20436596.946
        60.0004         56.0004
  -1231641.74547   -910407.39046  24610828.2194   24610834.9104   24610826.725
        44.0004         40.0004
 -13997052.92549 -10850487.51848  22234400.7994   22234403.3164   22234400.967
        56.0004         51.0004
  -9180386.17048  -7095961.82047  23589659.6524   23589663.6364   23589659.373
        51.0004         46.0004
  -7269120.56147  -5632606.61446  24291684.6574   24291688.3654   24291684.913
        45.0004         41.0004
  -8588554.99447  -6651655.77347  23597696.9344   23597702.9464   23597697.575
        47.0004         42.0004
 -13915056.00148 -10759628.04047  21366176.6434   21366179.7564   21366176.077
        52.0004         47.0004
 -19098802.55848 -14841973.36448  21481372.0704   21481372.7124   21481372.652
        53.0004         49.0004
 20 11  6  1 27 30.0000000  0  8G05G06G29G15G07G30G13G02
 -23414180.50049 -18192011.33349  20437749.3534   20437751.3244   20437749.110
        60.0004         56.0004
  -1129241.85747   -830615.31546  24630313.7714   24630321.0594   24630312.865
        44.0004         40.0004
 -14008415.25049 -10859341.27148  22232238.6904   22232241.1204   22232238.858
        56.0004         52.0004
  -9291698.44948  -7182698.57847  23568477.5634   23568480.9204   23568476.865
        51.0004         46.0004
  -7264937.68547  -5629347.28246  24292481.8894   24292482.9714   24292481.143
        45.0004         41.0004
  -8629703.68247  -6683719.63547  23589866.6884   23589871.6714   23589866.660
        47.0004         42.0004
 -13991295.32048 -10819035.29847  21351668.6464   21351670.9744   21351669.415
        52.0004         47.0004
 -19055097.13148 -14807917.21148  21489688.8264   21489689.9194   21489689.287
        53.0004         49.0004
 20 11  6  1 28  0.0000000  0  8G05G06G29G15G07G30G13G02
 -23407796.56049 -18187036.83749  20438964.2854   20438966.0704   20438964.065
        60.0004         56.0004
  -1026695.80447   -750709.39546  24649827.3654   24649834.7534   24649826.320
        44.0004         39.0004
 -14019149.72649 -10867705.80848  22230196.1754   22230198.2674   22230196.559
        56.0004         52.0004
  -9402814.81448  -7269282.69547  23547333.1534   23547336.8984   23547331.733
        51.0004         46.0004
  -7260251.15247  -5625695.47246  24293372.6084   24293375.9314   24293371.802
        45.0004         41.0004
  -8670399.54547  -6715430.64747  23582121.5974   23582127.9814   23582123.128
        46.0004         42.0004
 -14067079.02148 -10878087.52747  21337247.5334   21337249.6304   21337246.888
        52.0004         47.0004
 -19010981.73548 -14773541.59948  21498083.7924   21498084.7944   21498084.601
        53.0004         49.0004
 20 11  6  1 28 30.0000000  0  8G05G06G29G15G07G30G13G02
 -23401083.24749 -18181805.68049  20440241.7314   20440243.6434   20440241.578
        60.0004         56.0004
   -924004.94647   -670690.61246  24669368.7434   24669376.2024   24669368.719
        43.0004         38.0004
 -14029255.93849 -10875580.78348  22228272.9124   22228275.1684   22228273.038
        56.0004         52.0004
  -9513733.14248  -7355712.47347  23526225.8624   23526229.2004   23526226.518
        51.0004         47.0004
  -7255060.83747  -5621651.07046  24294360.0884   24294363.2184   24294360.149
        45.0004         41.0004
  -8710640.65947  -6746787.33346  23574464.1654   23574469.8764   23574464.542
        46.0004         41.0004
 -14142404.91748 -10936783.03147  21322913.4524   21322915.4824   21322913.806
        52.0004         47.0004
 -18966456.54948 -14738846.66848  21506556.7154   21506557.8264   21506557.287
        53.0004         49.0004
 20 11  6  1 29  0.0000000  0  8G05G06G29G15G07G30G13G02
 -23394040.45649 -18176317.78849  20441581.7714   20441583.9214   20441581.514
        60.0004         56.0004
   -821170.76747   -590560.15946  24688939.4064   24688944.7074   24688936.705
        43.0004         38.0004
 -14038733.77249 -10882966.10848  22226469.4384   22226471.7874   22226469.158
        56.0004         52.0004
  -9624451.17448  -7441986.18847  23505157.2174   23505160.1744   23505157.846
        51.0004         47.0004
  -7249367.03547  -5617214.34646  24295445.0874   24295447.6914   24295443.684
        46.0004         41.0004
  -8750424.95047  -6777788.06347  23566893.8864   23566899.2294   23566894.427
        46.0004         42.0004
 -14217271.33648 -10995120.49547  21308667.1624   21308669.0564   21308666.925
        52.0004         47.0004
 -18921521.78748 -14703832.58748  21515107.4994   21515108.2794   21515108.121
        53.0004         49.0004
 20 11  6  1 29 30.0000000  0  8G05G06G29G15G07G30G13G02
 -23386668.98849 -18170573.78049  20442984.5604   20442986.7984   20442984.501
        60.0004         56.0004
   -718194.50447   -510319.01446  24708533.2534   24708539.3004   24708533.246
        43.0004         38.0004
 -14047582.90749 -10889861.54348  22224785.4904   22224788.3474   22224785.741
        56.0004         52.0004
  -9734967.06348  -7528102.38847  23484126.8844   23484129.9674   23484126.872
        51.0004         47.0004
  -7243169.06847  -5612384.73546  24296623.0144   24296626.7764   24296622.662
        46.0004         41.0004
  -8789750.44947  -6808431.27047  23559410.9964   23559416.3464   23559411.107
        46.0004         42.0004
 -14291676.26748 -11053098.35447  21294508.1484   21294510.3144   21294508.215
        52.0004         47.0004
 -18876177.54448 -14668499.43648  21523736.2814   21523737.6564   21523736.865
        53.0004         49.0004
 20 11  6  1 30  0.0000000  0  8G05G06G29G15G07G30G13G02
 -23378969.04649 -18164573.82649  20444449.7124   20444452.1384   20444449.557
        60.0004         56.0004
   -615077.67447   -429968.32146  24728154.7184   24728162.0484   24728155.077
        42.0004         37.0004
 -14055802.72949 -10896266.60648  22223221.0664   22223223.8934   22223221.376
        56.0004         52.0004
  -9845278.76648  -7614059.48147  23463135.2684   23463138.2854   23463134.857
        51.0004         47.0004
  -7236466.76047  -5607162.14346  24297898.4814   24297901.9854   24297899.310
        46.0004         41.0004
  -8828615.28147  -6838715.54946  23552013.6564   23552019.8064   23552014.262
        46.0004         41.0004
 -14365617.82548 -11110715.14448  21280437.5134   21280439.8224   21280437.285
        52.0004         48.0004
 -18830424.06648 -14632847.40148  21532442.6634   21532443.8834   21532443.415
        53.0004         49.0004
 20 11  6  1 30 30.0000000  0  8G05G06G29G15G07G30G13G02
 -23370941.00649 -18158318.20649  20445977.3944   20445979.6254   20445977.345
        60.0004         56.0004
   -511821.54347   -349509.13446  24747805.0384   24747812.6514   24747804.728
        42.0004         37.0004
 -14063393.20349 -10902181.26148  22221776.3274   22221779.8104   22221776.308
        56.0004         52.0004
  -9955384.14248  -7699855.81747  23442182.9984   23442185.6904   23442182.032
        51.0004         47.0004
  -7229259.71947  -5601546.23046  24299269.9674   24299272.8164   24299269.764
        46.0004         41.0004
  -8867017.48947  -6868639.33746  23544707.2274   23544712.8844   23544707.678
        46.0004         41.0004
 -14439094.22648 -11167969.47748  21266455.2854   21266457.6684   21266455.684
        52.0004         48.0004
 -18784262.28148 -14596877.19448  21541227.0444   21541228.5604   21541227.815
        53.0004         49.0004
 20 11  6  1 31  0.0000000  0  8G05G06G29G15G07G30G13G02
 -23362585.00149 -18151807.03049  20447567.2574   20447569.8514   20447566.986
        60.0004         56.0004
   -408427.70747   -268942.56046  24767479.8744   24767487.1154   24767477.080
        42.0004         37.0004
 -14070354.58549 -10907605.71548  22220452.0544   22220455.1144   22220452.391
        56.0004         52.0004
 -10065281.42748  -7785490.00847  23421270.0594   23421273.1994   23421269.098
        52.0004         47.0004
  -7221548.38547  -5595537.39846  24300737.7964   24300739.9754   24300736.461
        46.0004         41.0004
  -8904955.12647  -6898201.14847  23537488.2814   23537494.1504   23537488.248
        46.0004         42.0004
 -14512103.64748 -11224859.92648  21252562.1854   21252564.7024   21252562.478
        52.0004         48.0004
 -18737691.94548 -14560588.64848  21550089.6124   21550090.2464   21550089.646
        53.0004         49.0004
 20 11  6  1 31 30.0000000  0  8G05G06G29G15G07G30G13G02
 -23353901.49049 -18145040.65049  20449219.7434   20449222.2264   20449219.348
        60.0004         56.0004
   -304897.53147   -188269.77346  24787181.9854   24787189.5444   24787180.601
        42.0004         37.0004
 -14076686.39149 -10912539.59148  22219246.9574   22219250.0754   22219246.722
        56.0004         52.0004
 -10174968.58448  -7870960.46248  23400397.3174   23400400.3804   23400396.362
        52.0004         48.0004
  -7213332.04247  -5589135.01246  24302300.9844   24302303.4214   24302299.793
        46.0004         41.0004
  -8942426.26647  -6927399.47447  23530357.3154   23530363.4464   23530358.214
        46.0004         42.0004
 -14584644.24148 -11281385.05948  21238758.1254   21238760.4794   21238758.126
        52.0004         48.0004
 -18690713.30948 -14523981.93948  21559028.9254   21559030.0374   21559029.921
        53.0004         49.0004
 20 11  6  1 32  0.0000000  0  8G05G06G29G15G07G30G13G02
 -23344890.85349 -18138019.37349  20450934.3724   20450936.7824   20450934.125
        60.0004         56.0004
   -201232.25047   -107491.72946  24806909.8534   24806915.4894   24806909.202
        42.0004         37.0004
 -14082388.45749 -10916982.74948  22218161.3024   22218164.7754   22218161.420
        56.0004         51.0004
 -10284443.38748  -7956265.46548  23379564.2204   23379568.0494   23379563.976
        52.0004         48.0004
  -7204610.87347  -5582339.26247  24303960.5684   24303962.9814   24303961.028
        46.0004         42.0004
  -8979428.98447  -6956232.78246  23523315.9874   23523321.9844   23523315.329
        46.0004         41.0004
 -14656714.21348 -11337543.47348  21225043.8744   21225045.8174   21225043.907
        52.0004         48.0004
 -18643326.76948 -14487057.38748  21568046.0034   21568047.3864   21568047.097
        53.0004         49.0004
 20 11  6  1 32 30.0000000  0  8G05G06G29G15G07G30G13G02
 -23335553.49749 -18130743.50949  20452711.2944   20452713.5934   20452710.987
        60.0004         56.0004
    -97433.41547    -26609.62346  24826661.1904   24826666.5454   24826660.805
        42.0004         37.0004
 -14087460.87149 -10920935.28948  22217196.2894   22217199.3374   22217196.457
        56.0004         51.0004
 -10393704.13048  -8041403.67148  23358773.3754   23358776.2824   23358773.521
        53.0004         48.0004
  -7195385.06747  -5575150.31646  24305716.4064   24305718.1294   24305715.019
        46.0004         41.0004
  -9015961.43747  -6984699.67346  23516363.7724   23516369.2074   23516364.701
        46.0004         41.0004
 -14728311.66248 -11393333.68248  21211418.9384   21211421.4474   21211419.339
        52.0004         48.0004
 -18595532.58748 -14449815.18648  21577140.8964   21577142.3284   21577141.305
        53.0004         48.0004
 20 11  6  1 33  0.0000000  0  8G05G06G29G15G07G30G13G02
 -23325889.87749 -18123213.41049  20454550.0914   20454552.5174   20454549.938
        60.0004         56.0004
      6497.57947     54375.49846  24846440.0214   24846443.6564   24846438.232
        42.0004         37.0004
 -14091903.73649 -10924397.26648  22216351.0344   22216354.0564   22216350.894
        56.0004         51.0004
 -10502748.63848  -8126373.39047  23338022.5674   23338025.3374   23338022.990
        52.0004         47.0004
  -7185654.50047  -5567568.04447  24307567.8114   24307570.1544   24307568.273
        46.0004         42.0004
  -9052021.88847  -7012798.75846  23509502.8944   23509506.5454   23509503.141
        46.0004         41.0004
 -14799435.06048 -11448754.50048  21197884.8394   21197887.1514   21197884.122
        52.0004         48.0004
 -18547331.20948 -14412255.68948  21586313.8014   21586314.4604   21586313.841
        53.0004         48.0004
 20 11  6  1 33 30.0000000  0  8G05G06G29G15G07G30G13G02
 -23315900.23349 -18115429.27249  20456451.0444   20456453.3294   20456450.732
        60.0004         56.0004
    110559.32146    135462.52246  24866240.5824   24866246.4464   24866240.597
        41.0004         37.0004
 -14095716.78849 -10927368.46448  22215625.8464   22215628.3104   22215625.393
        56.0004         52.0004
 -10611574.92748  -8211173.07947  23317313.6204   23317316.5084   23317313.728
        52.0004         47.0004
  -7175418.86647  -5559592.23947  24309516.3154   24309518.3994   24309517.092
        46.0004         42.0004
  -9087608.33047  -7040528.50047  23502730.7354   23502735.7874   23502730.770
        46.0004         42.0004
 -14870082.33048 -11503804.30848  21184440.7614   21184443.4864   21184441.037
        52.0004         48.0004
 -18498722.99848 -14374379.18348  21595563.8074   21595564.3094   21595564.619
        53.0004         49.0004
 20 11  6  1 34  0.0000000  0  8G05G06G29G15G07G30G13G02
 -23305584.87649 -18107391.32949  20458414.1464   20458416.4164   20458414.036
        60.0004         56.0004
    214750.29646    216650.24046  24886067.9414   24886073.1184   24886067.014
        41.0004         36.0004
 -14098900.03149 -10929848.91148  22215020.4624   22215022.3334   22215020.537
        56.0004         52.0004
 -10720181.25748  -8295801.35047  23296646.4744   23296649.5114   23296646.774
        52.0004         47.0004
  -7164678.34147  -5551222.99547  24311559.5354   24311562.1384   24311560.514
        46.0004         42.0004
  -9122718.99947  -7067887.50646  23496048.5724   23496054.5044   23496048.354
        46.0004         41.0004
 -14940251.79248 -11558481.79748  21171088.2944   21171090.4864   21171088.010
        52.0004         48.0004
 -18449708.27448 -14336185.90648  21604890.7154   21604891.7974   21604890.845
        53.0004         48.0004
 20 11  6  1 34 30.0000000  0  8G05G06G29G15G07G30G13G02
 -23294944.33349 -18099099.99949  20460438.7804   20460441.1514   20460438.593
        60.0004         56.0004
    319069.28246    297937.70446  24905919.8614   24905925.4984   24905919.317
        41.0004         37.0004
 -14101453.91949 -10931838.94348  22214534.2764   22214535.9234   22214534.272
        56.0004         52.0004
 -10828565.42748  -8380256.54447  23276021.3544   23276023.9844   23276021.025
        52.0004         47.0004
  -7153432.74747  -5542460.19747  24313700.7414   24313701.3364   24313700.234
        46.0004         42.0004
  -9157352.06547  -7094874.36047  23489458.0294   23489464.0064   23489457.255
        46.0004         42.0004
 -15009941.77348 -11612785.65948  21157826.5444   21157828.9964   21157826.784
        53.0004         48.0004
 -18400287.15248 -14297675.95848  21614295.1274   21614296.2234   21614295.553
        53.0004         48.0004
 20 11  6  1 35  0.0000000  0  8G05G06G29G15G07G30G13G02
 -23283978.98849 -18090555.58049  20462525.6584   20462527.6974   20462525.179
        60.0004         56.0004
    423514.62347    379323.61046  24925793.9784   24925801.1534   24925794.513
        42.0004         37.0004
 -14103378.27649 -10933338.43848  22214167.2114   22214170.2534   22214167.410
        56.0004         51.0004
 -10936725.64648  -8464537.23347  23255439.2464   23255441.9324   23255438.816
        52.0004         47.0004
  -7141682.30947  -5533304.01547  24315935.5984   24315939.8214   24315935.813
        46.0004         42.0004
  -9191505.77047  -7121487.66447  23482959.7214   23482964.4024   23482961.219
        46.0004         42.0004
 -15079150.56848 -11666714.57248  21144656.9044   21144659.0184   21144656.827
        53.0004         48.0004
 -18350460.54048 -14258850.04648  21623777.0054   21623777.8384   21623777.717
        53.0004         48.0004
 20 11  6  1 35 30.0000000  0  8G05G06G29G15G07G30G13G02
 -23272688.97849 -18081758.17049  20464673.9444   20464676.2274   20464673.499
        60.0004         56.0004
    528085.04547    460807.01846  24945693.3884   24945700.2924   24945692.338
        42.0004         37.0004
 -14104672.81549 -10934347.17648  22213921.6494   22213923.6834   22213921.616
        56.0004         52.0004
 -11044659.85648  -8548641.79748  23234900.3614   23234903.0334   23234900.183
        52.0004         48.0004
  -7129426.89947  -5523754.33846  24318267.6544   24318271.4794   24318266.874
        46.0004         41.0004
  -9225178.25047  -7147725.98747  23476552.0864   23476557.1144   23476551.913
        47.0004         42.0004
 -15147876.33548 -11720267.10248  21131578.3454   21131581.0524   21131579.043
        53.0004         48.0004
 -18300228.51448 -14219708.22348  21633335.8854   21633337.1104   21633336.257
        53.0004         48.0004
 20 11  6  1 36  0.0000000  0  8G05G06G29G15G07G30G13G02
 -23261074.63949 -18072708.04449  20466884.1764   20466886.3484   20466883.750
        60.0004         56.0004
    632778.88147    542386.57246  24965615.6444   24965623.2044   24965615.432
        42.0004         37.0004
 -14105337.88849 -10934865.42048  22213794.8384   22213797.1634   22213795.328
        56.0004         52.0004
 -11152365.91448  -8632568.55948  23214404.3494   23214407.2154   23214403.155
        52.0004         48.0004
  -7116666.81447  -5513811.42446  24320696.3224   24320699.0004   24320696.587
        46.0004         41.0004
  -9258367.86747  -7173588.04147  23470235.4244   23470241.4634   23470234.955
        47.0004         42.0004
 -15216117.42048 -11773441.95648  21118592.7074   21118595.1354   21118592.743
        53.0004         48.0004
 -18249591.53948 -14180250.85948  21642971.3504   21642972.7184   21642972.414
        53.0004         48.0004
 20 11  6  1 36 30.0000000  0  8G05G06G29G15G07G30G13G02
 -23249136.35849 -18063405.48749  20469156.1124   20469158.1154   20469156.206
        60.0004         56.0004
    737594.91347    624061.34246  24985561.7474   24985568.4334   24985561.382
        42.0004         37.0004
 -14105373.67249 -10934893.30348  22213788.3784   22213790.4904   22213788.814
        56.0004         52.0004
 -11259841.97848  -8716316.12748  23193952.2794   23193955.2184   23193952.383
        52.0004         48.0004
  -7103401.93047  -5503475.16846  24323219.6374   24323222.2614   24323219.110
        45.0004         41.0004
  -9291072.85447  -7199072.45247  23464012.6304   23464018.1854   23464012.605
        47.0004         42.0004
 -15283872.28248 -11826237.93048  21105699.4194   21105701.7904   21105699.446
        53.0004         48.0004
 -18198550.23548 -14140478.42548  21652684.9074   21652685.5404   21652685.153
        53.0004         48.0004
 20 11  6  1 37  0.0000000  0  8G05G06G29G15G07G30G13G02
 -23236874.91049 -18053851.11249  20471489.4814   20471491.4454   20471489.467
        60.0004         56.0004
    842531.55547    705830.10246  25005532.1274   25005536.1604   25005532.715
        42.0004         37.0004
 -14104780.22949 -10934430.88448  22213901.2664   22213903.6604   22213901.918
        56.0004         52.0004
 -11367086.12048  -8799882.96748  23173544.5844   23173547.4394   23173544.157
        52.0004         48.0004
  -7089632.72547  -5492745.93146  24325840.7344   24325843.7924   24325840.797
        45.0004         41.0004
  -9323291.51347  -7224177.89047  23457881.5974   23457886.8994   23457881.240
        47.0004         42.0004
 -15351139.53048 -11878653.94548  21092899.0614   21092901.3544   21092898.888
        53.0004         48.0004
 -18147104.34948 -14100390.74048  21662474.4994   21662475.2684   21662475.183
        53.0004         48.0004
 20 11  6  1 37 30.0000000  0  8G05G06G29G15G07G30G13G02
 -23224290.39049 -18044044.99549  20473884.1484   20473886.2394   20473883.864
        60.0004         56.0004
    947587.47547    787691.81946  25025522.8984   25025529.8044   25025523.206
        42.0004         37.0004
 -14103557.79749 -10933478.34448  22214133.5644   22214136.2204   22214133.950
        56.0004         52.0004
 -11474096.31348  -8883267.49948  23153181.0764   23153184.9294   23153180.240
        53.0004         48.0004
  -7075358.92447  -5481623.50446  24328556.4284   24328560.0014   24328556.978
        45.0004         40.0004
  -9355022.14147  -7248903.03047  23451843.1734   23451848.8304   23451843.524
        47.0004         42.0004
 -15417917.08148 -11930688.38848  21080191.5274   21080193.6204   21080191.579
        53.0004         48.0004
 -18095255.20348 -14059988.81748  21672340.8384   21672342.0294   21672341.321
        53.0004         48.0004
 20 11  6  1 38  0.0000000  0  8G05G06G29G15G07G30G13G02
 -23211382.81349 -18033987.14549  20476340.3664   20476342.5494   20476339.972
        60.0004         56.0004
   1052761.13147    869645.26846  25045536.3314   25045543.8804   25045535.806
        42.0004         37.0004
 -14101706.76449 -10932035.98448  22214485.7944   22214488.5164   22214485.999
        56.0004         52.0004
 -11580870.46248  -8966468.11848  23132862.5774   23132865.4954   23132862.560
        53.0004         48.0004
  -7060580.68347  -5470107.99746  24331367.5804   24331371.3704   24331367.294
        45.0004         40.0004
  -9386263.03947  -7273246.55447  23445897.6794   23445903.3984   23445897.633
        47.0004         42.0004
 -15484203.57948 -11982340.18248  21067577.6744   21067579.9954   21067577.670
        53.0004         48.0004
 -18043002.69748 -14019272.59548  21682284.2044   21682285.7224   21682284.887
        53.0004         48.0004
 20 11  6  1 38 30.0000000  0  8G05G06G29G15G07G30G13G02
 -23198152.75249 -18023678.01149  20478858.1974   20478860.1604   20478857.926
        60.0004         56.0004
   1158051.11146    951689.37346  25065570.4874   25065580.5534   25065569.965
        41.0004         37.0004
 -14099227.38549 -10930104.02048  22214957.6974   22214960.3504   22214957.337
        56.0004         51.0004
 -11687406.78048  -9049483.39948  23112589.1974   23112592.9194   23112589.085
        53.0004         48.0004
  -7045298.23647  -5458199.59846  24334276.9334   24334279.0794   24334277.088
        45.0004         40.0004
  -9417012.55147  -7297207.18347  23440046.0434   23440052.2584   23440046.953
        47.0004         42.0004
 -15549997.23848 -12033607.95048  21055057.8444   21055059.7724   21055057.711
        53.0004         48.0004
 -17990347.61948 -13978242.67848  21692304.1124   21692305.2934   21692304.833
        53.0004         48.0004
 20 11  6  1 39  0.0000000  0  9G05G06G29G15G07G30G18G13G02
 -23184600.81949 -18013118.06649  20481436.8424   20481438.8164   20481436.633
        60.0004         56.0004
   1263455.78146   1033822.82046  25085628.6024   25085636.5294   25085627.776
        41.0004         36.0004
 -14096120.09649 -10927682.76248  22215549.3594   22215551.6424   22215549.801
        56.0004         52.0004
 -11793703.37948  -9132311.87348  23092361.2134   23092364.7344   23092360.550
        53.0004         48.0004
  -7029511.60547  -5445898.34046  24337279.0404   24337283.4934   24337279.192
        45.0004         40.0004
  -9447269.16247  -7320783.73047  23434289.3144   23434295.2684   23434290.009
        47.0004         42.0004
   -315059.24447   -188440.37345  24931298.3834   24931301.0394   24931298.816
        47.0004         35.0004
 -15615296.24348 -12084490.27648  21042631.7414   21042633.6894   21042631.203
        53.0004         48.0004
 -17937290.43048 -13936899.42948  21702401.2274   21702401.6084   21702401.276
        53.0004         48.0004
 20 11  6  1 39 30.0000000  0  9G05G06G29G15G07G30G18G13G02
 -23170726.90749 -18002307.22949  20484076.9774   20484079.1064   20484076.980
        60.0004         56.0004
   1368973.90646   1116044.67146  25105711.1194   25105716.8674   25105708.940
        41.0004         36.0004
 -14092384.67049 -10924772.04648  22216260.2884   22216262.3394   22216260.337
        56.0004         52.0004
 -11899758.26448  -9214952.02448  23072180.0944   23072183.2324   23072180.183
        53.0004         48.0004
  -7013221.43347  -5433204.70146  24340380.7414   24340382.1524   24340382.161
        45.0004         40.0004
  -9477031.09647  -7343974.81747  23428626.1324   23428630.2544   23428626.149
        47.0004         42.0004
   -420234.27447   -270394.94046  24911283.3054   24911285.0254   24911285.200
        43.0004         36.0004
 -15680099.42248 -12134986.24148  21030299.9284   21030302.0954   21030300.106
        53.0004         48.0004
 -17883831.63048 -13895243.23748  21712573.7444   21712574.6564   21712574.459
        53.0004         48.0004
 20 11  6  1 40  0.0000000  0  9G05G06G29G15G07G30G18G13G02
 -23156532.05149 -17991246.29949  20486778.0564   20486780.2534   20486777.947
        60.0004         56.0004
   1474603.80646   1198353.61846  25125811.4524   25125819.1154   25125810.754
        41.0004         36.0004
 -14088021.78649 -10921372.39748  22217090.1494   22217092.9044   22217090.189
        56.0004         52.0004
 -12005569.46548  -9297402.26448  23052044.3864   23052047.5704   23052043.895
        53.0004         48.0004
  -6996427.76747  -5420118.73846  24343576.6894   24343579.4664   24343576.047
        45.0004         41.0004
  -9506296.84847  -7366779.27047  23423056.1074   23423062.3224   23423057.066
        47.0004         42.0004
   -525378.19046   -352325.24945  24891275.2144   24891279.7174   24891275.426
        40.0004         35.0004
 -15744405.16348 -12185094.59048  21018062.7214   21018064.8694   21018062.292
        53.0004         48.0004
 -17829971.66148 -13853274.44048  21722822.9884   21722823.5724   21722823.626
        53.0004         48.0004
 20 11  6  1 40 30.0000000  0  8G05G29G15G07G30G18G13G02
 -23142016.23749 -17979935.27749  20489540.4304   20489542.5874   20489540.111
        60.0004         56.0004
 -14083031.53349 -10917483.89648  22218039.9564   22218041.9864   22218039.713
        56.0004         52.0004
 -12111135.20148  -9379661.26948  23031956.4144   23031959.1934   23031956.805
        53.0004         48.0004
  -6979130.93347  -5406640.69146  24346867.3704   24346870.4554   24346867.354
        45.0004         41.0004
  -9535064.90447  -7389195.90947  23417580.9834   23417587.9944   23417582.147
        47.0004         42.0004
   -630489.17946   -434229.87545  24871274.7844   24871277.7084   24871274.362
        40.0004         35.0004
 -15808212.00148 -12234814.18748  21005920.5884   21005923.1214   21005920.812
        53.0004         48.0004
 -17775711.08948 -13810993.49348  21733148.3964   21733149.4984   21733149.158
        53.0004         48.0004
 20 11  6  1 41  0.0000000  0  8G05G29G15G07G30G18G13G02
 -23127179.46949 -17968374.16549  20492363.7794   20492365.8494   20492363.693
        60.0004         56.0004
 -14077414.59849 -10913107.06648  22219109.2754   22219111.4384   22219108.727
        56.0004         52.0004
 -12216453.42748  -9461727.37648  23011915.1784   23011918.1724   23011914.483
        53.0004         48.0004
  -6961330.83847  -5392770.48946  24350255.9664   24350257.9224   24350255.119
        45.0004         41.0004
  -9563333.55447  -7411223.39847  23412202.3484   23412208.5594   23412202.888
        47.0004         43.0004
   -735565.38546   -516107.39445  24851279.7154   24851283.3124   24851277.961
        40.0004         35.0004
 -15871518.02748 -12284143.54148  20993873.8804   20993876.3584   20993874.319
        53.0004         48.0004
 -17721050.44248 -13768400.78948  21743549.7484   21743551.0634   21743550.352
        53.0004         48.0004
 20 11  6  1 41 30.0000000  0  8G05G29G15G07G30G18G13G02
 -23112022.56549 -17956563.59749  20495248.0164   20495250.1914   20495247.819
        60.0004         56.0004
 -14071171.58449 -10908242.38248  22220297.3844   22220299.3814   22220296.960
        56.0004         52.0004
 -12321522.13948  -9543599.06848  22991921.1184   22991923.6294   22991920.962
        53.0004         48.0004
  -6943027.93847  -5378508.49446  24353738.8734   24353741.9784   24353737.900
        46.0004         41.0004
  -9591101.34547  -7432860.62047  23406919.2314   23406925.2464   23406919.873
        47.0004         43.0004
   -840605.15546   -597956.51645  24831290.2044   24831292.9704   24831289.443
        40.0004         35.0004
 -15934322.01348 -12333081.70048  20981922.8314   20981925.0574   20981922.371
        53.0004         48.0004
 -17665990.21948 -13725496.73948  21754027.3964   21754029.0984   21754028.445
        53.0004         48.0004
 20 11  6  1 42  0.0000000  0  8G05G29G15G07G30G18G13G02
 -23096545.83649 -17944503.81149  20498193.2004   20498195.3254   20498192.918
        60.0004         56.0004
 -14064302.56349 -10902889.90848  22221604.3054   22221606.3694   22221604.857
        56.0004         52.0004
 -12426339.52348  -9625274.92048  22971974.9114   22971977.8864   22971974.287
        53.0004         48.0004
  -6924222.58847  -5363854.98146  24357317.1614   24357320.0814   24357316.604
        46.0004         41.0004
  -9618366.71947  -7454106.35647  23401730.6174   23401736.8734   23401730.526
        47.0004         43.0004
   -945606.61346   -679775.81346  24811310.2804   24811310.5054   24811308.701
        41.0004         36.0004
 -15996622.41148 -12381627.45048  20970067.2534   20970069.9094   20970067.300
        53.0004         48.0004
 -17610531.16948 -13682281.90748  21764580.9184   21764582.1284   21764581.366
        53.0004         48.0004
 20 11  6  1 42 30.0000000  0  8G05G29G15G07G30G18G13G02
 -23080749.73349 -17932195.16249  20501199.1374   20501200.8874   20501199.290
        60.0004         56.0004
 -14056808.03949 -10897050.03548  22223030.2314   22223032.0674   22223030.006
        56.0004         51.0004
 -12530903.49348  -9706753.30148  22952077.1484   22952079.8094   22952077.428
        53.0004         48.0004
  -6904915.41347  -5348810.43546  24360990.5664   24360993.2844   24360990.393
        45.0004         40.0004
  -9645128.30947  -7474959.53147  23396638.3554   23396643.7494   23396638.234
        47.0004         43.0004
  -1050567.88146   -761563.75246  24791335.6674   24791339.5664   24791334.614
        41.0004         36.0004
 -16058417.96748 -12429779.82648  20958308.0994   20958310.5384   20958308.174
        53.0004         49.0004
 -17554674.04448 -13638756.89248  21775209.9614   21775211.5084   21775210.696
        53.0004         48.0004
 20 11  6  1 43  0.0000000  0  8G05G29G15G07G30G18G13G02
 -23064634.52349 -17919637.85849  20504265.7484   20504267.5474   20504265.796
        60.0004         56.0004
 -14048688.71849 -10890723.29348  22224575.2814   22224577.5064   22224575.209
        56.0004         52.0004
 -12635212.38548  -9788032.92648  22932228.0924   22932230.8324   22932228.162
        53.0004         49.0004
  -6885106.54147  -5333374.98446  24364761.0364   24364763.1294   24364761.006
        45.0004         40.0004
  -9671384.45147  -7495418.85147  23391641.6844   23391646.9574   23391642.637
        47.0004         43.0004
  -1155487.11746   -843318.97146  24771370.3264   24771373.1264   24771369.851
        41.0004         36.0004
 -16119707.12048 -12477537.59248  20946645.4534   20946647.6434   20946645.048
        53.0004         49.0004
 -17498419.08248 -13594921.86848  21785915.5334   21785916.1114   21785915.880
        53.0004         48.0004
 20 11  6  1 43 30.0000000  0  8G05G29G15G07G30G18G13G02
 -23048200.69249 -17906832.26849  20507392.7894   20507394.8754   20507392.472
        60.0004         56.0004
 -14039945.03749 -10883910.04248  22226239.3034   22226241.0864   22226239.419
        56.0004         52.0004
 -12739264.43348  -9869112.41848  22912427.2694   22912429.8374   22912426.327
        53.0004         49.0004
  -6864796.04047  -5317548.62546  24368625.1774   24368629.0044   24368625.791
        45.0004         40.0004
  -9697133.76648  -7515483.24447  23386741.9434   23386746.4604   23386742.025
        48.0004         43.0004
  -1260362.65446   -925040.12046  24751410.4884   24751416.0164   24751410.303
        41.0004         37.0004
 -16180488.37848 -12524899.60148  20935078.6444   20935081.3014   20935078.877
        53.0004         49.0004
 -17441766.97748 -13550777.38848  21796695.7744   21796696.6324   21796696.395
        52.0004         48.0004
 20 11  6  1 44  0.0000000  0  8G05G29G15G07G30G18G13G02
 -23031448.20449 -17893778.38449  20510580.8004   20510582.8214   20510580.720
        60.0004         56.0004
 -14030577.42249 -10876610.61648  22228021.1634   22228023.8784   22228020.987
        56.0004         51.0004
 -12843057.57048  -9949990.17848  22892676.0714   22892678.5204   22892676.020
        53.0004         48.0004
  -6843984.78447  -5301332.06646  24372585.9634   24372589.0174   24372586.281
        45.0004         41.0004
  -9722374.87847  -7535151.63747  23381938.0494   23381943.2314   23381939.459
        47.0004         43.0004
  -1365192.60746  -1006725.75146  24731463.9064   24731468.7074   24731459.862
        41.0004         37.0004
 -16240760.36348 -12571864.77148  20923609.8024   20923611.6164   20923609.575
        53.0004         49.0004
 -17384718.38748 -13506323.95948  21807551.8434   21807553.1084   21807552.448
        52.0004         48.0004
 20 11  6  1 44 30.0000000  0  8G05G29G15G07G30G18G13G02
 -23014377.74249 -17880476.72449  20513829.2154   20513831.3754   20513828.745
        60.0004         56.0004
 -14020586.51249 -10868825.50048  22229922.2234   22229924.8704   22229922.312
        56.0004         51.0004
 -12946589.71548 -10030664.54448  22872974.2834   22872977.3314   22872973.589
        53.0004         48.0004
  -6822673.00747  -5284725.47346  24376641.1974   24376644.8024   24376641.372
        45.0004         41.0004
  -9747106.21147  -7554422.82047  23377232.4554   23377237.3394   23377232.362
        47.0004         43.0004
  -1469974.92446  -1088374.27046  24711523.1804   24711528.0024   24711523.439
        41.0004         37.0004
 -16300521.57348 -12618431.94048  20912237.3084   20912239.5054   20912237.575
        53.0004         49.0004
 -17327273.87848 -13461562.02648  21818482.9184   21818484.3614   21818483.859
        52.0004         48.0004
 20 11  6  1 45  0.0000000  0  8G05G29G15G07G30G18G13G02
 -22996989.77249 -17866927.65849  20517137.9954   20517140.1174   20517138.013
        60.0004         56.0004
 -14009972.99149 -10860555.24048  22231942.1114   22231945.1264   22231941.689
        56.0004         52.0004
 -13049859.10148 -10111134.17048  22853322.8474   22853326.0094   22853322.750
        53.0004         49.0004
  -6800860.96247  -5267729.07346  24380793.0484   24380795.9354   24380791.038
        45.0004         40.0004
  -9771326.44247  -7573295.72247  23372623.1354   23372628.4904   23372623.821
        47.0004         43.0004
  -1574707.88247  -1169984.30746  24691596.5914   24691597.2394   24691594.086
        42.0004         37.0004
 -16359770.74048 -12664600.10648  20900962.3614   20900964.4654   20900962.605
        53.0004         49.0004
 -17269434.55648 -13416492.44348  21829489.3784   21829490.6414   21829489.806
        52.0004         48.0004
 20 11  6  1 45 30.0000000  0  8G05G29G15G07G30G18G13G02
 -22979284.42249 -17853131.28849  20520507.3844   20520509.2484   20520507.452
        60.0004         56.0004
 -13998737.55249 -10851800.37148  22234080.1474   22234082.8004   22234079.769
        56.0004         51.0004
 -13152863.92848 -10191397.62848  22833721.5794   22833725.1174   22833721.894
        53.0004         49.0004
  -6778549.53047  -5250343.52146  24385038.2724   24385041.2454   24385038.063
        45.0004         41.0004
  -9795034.31847  -7591769.38947  23368112.9844   23368116.6244   23368112.864
        47.0004         43.0004
  -1679389.73447  -1251554.55546  24671675.1124   24671677.9274   24671675.433
        42.0004         37.0004
 -16418506.41148 -12710368.15248  20889785.4694   20889787.2584   20889785.486
        53.0004         49.0004
 -17211200.71048 -13371115.44048  21840571.1824   21840572.0994   21840571.592
        52.0004         48.0004
 20 11  6  1 46  0.0000000  0  8G05G29G15G07G30G18G13G02
 -22961262.00549 -17839087.84249  20523937.1794   20523938.8324   20523937.039
        60.0004         56.0004
 -13986880.88249 -10842561.41648  22236336.5074   22236339.2414   22236336.614
        56.0004         52.0004
 -13255602.35848 -10271453.51948  22814170.8434   22814174.1634   22814170.712
        53.0004         49.0004
  -6755738.57447  -5232568.74246  24389378.5114   24389381.5114   24389377.915
        45.0004         40.0004
  -9818228.30547  -7609842.63147  23363697.9014   23363703.8134   23363697.706
        47.0004         43.0004
  -1784018.34447  -1333083.30646  24651764.6794   24651767.8254   24651764.608
        42.0004         37.0004
 -16476727.39048 -12755735.14048  20878706.6884   20878708.4744   20878706.782
        53.0004         49.0004
 -17152573.08248 -13325431.58448  21851727.7174   21851728.5054   21851728.144
        52.0004         48.0004
 20 11  6  1 46 30.0000000  0  8G05G29G15G07G30G18G13G02
 -22942923.04249 -17824797.73849  20527426.6984   20527428.5854   20527426.674
        60.0004         56.0004
 -13974403.68149 -10832838.93648  22238711.0584   22238713.2454   22238711.775
        56.0004         52.0004
 -13358072.19449 -10351300.11348  22794671.9294   22794675.4924   22794671.994
        54.0004         49.0004
  -6732428.85347  -5214405.30346  24393814.1314   24393816.1114   24393813.705
        45.0004         40.0004
  -9840907.05847  -7627514.39047  23359382.2434   23359387.9934   23359383.326
        47.0004         43.0004
  -1888591.83947  -1414569.10046  24631862.6334   24631866.7034   24631862.748
        42.0004         37.0004
 -16534432.33948 -12800700.02048  20867725.4884   20867727.9514   20867725.449
        53.0004         49.0004
 -17093552.45048 -13279441.49948  21862959.0394   21862960.6574   21862959.331
        52.0004         48.0004
 20 11  6  1 47  0.0000000  0  8G05G29G15G07G30G18G13G02
 -22924268.09549 -17810261.41849  20530976.5624   20530978.6564   20530976.360
        60.0004         56.0004
 -13961306.61349 -10822633.44048  22241203.6724   22241205.7544   22241203.763
        56.0004         52.0004
 -13460271.79849 -10430936.14248  22775223.8344   22775226.9564   22775223.032
        54.0004         49.0004
  -6708621.03947  -5195853.73346  24398344.4184   24398347.6664   24398344.556
        45.0004         40.0004
  -9863069.36248  -7644783.72947  23355164.9764   23355170.7754   23355166.044
        48.0004         43.0004
  -1993108.40347  -1496010.51846  24611975.0034   24611978.9584   24611974.490
        42.0004         38.0004
 -16591619.74648 -12845261.62748  20856843.4064   20856845.2914   20856842.970
        53.0004         49.0004
 -17034139.49248 -13233145.71348  21874265.0164   21874266.3594   21874265.245
        52.0004         48.0004
 20 11  6  1 47 30.0000000  0  8G05G29G15G07G30G18G13G02
 -22905297.29049 -17795478.97149  20534586.8114   20534588.6154   20534586.545
        60.0004         56.0004
 -13947590.43449 -10811945.51348  22243813.7534   22243816.0034   22243813.733
        56.0004         52.0004
 -13562199.39249 -10510360.21548  22755827.7114   22755830.3864   22755826.500
        54.0004         49.0004
  -6684315.45747  -5176914.29746  24402968.6354   24402971.6234   24402969.242
        45.0004         40.0004
  -9884713.90348  -7661649.60847  23351046.2214   23351051.8534   23351046.260
        48.0004         43.0004
  -2097566.22747  -1577406.17046  24592096.3864   24592100.5714   24592097.041
        42.0004         38.0004
 -16648288.52748 -12889419.10548  20846059.3704   20846061.4974   20846059.570
        53.0004         49.0004
 -16974334.75848 -13186544.63848  21885645.4384   21885646.8354   21885646.103
        52.0004         48.0004
 20 11  6  1 48  0.0000000  0  8G05G29G15G07G30G18G13G02
 -22886010.85549 -17780450.57549  20538256.8424   20538258.5354   20538256.770
        60.0004         56.0004
 -13933255.74849 -10800775.63548  22246541.8164   22246543.9624   22246541.658
        56.0004         52.0004
 -13663852.92249 -10589570.73048  22736483.7624   22736486.3914   22736482.943
        54.0004         49.0004
  -6659512.61147  -5157587.39146  24407689.6064   24407692.0004   24407689.717
        45.0004         40.0004
  -9905839.24847  -7678110.91347  23347026.0034   23347030.4964   23347026.504
        47.0004         42.0004
  -2201963.06047  -1658754.30646  24572231.4904   24572233.7474   24572231.433
        42.0004         38.0004
 -16704437.34148 -12933171.41548  20835374.7914   20835376.7964   20835374.577
        53.0004         49.0004
 -16914139.21748 -13139639.04147  21897100.1264   21897101.2494   21897100.657
        52.0004         47.0004
 20 11  6  1 48 30.0000000  0  8G05G29G15G07G30G18G13G02
 -22866409.43649 -17765176.73949  20541986.8894   20541988.5664   20541986.580
        60.0004         56.0004
 -13918303.61049 -10789124.62548  22249386.7654   22249389.4534   22249386.734
        56.0004         52.0004
 -13765230.87949 -10668566.51048  22717192.0334   22717195.0614   22717192.421
        54.0004         49.0004
  -6634213.22147  -5137873.60346  24412503.5924   24412505.8744   24412503.402
        45.0004         40.0004
  -9926444.39947  -7694166.86947  23343104.5434   23343110.4264   23343104.940
        47.0004         42.0004
  -2306297.44047  -1740053.79346  24552377.1884   24552379.0664   24552377.360
        42.0004         37.0004
 -16760064.95949 -12976517.59348  20824789.0584   20824791.2874   20824789.136
        54.0004         49.0004
 -16853553.64348 -13092429.52148  21908629.0904   21908630.5154   21908629.603
        52.0004         48.0004
 20 11  6  1 49  0.0000000  0  8G05G29G15G07G30G18G13G02
 -22846493.18549 -17749657.58149  20545776.8814   20545778.6144   20545776.720
        60.0004         56.0004
 -13902734.63149 -10776992.94748  22252349.2544   22252352.0474   22252349.302
        56.0004         52.0004
 -13866331.24049 -10747345.98448  22697953.7634   22697956.3294   22697954.081
        54.0004         49.0004
  -6608418.07147  -5117773.48446  24417413.0214   24417414.6084   24417413.428
        45.0004         40.0004
  -9946527.93547  -7709816.36347  23339282.7874   23339288.8224   23339283.371
        47.0004         42.0004
  -2410567.05847  -1821302.79546  24532534.9404   24532539.9264   24532534.124
        42.0004         37.0004
 -16815170.29849 -13019456.80248  20814302.7634   20814305.0424   20814303.075
        54.0004         49.0004
 -16792578.54548 -13044916.47948  21920232.3044   21920233.9204   21920232.696
        52.0004         48.0004
 20 11  6  1 49 30.0000000  0  8G05G29G15G07G30G18G13G02
 -22826262.84849 -17733893.68649  20549626.7314   20549628.3524   20549626.525
        60.0004         56.0004
 -13886549.85649 -10764381.43848  22255429.4164   22255431.9224   22255429.847
        56.0004         52.0004
 -13967152.08349 -10825907.65648  22678767.4854   22678770.2944   22678766.839
        54.0004         49.0004
  -6582127.39247  -5097287.26446  24422416.2694   24422418.8664   24422417.193
        45.0004         41.0004
  -9966088.65047  -7725058.46147  23335561.2324   23335566.7114   23335561.621
        47.0004         42.0004
  -2514770.09447  -1902499.93046  24512704.4984   24512707.5374   24512704.586
        42.0004         37.0004
 -16869751.96149 -13061987.95048  20803916.2044   20803918.3134   20803916.638
        54.0004         49.0004
 -16731214.95548 -12997100.70447  21931909.5304   21931911.1604   21931910.447
        52.0004         47.0004
 20 11  6  1 50  0.0000000  0  8G05G29G15G07G30G18G13G02
 -22805718.50249 -17717885.10749  20553535.8914   20553537.8314   20553535.311
        60.0004         56.0004
 -13869750.12049 -10751290.73648  22258626.0824   22258629.0894   22258625.980
        56.0004         52.0004
 -14067691.77349 -10904250.23448  22659635.5754   22659638.4294   22659635.039
        54.0004         49.0004
  -6555342.00147  -5076415.54546  24427512.8334   24427515.3654   24427513.209
        45.0004         40.0004
  -9985125.44847  -7739892.32347  23331938.8914   23331944.8654   23331938.660
        47.0004         43.0004
  -2618904.66847  -1983643.72346  24492888.7344   24492892.8354   24492889.199
        42.0004         38.0004
 -16923808.83949 -13104110.17548  20793629.4414   20793631.6124   20793629.619
        54.0004         49.0004
 -16669463.66848 -12948982.84047  21943660.2784   21943661.2624   21943660.773
        52.0004         47.0004
 20 11  6  1 50 30.0000000  0  8G05G29G15G07G30G18G13G02
 -22784860.47449 -17701632.09749  20557504.9374   20557507.0054   20557504.140
        60.0004         56.0004
 -13852336.33149 -10737721.54648  22261939.4184   22261942.4334   22261939.312
        56.0004         52.0004
 -14167948.32049 -10982372.19048  22640557.0884   22640560.2944   22640557.243
        54.0004         49.0004
  -6528062.59947  -5055158.89046  24432703.4224   24432707.4604   24432703.830
        45.0004         41.0004
 -10003637.14547  -7754316.98647  23328415.7224   23328421.9064   23328415.867
        47.0004         42.0004
  -2722968.69847  -2064732.56346  24473088.1994   24473090.3554   24473087.363
        42.0004         38.0004
 -16977339.54249 -13145822.39248  20783443.1684   20783444.8294   20783442.638
        54.0004         49.0004
 -16607325.42848 -12900563.44247  21955484.4194   21955485.9284   21955485.105
        52.0004         47.0004
 20 11  6  1 51  0.0000000  0  8G05G29G15G07G30G18G13G02
 -22763689.29749 -17685135.07949  20561533.8094   20561535.8034   20561533.509
        60.0004         56.0004
 -13834309.35449 -10723674.55848  22265370.3674   22265373.0014   22265370.321
        56.0004         52.0004
 -14267919.59949 -11060271.84648  22621533.6414   22621535.8804   22621532.853
        54.0004         49.0004
  -6500289.08447  -5033517.22346  24437989.0544   24437992.7584   24437988.350
        45.0004         41.0004
 -10021622.44047  -7768331.46247  23324992.7714   23324998.1304   23324991.754
        47.0004         42.0004
  -2826960.20247  -2145764.87446  24453298.6224   24453299.8004   24453298.620
        43.0004         38.0004
 -17030343.01549 -13187123.77848  20773356.6294   20773358.7414   20773356.689
        54.0004         49.0004
 -16544800.87448 -12851843.03247  21967382.9984   21967384.6584   21967384.028
        52.0004         47.0004
 20 11  6  1 51 30.0000000  0  8G05G29G15G07G30G18G13G02
 -22742205.13049 -17668394.17749  20565622.1174   20565623.9984   20565621.840
        60.0004         56.0004
 -13815670.33449 -10709150.65048  22268917.0424   22268919.6264   22268916.484
        56.0004         51.0004
 -14367604.41749 -11137948.29548  22602563.6914   22602567.2074   22602563.384
        54.0004         49.0004
  -6472023.29247  -5011491.92946  24443366.3574   24443372.2294   24443366.377
        45.0004         40.0004
 -10039080.37247  -7781934.99947  23321670.6504   23321676.5684   23321670.386
        47.0004         43.0004
  -2930877.34247  -2226739.24446  24433524.6494   24433526.7834   24433523.728
        43.0004         38.0004
 -17082818.10549 -13228013.43648  20763370.9554   20763373.3734   20763370.455
        54.0004         49.0004
 -16481891.03548 -12802822.39747  21979354.0274   21979355.0174   21979354.786
        52.0004         47.0004
 20 11  6  1 52  0.0000000  0  8G05G29G15G07G30G18G13G02
 -22720408.48349 -17651409.77449  20569769.6384   20569771.7784   20569769.540
        60.0004         56.0004
 -13796420.37249 -10694150.66248  22272580.0834   22272582.5094   22272579.630
        56.0004         51.0004
 -14467000.48549 -11215399.73848  22583649.3604   22583652.3864   22583649.529
        54.0004         49.0004
  -6443265.56547  -4989083.35946  24448839.5294   24448843.6834   24448839.595
        45.0004         40.0004
 -10056009.75947  -7795126.68847  23318449.3084   23318455.2364   23318449.663
        47.0004         43.0004
  -3034718.00847  -2307654.01146  24413762.3654   24413765.4514   24413762.904
        43.0004         38.0004
 -17134763.84549 -13268490.61848  20753486.0164   20753488.4744   20753486.196
        54.0004         49.0004
 -16418596.80048 -12753502.23347  21991398.7694   21991399.4824   21991399.630
        52.0004         47.0004
 20 11  6  1 52 30.0000000  0  8G05G29G15G07G30G18G13G02
 -22698299.52149 -17634182.01149  20573977.0164   20573979.2104   20573976.600
        60.0004         56.0004
 -13776560.12149 -10678675.13848  22276359.5604   22276362.1804   22276359.193
        56.0004         51.0004
 -14566106.12749 -11292624.87248  22564790.2554   22564792.8954   22564789.063
        54.0004         50.0004
  -6414016.35847  -4966291.78746  24454405.3204   24454408.8984   24454405.563
        45.0004         40.0004
 -10072409.49347  -7807905.66647  23315328.5764   23315334.7294   23315328.630
        47.0004         43.0004
  -3138480.14447  -2388507.61646  24394017.5704   24394019.3994   24394017.695
        43.0004         38.0004
 -17186178.96549 -13308554.32748  20743702.3824   20743704.3394   20743702.263
        54.0004         49.0004
 -16354918.91048 -12703883.11447  22003516.1414   22003516.5354   22003516.403
        52.0004         47.0004
 20 11  6  1 53  0.0000000  0  8G05G29G15G07G30G18G13G02
 -22675879.00649 -17616711.47949  20578243.3354   20578245.7094   20578243.513
        60.0004         56.0004
 -13756090.84149 -10662725.04348  22280254.3714   22280257.1984   22280254.015
        56.0004         51.0004
 -14664919.85449 -11369622.54748  22545986.8914   22545989.0424   22545986.318
        54.0004         50.0004
  -6384276.35047  -4943117.76446  24460064.9794   24460067.7794   24460064.146
        45.0004         40.0004
 -10088278.64348  -7820271.20447  23312309.2324   23312314.4914   23312308.967
        48.0004         43.0004
  -3242161.82647  -2469298.52946  24374288.6774   24374290.1674   24374288.468
        43.0004         38.0004
 -17237062.70849 -13348203.98248  20734019.3604   20734021.6594   20734019.266
        54.0004         49.0004
 -16290858.30148 -12653965.76847  22015706.8364   22015707.7744   22015707.559
        52.0004         47.0004
 20 11  6  1 53 30.0000000  0  8G05G29G15G07G30G18G13G02
 -22653147.12949 -17598998.32749  20582569.0374   20582571.2784   20582568.679
        60.0004         56.0004
 -13735013.52449 -10646301.15948  22284265.6424   22284268.3984   22284266.115
        56.0004         51.0004
 -14763439.61749 -11446391.15548  22527239.0784   22527241.9254   22527238.684
        54.0004         50.0004
  -6354046.24647  -4919561.86746  24465819.5634   24465821.2754   24465819.237
        45.0004         41.0004
 -10103616.03648  -7832222.38247  23309390.8714   23309395.4224   23309390.966
        48.0004         43.0004
  -3345761.05447  -2550025.16646  24354573.5004   24354577.4644   24354574.561
        43.0004         39.0004
 -17287413.75349 -13387438.54648  20724437.8834   20724439.6144   20724437.637
        54.0004         49.0004
 -16226415.87748 -12603750.91047  22027969.9044   22027970.5314   22027970.642
        52.0004         47.0004
 20 11  6  1 54  0.0000000  0  8G05G29G15G07G30G18G13G02
 -22630104.42049 -17581042.96949  20586953.8614   20586956.1884   20586953.672
        60.0004         56.0004
 -13713329.31449 -10629404.37348  22288392.2744   22288394.7914   22288392.583
        56.0004         51.0004
 -14861663.69049 -11522929.36048  22508547.7264   22508550.2594   22508547.357
        54.0004         50.0004
  -6323327.37147  -4895625.08946  24471665.0474   24471665.0594   24471665.613
        45.0004         40.0004
 -10118420.69448  -7843758.45247  23306573.9354   23306577.9654   23306572.981
        48.0004         43.0004
  -3449275.73647  -2630685.89846  24334876.1764   24334879.0304   24334877.724
        44.0004         39.0004
 -17337231.20349 -13426257.31948  20714958.0224   20714960.0274   20714958.213
        54.0004         49.0004
 -16161592.66548 -12553239.33547  22040305.0424   22040305.9654   22040305.789
        52.0004         47.0004
 20 11  6  1 54 30.0000000  0  8G05G29G15G07G30G18G13G02
 -22606750.90649 -17562845.43549  20591397.9674   20591400.2954   20591397.733
        60.0004         56.0004
 -13691039.26549 -10612035.50348  22292634.0084   22292636.1594   22292634.063
        56.0004         51.0004
 -14959590.36749 -11599235.81648  22489912.1964   22489915.5104   22489911.559
        55.0004         50.0004
  -6292120.27447  -4871307.90446  24477603.2914   24477604.4964   24477604.397
        45.0004         40.0004
 -10132691.61548  -7854878.60647  23303857.5644   23303864.1014   23303858.195
        48.0004         43.0004
  -3552703.78447  -2711279.11946  24315194.5404   24315197.5834   24315194.956
        44.0004         39.0004
 -17386514.06149 -13464659.52148  20705579.5814   20705581.5474   20705579.519
        54.0004         49.0004
 -16096389.41748 -12502431.63247  22052712.4904   22052714.1834   22052713.189
        52.0004         47.0004
 20 11  6  1 55  0.0000000  0  8G05G29G15G07G30G18G13G02
 -22583086.99349 -17544406.02349  20595900.8434   20595903.1554   20595900.488
        60.0004         56.0004
 -13668144.68849 -10594195.56848  22296990.5534   22296992.7724   22296990.646
        56.0004         51.0004
 -15057217.61049 -11675308.94148  22471334.9694   22471337.8294   22471334.529
        55.0004         50.0004
  -6260425.66847  -4846610.81346  24483635.1024   24483635.6594   24483636.163
        45.0004         40.0004
 -10146427.87548  -7865582.16147  23301244.7024   23301249.2874   23301244.039
        48.0004         43.0004
  -3656043.32647  -2791803.38246  24295528.7834   24295533.1474   24295530.042
        44.0004         39.0004
 -17435261.14749 -13502644.25648  20696303.6894   20696305.0924   20696303.329
        54.0004         49.0004
 -16030806.87648 -12451328.37147  22065193.2744   22065193.7624   22065193.907
        52.0004         47.0004
 20 11  6  1 55 30.0000000  0  8G05G29G15G07G30G18G13G02
 -22559113.45549 -17525725.34649  20600463.0844   20600465.2944   20600462.816
        60.0004         56.0004
 -13644646.54449 -10575885.32548  22301461.9624   22301464.5814   22301461.969
        56.0004         51.0004
 -15154543.76349 -11751147.46348  22452814.3324   22452817.1054   22452814.118
        55.0004         50.0004
  -6228244.31247  -4821534.43746  24489757.1544   24489759.8414   24489757.887
        45.0004         40.0004
 -10159628.53448  -7875868.36047  23298731.4244   23298737.2624   23298732.186
        48.0004         43.0004
  -3759292.22647  -2872257.00846  24275882.0534   24275884.5274   24275882.357
        44.0004         39.0004
 -17483471.57549 -13540210.81548  20687129.1464   20687130.9654   20687128.990
        54.0004         49.0004
 -15964845.88948 -12399930.22047  22077744.7634   22077745.7514   22077745.164
        51.0004         47.0004
 20 11  6  1 56  0.0000000  0  8G05G29G15G07G30G18G13G02
 -22534830.32449 -17506803.42949  20605083.8294   20605086.3664   20605083.749
        60.0004         56.0004
 -13620546.19449 -10557105.83948  22306047.9394   22306050.5914   22306048.230
        56.0004         51.0004
 -15251567.01949 -11826749.95148  22434350.8974   22434353.8934   22434350.524
        55.0004         50.0004
  -6195577.12147  -4796079.49446  24495972.7114   24495975.9614   24495971.734
        45.0004         40.0004
 -10172292.59348  -7885736.42747  23296321.6164   23296328.0034   23296322.157
        48.0004         43.0004
  -3862448.37847  -2952638.36246  24256251.4394   24256255.7304   24256251.816
        44.0004         39.0004
 -17531144.30849 -13577358.38948  20678057.3994   20678059.3744   20678057.397
        54.0004         49.0004
 -15898507.99548 -12348238.37747  22090368.6954   22090369.5604   22090369.461
        51.0004         47.0004
 20 11  6  1 56 30.0000000  0  8G05G29G15G07G30G18G13G02
 -22510238.01949 -17487640.59349  20609763.6404   20609766.0524   20609763.365
        60.0004         56.0004
 -13595844.96149 -10537858.11548  22310748.2444   22310751.0654   22310748.175
        56.0004         51.0004
 -15348285.81049 -11902115.21648  22415946.5164   22415948.9804   22415947.243
        55.0004         50.0004
  -6162424.78047  -4770246.49046  24502281.5594   24502284.7504   24502280.932
        45.0004         40.0004
 -10184419.09748  -7895185.62047  23294014.6724   23294019.6544   23294013.901
        48.0004         43.0004
  -3965509.78547  -3032945.89646  24236640.2724   24236642.0024   24236638.846
        44.0004         39.0004
 -17578278.33649 -13614086.19248  20669088.0374   20669090.2454   20669088.145
        54.0004         49.0004
 -15831794.00348 -12296253.46347  22103063.7534   22103065.1274   22103064.084
        51.0004         47.0004
 20 11  6  1 57  0.0000000  0  8G05G29G15G07G30G18G13G02
 -22485336.87449 -17468237.10249  20614502.2204   20614504.5454   20614501.791
        60.0004         56.0004
 -13570544.05149 -10518143.12748  22315562.9454   22315565.5424   22315563.107
        56.0004         51.0004
 -15444698.54549 -11977241.97648  22397599.3484   22397601.8734   22397599.338
        55.0004         50.0004
  -6128788.79947  -4744036.63246  24508682.2254   24508686.2094   24508681.592
        45.0004         40.0004
 -10196007.29548  -7904215.36447  23291809.0224   23291814.2794   23291810.230
        48.0004         43.0004
  -4068474.39947  -3113178.02746  24217045.0274   24217048.5854   24217044.609
        44.0004         39.0004
 -17624872.88149 -13650393.61748  20660221.4054   20660223.6334   20660221.229
        54.0004         49.0004
 -15764704.83748 -12243976.21347  22115830.4104   22115831.9844   22115830.842
        51.0004         47.0004
 20 11  6  1 57 30.0000000  0  8G05G29G15G07G30G18G13G02
 -22460127.28249 -17448593.25949  20619299.5874   20619301.9584   20619299.559
        60.0004         56.0004
 -13544644.65549 -10497961.77448  22320491.4994   22320493.9414   22320491.210
        56.0004         51.0004
 -15540803.19549 -12052128.68648  22379311.6594   22379314.1744   22379310.920
        55.0004         50.0004
  -6094669.38847  -4717450.09546  24515175.4324   24515178.3224   24515174.446
        45.0004         40.0004
 -10207056.16648  -7912824.87747  23289706.5364   23289711.0184   23289707.484
        48.0004         43.0004
  -4171340.01947  -3193332.99946  24197470.1664   24197473.7404   24197469.595
        44.0004         39.0004
 -17670926.91749 -13686279.87148  20651457.6814   20651459.6244   20651457.227
        54.0004         49.0004
 -15697241.22748 -12191407.17747  22128668.0524   22128669.4044   22128668.932
        51.0004         47.0004
 20 11  6  1 58  0.0000000  0  8G05G29G15G07G30G18G13G02
 -22434609.54749 -17428709.31149  20624155.4914   20624157.6724   20624155.422
        60.0004         56.0004
 -13518148.14649 -10477315.14548  22325533.6484   22325536.2354   22325533.742
        56.0004         51.0004
 -15636598.03249 -12126773.97848  22361082.1494   22361084.9744   22361081.602
        55.0004         50.0004
  -6060067.85647  -4690487.86946  24521760.0734   24521762.6674   24521760.999
        45.0004         40.0004
 -10217565.00148  -7921013.58447  23287707.5354   23287711.9014   23287706.783
        48.0004         43.0004
  -4274104.66647  -3273409.28646  24177915.3594   24177919.2934   24177914.035
        44.0004         39.0004
 -17716439.85549 -13721744.48648  20642797.0314   20642798.4984   20642796.528
        54.0004         49.0004
 -15629404.31648 -12138547.26547  22141577.2424   22141578.8724   22141577.358
        51.0004         47.0004
 20 11  6  1 58 30.0000000  0  8G05G29G15G07G30G18G13G02
 -22408784.26449 -17408585.71549  20629069.8914   20629072.0194   20629069.701
        60.0004         56.0004
 -13491055.80449 -10456204.23048  22330689.4204   22330691.4134   22330689.400
        56.0004         51.0004
 -15732081.48949 -12201176.63548  22342912.4184   22342914.5304   22342912.134
        55.0004         51.0004
  -6024985.03647  -4663150.62246  24528435.5254   24528439.0324   24528436.731
        44.0004         40.0004
 -10227533.01748  -7928780.87647  23285810.2434   23285814.5004   23285811.486
        48.0004         44.0004
  -4376766.31247  -3353405.32546  24158380.0584   24158382.9474   24158378.873
        44.0004         39.0004
 -17761410.67949 -13756786.68248  20634239.1734   20634240.7664   20634238.958
        54.0004         49.0004
 -15561195.21748 -12085397.34747  22154557.1774   22154558.3764   22154557.798
        51.0004         47.0004
 20 11  6  1 59  0.0000000  0  8G05G29G15G07G30G18G13G02
 -22382651.57049 -17388222.57149  20634042.4824   20634045.1204   20634042.174
        60.0004         56.0004
 -13463368.87349 -10434630.00248  22335957.9504   22335960.1144   22335958.533
        56.0004         51.0004
 -15827251.64649 -12275335.17248  22324802.2204   22324804.6044   22324801.294
        55.0004         51.0004
  -5989421.91647  -4635439.10746  24535204.8084   24535207.4644   24535204.678
        45.0004         40.0004
 -10236959.27648  -7936126.01047  23284015.4614   23284022.1094   23284016.348
        48.0004         43.0004
  -4479322.68347  -3433319.33546  24138863.3814   24138866.8934   24138863.031
        44.0004         39.0004
 -17805838.50249 -13791405.75348  20625784.8534   20625786.6374   20625784.801
        54.0004         49.0004
 -15492614.77448 -12031958.06047  22167607.3874   22167608.8854   22167607.856
        51.0004         46.0004
 20 11  6  1 59 30.0000000  0  8G05G29G15G07G30G18G13G02
 -22356211.97749 -17367620.29349  20639073.7034   20639076.3094   20639073.590
        60.0004         56.0004
 -13435088.96749 -10412593.72148  22341339.6004   22341341.7934   22341340.087
        56.0004         51.0004
 -15922106.98749 -12349248.38948  22306751.4614   22306754.2734   22306750.863
        55.0004         51.0004
  -5953379.42347  -4607354.04646  24542062.8244   24542066.4464   24542062.914
        45.0004         40.0004
 -10245843.10248  -7943048.47847  23282324.7424   23282330.5914   23282324.963
        48.0004         43.0004
  -4581771.90647  -3513149.86746  24119368.3794   24119371.5144   24119367.300
        44.0004         39.0004
 -17849722.66349 -13825601.19448  20617433.9824   20617435.8434   20617433.992
        54.0004         49.0004
 -15423664.25448 -11978230.39747  22180728.5204   22180729.7404   22180729.142
        51.0004         47.0004
 20 11  6  2  0  0.0000000  0  8G05G29G15G07G30G18G13G02
 -22329465.74249 -17346779.07349  20644163.3484   20644165.7794   20644163.585
        60.0004         56.0004
 -13406217.34049 -10390096.35248  22346833.6824   22346836.0934   22346833.456
        56.0004         52.0004
 -16016645.82949 -12422914.98748  22288761.1064   22288763.9854   22288761.078
        55.0004         50.0004
  -5916858.24547  -4578895.99046  24549011.6674   24549015.9654   24549012.217
        45.0004         40.0004
 -10254183.61648  -7949547.60047  23280738.6074   23280743.2544   23280738.722
        48.0004         43.0004
  -4684111.39447  -3592894.88946  24099892.1194   24099896.9604   24099892.375
        44.0004         39.0004
 -17893061.98349 -13859372.08648  20609186.7004   20609188.7044   20609186.645
        54.0004         49.0004
 -15354345.01848 -11924215.42547  22193919.5844   22193920.6524   22193919.378
        51.0004         46.0004
 20 11  6  2  0 30.0000000  0  8G05G29G15G07G30G18G13G02
 -22302412.95349 -17325698.97949  20649311.6304   20649313.7514   20649311.259
        60.0004         56.0004
 -13376755.68749 -10367139.22548  22352440.1834   22352442.3854   22352439.919
        56.0004         51.0004
 -16110866.23549 -12496333.45548  22270831.4014   22270834.6184   22270831.875
        55.0004         51.0004
  -5879859.80647  -4550066.04046  24556051.5864   24556055.3434   24556051.498
        44.0004         40.0004
 -10261980.27648  -7955622.91947  23279254.6324   23279259.2884   23279254.877
        48.0004         43.0004
  -4786339.35047  -3672552.97946  24080440.2134   24080442.8974   24080439.036
        43.0004         39.0004
 -17935856.01149 -13892718.07548  20601043.3804   20601045.2304   20601043.124
        54.0004         49.0004
 -15284657.30248 -11869913.32947  22207180.4624   22207182.3584   22207181.338
        51.0004         47.0004
 20 11  6  2  1  0.0000000  0  8G05G29G15G07G30G18G13G02
 -22275054.84749 -17304380.97749  20654517.8684   20654519.8594   20654517.822
        60.0004         56.0004
 -13346705.13049 -10343723.21348  22358158.3114   22358160.8784   22358158.463
        56.0004         51.0004
 -16204766.84249 -12569502.73248  22252962.9014   22252965.8964   22252962.440
        55.0004         51.0004
  -5842385.12647  -4520864.98946  24563183.0884   24563186.4464   24563182.181
        44.0004         39.0004
 -10269232.16448  -7961273.75847  23277875.3454   23277879.7484   23277875.687
        48.0004         43.0004
  -4888453.55847  -3752122.45046  24061008.6484   24061010.0914   24061007.939
        44.0004         39.0004
 -17978103.95949 -13925638.54548  20593003.5224   20593005.5524   20593003.521
        54.0004         49.0004
 -15214602.60548 -11815325.27947  22220511.5364   22220513.1134   22220511.615
        51.0004         47.0004
 20 11  6  2  1 30.0000000  0  8G05G29G15G07G30G18G13G02
 -22247391.22649 -17282824.90449  20659781.9714   20659783.9524   20659781.761
        60.0004         56.0004
 -13316067.40949 -10319849.67248  22363988.1264   22363990.7404   22363988.272
        56.0004         51.0004
 -16298345.76349 -12642421.34848  22235155.5874   22235157.8454   22235155.251
        55.0004         51.0004
  -5804435.31547  -4491293.70746  24570404.9904   24570408.1024   24570405.590
        44.0004         39.0004
 -10275938.74147  -7966499.68547  23276597.5804   23276604.5954   23276599.364
        47.0004         43.0004
  -4990451.92247  -3831601.66546  24041598.5684   24041601.2194   24041598.197
        44.0004         39.0004
 -18019805.06149 -13958132.90548  20585068.2044   20585070.0484   20585068.180
        54.0004         49.0004
 -15144182.15648 -11760452.22147  22233912.0494   22233913.2784   22233912.857
        51.0004         47.0004
 20 11  6  2  2  0.0000000  0  8G05G29G15G07G30G18G13G02
 -22219422.59349 -17261031.16649  20665104.2264   20665105.9884   20665104.110
        60.0004         56.0004
 -13284843.80449 -10295519.60048  22369929.9174   22369932.5374   22369929.670
        56.0004         51.0004
 -16391601.51549 -12715088.15548  22217409.6814   22217412.2074   22217409.353
        55.0004         51.0004
  -5766011.23547  -4461352.85546  24577717.3164   24577720.8524   24577716.219
        44.0004         40.0004
 -10282099.33947  -7971300.17247  23275426.4094   23275431.5054   23275427.100
        47.0004         43.0004
  -5092332.28947  -3910988.93146  24022211.5744   24022213.8464   24022211.915
        44.0004         39.0004
 -18060958.60549 -13990200.59348  20577237.1064   20577238.9764   20577236.960
        54.0004         49.0004
 -15073396.73448 -11705294.77347  22247381.8684   22247383.4994   22247382.403
        51.0004         47.0004
 20 11  6  2  2 30.0000000  0  8G05G29G15G07G30G18G13G02
 -22191149.13249 -17238999.89549  20670484.4994   20670486.6714   20670483.917
        60.0004         56.0004
 -13253036.14349 -10270734.41648  22375982.6894   22375985.2984   22375982.595
        56.0004         51.0004
 -16484532.23649 -12787501.67548  22199725.4244   22199728.2414   22199724.955
        55.0004         51.0004
  -5727113.74747  -4431043.13446  24585120.2574   24585123.2854   24585119.733
        45.0004         40.0004
 -10287713.21747  -7975674.63647  23274357.7954   23274363.4744   23274358.263
        47.0004         43.0004
  -5194092.34547  -3990282.44646  24002847.8244   24002849.8024   24002848.581
        44.0004         40.0004
 -18101563.86649 -14021841.04848  20569510.3214   20569512.3564   20569510.384
        54.0004         49.0004
 -15002247.71648 -11649854.00747  22260921.7164   22260922.8084   22260922.036
        51.0004         47.0004
 20 11  6  2  3  0.0000000  0  8G05G29G15G07G30G18G13G02
 -22162571.27949 -17216731.44249  20675922.9144   20675924.8714   20675922.429
        60.0004         56.0004
 -13220645.77549 -10245495.17948  22382146.8274   22382149.2294   22382146.610
        56.0004         51.0004
 -16577136.27549 -12859660.65148  22182103.3244   22182105.6074   22182102.819
        55.0004         51.0004
  -5687744.35947  -4400365.69246  24592611.1004   24592614.3824   24592610.539
        45.0004         40.0004
 -10292779.83647  -7979622.66847  23273393.7294   23273399.4194   23273394.180
        47.0004         43.0004
  -5295730.11847  -4069480.65646  23983506.0534   23983508.5384   23983507.004
        44.0004         40.0004
 -18141620.18849 -14053053.75748  20561887.6454   20561889.4904   20561887.289
        54.0004         49.0004
 -14930736.24148 -11594130.80147  22274529.4964   22274530.8984   22274529.672
        51.0004         46.0004
 20 11  6  2  3 30.0000000  0  8G05G29G15G07G30G18G13G02
 -22133689.41049 -17194226.09149  20681418.8084   20681420.6834   20681418.450
        60.0004         56.0004
 -13187674.35849 -10219803.17048  22388420.6394   22388423.0624   22388420.663
        56.0004         51.0004
 -16669412.19449 -12931563.94648  22164544.1674   22164546.3074   22164543.881
        56.0004         51.0004
  -5647904.00447  -4369321.26846  24600193.2004   24600195.4674   24600193.368
        45.0004         40.0004
 -10297298.56947  -7983143.76347  23272533.8414   23272538.9904   23272534.293
        47.0004         43.0004
  -5397243.37847  -4148581.84846  23964189.1754   23964191.5394   23964188.957
        45.0004         40.0004
 -18181126.76949 -14083838.10248  20554369.9164   20554371.5554   20554370.066
        54.0004         49.0004
 -14858863.34848 -11538125.97747  22288207.3284   22288208.0524   22288207.132
        51.0004         46.0004
 20 11  6  2  4  0.0000000  0  8G05G29G15G07G30G18G13G02
 -22104504.00449 -17171484.20949  20686972.4154   20686974.5024   20686972.039
        60.0004         56.0004
 -13154123.63249 -10193659.75648  22394805.0864   22394807.6594   22394804.834
        56.0004         51.0004
 -16761358.26549 -13003210.20948  22147047.0424   22147050.0654   22147046.623
        56.0004         51.0004
  -5607593.72547  -4337910.67846  24607862.8424   24607866.9004   24607863.451
        45.0004         40.0004
 -10301268.84548  -7986237.49447  23271778.1734   23271783.8194   23271778.566
        48.0004         43.0004
  -5498629.85547  -4227584.24846  23944896.5304   23944898.5764   23944895.678
        45.0004         40.0004
 -18220083.03049 -14114193.62548  20546956.3934   20546958.3154   20546956.803
        54.0004         49.0004
 -14786630.17648 -11481840.41447  22301952.2364   22301953.3054   22301953.329
        51.0004         46.0004
 20 11  6  2  4 30.0000000  0  8G05G29G15G07G30G18G13G02
 -22075015.43049 -17148506.10349  20692583.9334   20692585.9794   20692583.671
        60.0004         56.0004
 -13119994.79049 -10167065.86948  22401299.4104   22401302.4324   22401298.764
        56.0004         51.0004
 -16852972.53449 -13074597.92948  22129613.4324   22129616.1414   22129612.958
        56.0004         51.0004
  -5566814.83647  -4306134.92646  24615624.1504   24615626.3694   24615623.444
        45.0004         40.0004
 -10304690.11948  -7988903.42847  23271127.1194   23271132.3034   23271127.742
        48.0004         43.0004
  -5599887.37847  -4306486.17046  23925627.9804   23925629.0544   23925627.634
        45.0004         40.0004
 -18258488.65549 -14144120.07448  20539648.4334   20539650.3254   20539648.543
        54.0004         49.0004
 -14714038.11248 -11425275.18947  22315765.9914   22315767.7954   22315766.801
        51.0004         46.0004
 20 11  6  2  5  0.0000000  0  8G05G29G15G07G30G18G13G02
 -22045223.85949 -17125291.89049  20698252.9884   20698255.0524   20698252.791
        60.0004         56.0004
 -13085289.79349 -10140023.02448  22407903.2854   22407906.5034   22407903.037
        56.0004         51.0004
 -16944253.75849 -13145726.13848  22112243.2624   22112245.7984   22112243.030
        56.0004         51.0004
  -5525568.46847  -4273994.92146  24623473.1794   24623476.4474   24623472.161
        45.0004         40.0004
 -10307561.86148  -7991141.15747  23270580.2844   23270585.2444   23270581.520
        48.0004         43.0004
  -5701013.74047  -4385285.91746  23906383.9234   23906384.6604   23906384.778
        44.0004         40.0004
 -18296342.70749 -14173616.72648  20532444.8184   20532446.5284   20532444.755
        54.0004         50.0004
 -14641088.11648 -11368431.05847  22329647.7204   22329649.5614   22329648.726
        51.0004         46.0004
 20 11  6  2  5 30.0000000  0  8G05G29G15G07G30G18G13G02
 -22015129.74449 -17101841.93449  20703979.9484   20703981.6914   20703979.981
        60.0004         56.0004
 -13050010.35549 -10112532.57448  22414617.4264   22414620.0214   22414617.444
        56.0004         51.0004
 -17035200.22949 -13216593.48848  22094936.6314   22094939.3254   22094936.403
        56.0004         51.0004
  -5483855.78647  -4241491.56346  24631410.2374   24631413.3864   24631409.458
        45.0004         40.0004
 -10309883.62648  -7992950.32047  23270139.6744   23270144.0084   23270140.173
        48.0004         43.0004
  -5802006.83847  -4463981.80546  23887165.2374   23887168.2324   23887166.083
        44.0004         40.0004
 -18333644.58449 -14202683.11248  20525346.3194   20525348.7194   20525346.492
        54.0004         50.0004
 -14567781.46148 -11311309.00947  22343597.7464   22343598.8004   22343598.064
        51.0004         46.0004
 20 11  6  2  6  0.0000000  0  8G05G29G15G07G30G18G13G02
 -21984733.83649 -17078156.81249  20709764.2194   20709765.9584   20709763.858
        60.0004         56.0004
 -13014158.08849 -10084595.75448  22421439.7044   22421442.2924   22421439.271
        56.0004         51.0004
 -17125810.38649 -13287198.78348  22077694.2254   22077696.3574   22077693.717
        56.0004         51.0004
  -5441677.95747  -4208625.73646  24639435.3654   24639438.9744   24639434.049
        44.0004         40.0004
 -10311654.91347  -7994330.53547  23269802.3184   23269807.4654   23269803.229
        47.0004         43.0004
  -5902864.30047  -4542572.00346  23867972.1484   23867975.5214   23867972.008
        45.0004         40.0004
 -18370394.11149 -14231319.09748  20518353.5484   20518355.4684   20518353.261
        54.0004         50.0004
 -14494119.11248 -11253909.79747  22357615.1274   22357616.8324   22357615.777
        51.0004         46.0004
 20 11  6  2  6 30.0000000  0  8G05G29G15G07G30G18G13G02
 -21954036.02049 -17054236.43449  20715605.7434   20715607.5324   20715605.774
        60.0004         56.0004
 -12977734.75749 -10056213.94448  22428371.4034   22428373.4194   22428371.558
        56.0004         51.0004
 -17216082.60449 -13357540.74848  22060515.9144   22060518.6114   22060515.698
        56.0004         51.0004
  -5399036.35047  -4175398.55146  24647550.2774   24647552.9354   24647550.018
        44.0004         40.0004
 -10312875.24647  -7995281.43447  23269568.7184   23269574.2514   23269569.705
        47.0004         42.0004
  -6003584.00047  -4621054.87146  23848806.1074   23848809.9454   23848805.444
        45.0004         40.0004
 -18406590.50249 -14259524.06948  20511465.5534   20511467.3334   20511465.262
        54.0004         50.0004
 -14420102.50448 -11196234.55547  22371699.6484   22371701.0084   22371700.613
        51.0004         46.0004
 20 11  6  2  7  0.0000000  0  8G05G29G15G07G30G18G13G02
 -21923036.73449 -17030081.14549  20721504.5064   20721506.3564   20721504.167
        60.0004         55.0004
 -12940742.12449 -10027388.53448  22435410.4784   22435412.8874   22435410.966
        56.0004         51.0004
 -17306015.14549 -13427618.02948  22043402.5104   22043404.6214   22043402.258
        56.0004         51.0004
  -5355932.07047  -4141810.85046  24655752.4194   24655757.4794   24655752.932
        44.0004         40.0004
 -10313544.19847  -7995802.67947  23269442.7224   23269447.0344   23269443.515
        47.0004         43.0004
  -6104163.70747  -4699428.61946  23829665.8404   23829669.3614   23829665.064
        45.0004         40.0004
 -18442233.16949 -14287297.56448  20504682.6794   20504684.6144   20504682.728
        54.0004         49.0004
 -14345732.83248 -11138284.18447  22385852.2064   22385853.5944   22385853.356
        50.0004         46.0004
 20 11  6  2  7 30.0000000  0  8G05G29G15G07G30G18G13G02
 -21891736.40349 -17005691.27849  20727460.7364   20727462.6694   20727460.709
        60.0004         55.0004
 -12903182.14049  -9998121.03448  22442557.5214   22442560.3184   22442557.616
        56.0004         51.0004
 -17395606.68749 -13497429.59348  22026353.4794   22026355.8094   22026353.284
        56.0004         51.0004
  -5312366.25247  -4107863.48546  24664042.8134   24664046.6664   24664042.452
        44.0004         40.0004
 -10313661.39247  -7995893.99847  23269420.4254   23269424.4184   23269420.340
        47.0004         43.0004
  -6204601.21247  -4777691.60446  23810553.5794   23810557.8724   23810552.593
        45.0004         40.0004
 -18477321.72449 -14314639.28648  20498005.6104   20498007.7824   20498005.817
        54.0004         50.0004
 -14271011.46148 -11080059.77047  22400070.5494   22400072.9224   22400071.243
        50.0004         46.0004
 20 11  6  2  8  0.0000000  0  8G05G29G15G07G30G18G13G02
 -21860135.29049 -16981067.03849  20733474.0704   20733476.3784   20733473.638
        60.0004         55.0004
 -12865056.24649  -9968412.55748  22449812.6704   22449815.5304   22449813.218
        56.0004         51.0004
 -17484855.37149 -13566974.00748  22009370.1564   22009372.7964   22009370.429
        56.0004         51.0004
  -5268340.03247  -4073557.35046  24672421.2434   24672424.3414   24672422.181
        44.0004         40.0004
 -10313226.35047  -7995554.99947  23269503.1204   23269507.8774   23269503.629
        47.0004         43.0004
  -6304894.10447  -4855841.90046  23791468.6794   23791472.2884   23791468.829
        45.0004         40.0004
 -18511855.64749 -14341548.82348  20491434.0034   20491435.9844   20491433.737
        54.0004         50.0004
 -14195939.53348 -11021562.18447  22414356.8184   22414358.1644   22414357.924
        50.0004         46.0004
 20 11  6  2  8 30.0000000  0  8G05G29G15G07G30G18G13G02
 -21828234.09849 -16956208.97049  20739544.7024   20739547.1364   20739544.417
        60.0004         55.0004
 -12826366.32149  -9938264.59348  22457175.5994   22457177.9834   22457175.521
        56.0004         51.0004
 -17573759.75249 -13636250.11048  21992452.1654   21992454.8204   21992452.401
        56.0004         51.0004
  -5223854.99447  -4038893.72946  24680886.4244   24680889.5564   24680886.677
        44.0004         40.0004
 -10312238.83348  -7994785.51147  23269691.5284   23269695.9944   23269691.167
        48.0004         43.0004
  -6405040.26847  -4933877.85146  23772411.9844   23772415.1584   23772411.708
        45.0004         41.0004
 -18545834.51049 -14368025.85448  20484968.2284   20484970.0984   20484968.335
        54.0004         50.0004
 -14120518.46948 -10962792.56147  22428709.6684   22428710.6824   22428710.117
        50.0004         46.0004
 20 11  6  2  9  0.0000000  0  8G05G29G15G07G30G18G13G02
 -21796033.18249 -16931117.35249  20745672.4624   20745674.6534   20745672.265
        60.0004         55.0004
 -12787114.55049  -9907678.81248  22464644.8534   22464647.6644   22464644.398
        56.0004         51.0004
 -17662318.25249 -13705256.70448  21975600.1694   21975602.6054   21975599.336
        56.0004         51.0004
  -5178912.14147  -4003873.35046  24689438.8974   24689442.5984   24689439.231
        44.0004         39.0004
 -10310698.38648  -7993585.16747  23269983.8004   23269988.6644   23269983.870
        48.0004         43.0004
  -6505037.38047  -5011797.66246  23753382.5624   23753386.2244   23753383.468
        45.0004         41.0004
 -18579257.74049 -14394069.91748  20478607.8454   20478609.6724   20478607.776
        54.0004         50.0004
 -14044749.30448 -10903751.67647  22443127.7904   22443129.0894   22443128.123
        50.0004         46.0004
 20 11  6  2  9 30.0000000  0  8G05G29G15G07G30G18G13G02
 -21763532.82149 -16905792.40449  20751856.9514   20751859.2064   20751856.846
        60.0004         55.0004
 -12747302.64149  -9876656.56648  22472220.6564   22472223.2534   22472220.646
        56.0004         51.0004
 -17750529.52349 -13773992.73648  21958814.1204   21958816.3874   21958814.293
        56.0004         52.0004
  -5133513.32747  -3968497.66446  24698079.6544   24698081.2694   24698078.996
        44.0004         40.0004
 -10308604.81048  -7991953.81947  23270382.2824   23270387.2994   23270382.387
        48.0004         43.0004
  -6604883.21647  -5089599.59346  23734382.2754   23734385.9904   23734381.905
        45.0004         41.0004
 -18612125.28349 -14419680.98048  20472353.1984   20472355.1954   20472353.338
        54.0004         50.0004
 -13968633.31748 -10844440.55047  22457612.0124   22457613.5674   22457612.432
        50.0004         46.0004
 20 11  6  2 10  0.0000000  0  8G05G29G15G07G30G18G13G02
 -21730733.08349 -16880234.17649  20758098.4164   20758101.0254   20758098.013
        60.0004         55.0004
 -12706932.49049  -9845199.32148  22479902.9924   22479905.5064   22479903.087
        56.0004         51.0004
 -17838391.73949 -13842456.78248  21942093.9604   21942096.8624   21942094.088
        56.0004         51.0004
  -5087659.32347  -3932767.30746  24706804.8694   24706806.2754   24706803.028
        44.0004         39.0004
 -10305957.73548  -7989891.17047  23270886.3384   23270891.1914   23270886.134
        48.0004         43.0004
  -6704575.51947  -5167281.88546  23715411.4744   23715414.3794   23715411.459
        45.0004         41.0004
 -18644436.62549 -14444858.63448  20466204.9154   20466206.6384   20466204.764
        54.0004         50.0004
 -13892171.96848 -10784860.30447  22472161.7234   22472163.4994   22472163.493
        50.0004         46.0004
 20 11  6  2 10 30.0000000  0  8G05G29G15G07G30G18G13G02
 -21697634.60149 -16854443.16549  20764396.9014   20764399.5884   20764396.403
        60.0004         55.0004
 -12666005.92049  -9813308.49448  22487690.9994   22487693.5424   22487691.025
        55.0004         51.0004
 -17925903.44149 -13910647.69748  21925441.1404   21925443.6294   21925440.857
        56.0004         51.0004
  -5041351.62347  -3896683.39446  24715615.0414   24715618.3024   24715615.001
        44.0004         39.0004
 -10302756.92948  -7987397.04347  23271494.6314   23271500.9704   23271495.049
        48.0004         43.0004
  -6804111.92047  -5244842.68846  23696470.5204   23696474.0594   23696469.501
        45.0004         41.0004
 -18676191.49049 -14469602.67748  20460161.9634   20460163.7584   20460161.755
        54.0004         50.0004
 -13815366.55448 -10725011.95547  22486777.7724   22486778.5784   22486777.822
        50.0004         45.0004
 20 11  6  2 11  0.0000000  0  8G05G29G15G07G30G18G13G02
 -21664237.54949 -16828419.50149  20770752.0844   20770754.6244   20770752.147
        60.0004         55.0004
 -12624524.66349  -9780985.45548  22495584.7054   22495587.3384   22495585.202
        55.0004         51.0004
 -18013063.23349 -13978564.39448  21908855.0684   21908857.9144   21908855.090
        56.0004         52.0004
  -4994591.95747  -3860247.28446  24724513.2644   24724515.9654   24724514.453
        44.0004         40.0004
 -10299002.09048  -7984471.19347  23272209.4644   23272214.5154   23272209.563
        48.0004         43.0004
  -6903490.18147  -5322280.25346  23677559.0184   23677561.2454   23677559.139
        46.0004         41.0004
 -18707389.14149 -14493912.52948  20454225.5694   20454227.1424   20454225.339
        54.0004         50.0004
 -13738218.47648 -10664896.60247  22501458.2634   22501460.6754   22501459.143
        50.0004         46.0004
 20 11  6  2 11 30.0000000  0  8G05G29G15G07G30G18G13G02
 -21630542.44849 -16802163.58449  20777164.1294   20777166.4784   20777163.839
        60.0004         55.0004
 -12582490.88949  -9748231.88348  22503583.4774   22503586.3404   22503583.931
        55.0004         51.0004
 -18099869.71549 -14046205.77048  21892336.5444   21892339.2574   21892336.694
        56.0004         52.0004
  -4947381.21147  -3823459.70346  24733497.9464   24733500.2394   24733497.775
        44.0004         40.0004
 -10294693.00948  -7981113.46247  23273028.9644   23273035.4894   23273029.636
        48.0004         43.0004
  -7002708.04547  -5399592.84446  23658680.1084   23658682.0894   23658678.753
        46.0004         41.0004
 -18738029.34449 -14517787.99848  20448394.4824   20448396.6754   20448394.658
        54.0004         50.0004
 -13660728.76748 -10604515.04047  22516204.8094   22516205.7214   22516205.341
        50.0004         46.0004
 20 11  6  2 12  0.0000000  0  8G05G29G15G07G30G18G13G02
 -21596549.88649 -16775675.88249  20783632.8674   20783635.2494   20783632.859
        60.0004         55.0004
 -12539906.50049  -9715049.25048  22511687.1604   22511689.4914   22511687.204
        56.0004         51.0004
 -18186321.13049 -14113570.48648  21875885.7184   21875888.1494   21875885.404
        56.0004         52.0004
  -4899721.07947  -3786321.95046  24742567.8804   24742568.9224   24742567.503
        44.0004         39.0004
 -10289829.52648  -7977323.72547  23273954.7754   23273960.7254   23273954.533
        48.0004         43.0004
  -7101763.17547  -5476778.61946  23639829.8714   23639831.7954   23639830.163
        46.0004         41.0004
 -18768112.09949 -14541229.09348  20442669.8394   20442672.1664   20442669.971
        54.0004         50.0004
 -13582899.10948 -10543868.57847  22531014.7824   22531017.1354   22531015.153
        50.0004         46.0004
 20 11  6  2 12 30.0000000  0  8G05G29G15G07G30G18G13G02
 -21562259.97449 -16748956.47649  20790157.7494   20790160.2254   20790157.652
        60.0004         55.0004
 -12496773.69449  -9681439.28748  22519894.8764   22519897.4804   22519895.121
        56.0004         51.0004
 -18272415.87549 -14180657.27748  21859502.0104   21859504.7904   21859501.782
        56.0004         52.0004
  -4851613.05647  -3748835.17646  24751721.6294   24751723.2594   24751722.470
        44.0004         39.0004
 -10284411.40448  -7973101.80547  23274986.1714   23274991.2754   23274986.246
        48.0004         43.0004
  -7200653.24947  -5553835.78946  23621012.4384   23621013.6854   23621011.539
        46.0004         41.0004
 -18797637.05549 -14564235.54448  20437051.5094   20437053.3614   20437051.399
        54.0004         50.0004
 -13504730.51748 -10482958.01647  22545890.2624   22545890.9324   22545890.495
        50.0004         45.0004
 20 11  6  2 13  0.0000000  0  8G05G29G15G07G30G18G13G02
 -21527673.23749 -16722005.77649  20796739.5294   20796741.7634   20796739.542
        60.0004         55.0004
 -12453094.34749  -9647403.44148  22528206.6584   22528209.3624   22528206.892
        56.0004         51.0004
 -18358152.59949 -14247465.08748  21843186.7604   21843189.7254   21843186.506
        56.0004         52.0004
  -4803057.96147  -3711000.05346  24760962.4204   24760965.0574   24760961.994
        44.0004         40.0004
 -10278438.52648  -7968447.59647  23276121.7314   23276128.0084   23276122.242
        48.0004         43.0004
  -7299376.02847  -5630762.61446  23602225.3254   23602227.3864   23602225.321
        46.0004         41.0004
 -18826603.86849 -14586807.07748  20431539.4704   20431541.0944   20431539.324
        54.0004         50.0004
 -13426224.59448 -10421784.59447  22560829.4194   22560830.3194   22560829.320
        50.0004         45.0004
 20 11  6  2 13 30.0000000  0  8G05G29G15G07G30G18G13G02
 -21492789.67249 -16694823.77749  20803377.8134   20803379.5824   20803377.475
        59.0004         55.0004
 -12408870.26449  -9612943.14048  22536622.6134   22536625.0074   22536622.550
        55.0004         51.0004
 -18443529.93649 -14313992.85448  21826939.9094   21826942.9674   21826939.285
        56.0004         52.0004
  -4754057.48947  -3672817.87446  24770286.9134   24770289.1414   24770287.067
        45.0004         40.0004
 -10271910.68048  -7963360.94647  23277364.9994   23277369.9264   23277364.428
        48.0004         43.0004
  -7397929.02547  -5707557.13546  23583471.8434   23583472.9494   23583471.830
        46.0004         41.0004
 -18855012.12749 -14608943.37248  20426133.3604   20426135.2374   20426133.540
        54.0004         50.0004
 -13347382.50348 -10360349.22547  22575832.2734   22575833.5014   22575832.816
        50.0004         45.0004
 20 11  6  2 14  0.0000000  0  8G05G29G15G07G30G18G13G02
 -21457610.08449 -16667411.12249  20810072.1864   20810074.5684   20810071.937
        59.0004         55.0004
 -12364103.86849  -9578060.24548  22545140.9384   22545143.8084   22545140.496
        55.0004         50.0004
 -18528546.29849 -14380239.34448  21810761.8254   21810764.4484   21810762.098
        57.0004         52.0004
  -4704613.38047  -3634289.99346  24779695.4494   24779698.1194   24779695.828
        45.0004         40.0004
 -10264827.85248  -7957841.84647  23278712.4554   23278717.6104   23278712.047
        48.0004         43.0004
  -7496309.98947  -5784217.60146  23564750.3774   23564751.2694   23564750.032
        46.0004         41.0004
 -18882861.94649 -14630644.51848  20420833.8864   20420835.8024   20420833.719
        54.0004         50.0004
 -13268205.83748 -10298653.16147  22590899.2754   22590901.2904   22590899.582
        50.0004         45.0004
 20 11  6  2 14 30.0000000  0  8G05G29G15G07G30G18G13G02
 -21422134.64049 -16639767.92749  20816823.0744   20816825.0534   20816822.978
        59.0004         55.0004
 -12318797.25449  -9542756.39648  22553762.4124   22553765.0674   22553762.520
        55.0004         50.0004
 -18613200.44049 -14446203.59148  21794652.9744   21794655.6754   21794652.781
        57.0004         52.0004
  -4654726.87747  -3595417.38646  24789189.2794   24789190.9564   24789188.565
        45.0004         40.0004
 -10257189.98148  -7951890.23547  23280165.0674   23280170.7644   23280166.077
        48.0004         43.0004
  -7594516.69147  -5860742.27246  23546061.2984   23546063.8684   23546061.469
        46.0004         41.0004
 -18910153.05249 -14651910.30248  20415640.4574   20415642.5044   20415640.385
        54.0004         50.0004
 -13188695.97748 -10236697.45047  22606029.1244   22606031.6174   22606029.795
        50.0004         45.0004
 20 11  6  2 15  0.0000000  0  8G05G29G15G07G30G18G13G02
 -21386363.69249 -16611894.46549  20823630.0354   20823631.6914   20823629.856
        59.0004         55.0004
 -12272952.34849  -9507033.11648  22562486.5294   22562489.5114   22562486.453
        55.0004         50.0004
 -18697490.71049 -14511884.29448  21778612.7684   21778615.9284   21778612.404
        57.0004         52.0004
  -4604399.48247  -3556201.24446  24798766.5674   24798768.3764   24798767.079
        45.0004         40.0004
 -10248997.01748  -7945506.09447  23281725.7754   23281731.4064   23281726.014
        48.0004         43.0004
  -7692546.68347  -5937129.25746  23527405.8234   23527409.3134   23527406.348
        46.0004         41.0004
 -18936885.10749 -14672740.47048  20410553.6814   20410555.4854   20410553.575
        54.0004         50.0004
 -13108854.40748 -10174483.28147  22621222.1904   22621223.7634   22621223.367
        50.0004         45.0004
 20 11  6  2 15 30.0000000  0  8G05G29G15G07G30G18G13G02
 -21350297.68749 -16583791.09249  20830493.2664   20830495.1164   20830492.982
        59.0004         55.0004
 -12226571.34549  -9470892.08348  22571312.4274   22571315.5434   22571312.096
        55.0004         51.0004
 -18781415.77149 -14577280.42848  21762642.4904   21762645.3064   21762642.610
        57.0004         52.0004
  -4553632.49747  -3516642.56846  24808426.7004   24808428.5544   24808425.627
        44.0004         40.0004
 -10240248.83948  -7938689.31847  23283389.5614   23283394.7794   23283390.302
        48.0004         43.0004
  -7790397.62547  -6013376.72046  23508786.2524   23508789.7154   23508786.551
        46.0004         41.0004
 -18963058.00149 -14693134.92048  20405572.9884   20405574.7674   20405572.701
        54.0004         50.0004
 -13028682.32848 -10112011.56947  22636478.9144   22636480.3774   22636480.086
        50.0004         45.0004
 20 11  6  2 16  0.0000000  0  8G05G29G15G07G30G18G13G02
 -21313936.90449 -16555458.02549  20837412.4764   20837414.3054   20837412.090
        59.0004         55.0004
 -12179656.45249  -9434335.04048  22580240.0944   22580243.2334   22580240.654
        55.0004         51.0004
 -18864974.07049 -14642390.76448  21746741.6344   21746744.5264   21746741.146
        57.0004         52.0004
  -4502427.14347  -3476742.28446  24818169.9074   24818173.6254   24818168.352
        44.0004         39.0004
 -10230945.47548  -7931439.93747  23285159.5504   23285165.1024   23285159.811
        48.0004         43.0004
  -7888067.14547  -6089482.82946  23490199.6694   23490202.8674   23490200.094
        46.0004         41.0004
 -18988671.71149 -14713093.64548  20400698.9944   20400700.8254   20400698.618
        54.0004         50.0004
 -12948181.21348 -10049283.45847  22651798.2884   22651799.3374   22651798.350
        50.0004         45.0004
 20 11  6  2 16 30.0000000  0  8G05G29G15G07G30G18G13G02
 -21277282.04549 -16526895.80449  20844387.6254   20844389.7794   20844387.455
        59.0004         55.0004
 -12132209.77849  -9397363.62748  22589269.2804   22589271.9734   22589268.728
        55.0004         51.0004
 -18948164.18849 -14707214.21648  21730911.0684   21730913.9514   21730910.720
        57.0004         52.0004
  -4450786.14547  -3436502.53246  24827997.0044   24827999.9384   24827997.128
        44.0004         39.0004
 -10221086.87748  -7923757.90247  23287036.3274   23287041.0094   23287036.723
        48.0004         43.0004
  -7985552.92347  -6165445.74646  23471650.1334   23471652.5134   23471650.121
        46.0004         41.0004
 -19013725.91549 -14732616.39548  20395931.3904   20395932.9694   20395931.446
        54.0004         50.0004
 -12867352.69548  -9986300.22747  22667179.0844   22667181.3294   22667179.974
        50.0004         45.0004
 20 11  6  2 17  0.0000000  0  8G05G29G15G07G30G18G13G02
 -21240333.32749 -16498104.60349  20851418.6794   20851421.0414   20851418.561
        59.0004         55.0004
 -12084233.63849  -9359979.63348  22598398.2684   22598401.1334   22598398.030
        55.0004         51.0004
 -19030984.82649 -14771749.76048  21715150.9694   21715153.8424   21715150.974
        57.0004         52.0004
  -4398710.14647  -3395923.83246  24837906.8394   24837910.1484   24837904.596
        44.0004         39.0004
 -10210673.16247  -7915643.31747  23289017.1534   23289023.5384   23289017.489
        47.0004         43.0004
  -8082852.57347  -6241263.63446  23453133.4914   23453136.8584   23453134.266
        46.0004         41.0004
 -19038220.74949 -14751703.27048  20391270.1454   20391271.8604   20391269.942
        54.0004         50.0004
 -12786198.09848  -9923062.90947  22682622.3214   22682623.0354   22682622.380
        50.0004         45.0004
 20 11  6  2 17 30.0000000  0  8G05G29G15G07G30G18G13G02
 -21203091.00949 -16469084.61949  20858505.4844   20858507.9124   20858505.172
        59.0004         55.0004
 -12035730.10549  -9322184.69848  22607628.9144   22607631.2964   22607629.330
        55.0004         51.0004
 -19113434.53349 -14835996.26948  21699461.3124   21699464.2724   21699461.169
        57.0004         53.0004
  -4346200.69847  -3355007.37746  24847897.5464   24847902.1224   24847897.831
        44.0004         39.0004
 -10199704.37047  -7907096.18547  23291104.7184   23291110.9594   23291104.793
        47.0004         43.0004
  -8179963.75147  -6316934.66447  23434653.8294   23434657.9074   23434654.078
        46.0004         42.0004
 -19062156.14349 -14770354.21848  20386715.3404   20386717.0474   20386715.365
        54.0004         50.0004
 -12704718.91048  -9859572.66947  22698126.9154   22698129.0614   22698128.216
        50.0004         45.0004
 20 11  6  2 18  0.0000000  0  8G05G29G15G07G30G18G13G02
 -21165555.16549 -16439835.91549  20865648.4314   20865650.6094   20865648.574
        59.0004         55.0004
 -11986701.15149  -9283980.33348  22616958.8984   22616961.0264   22616958.581
        55.0004         51.0004
 -19195511.92249 -14899952.65148  21683842.3784   21683845.4704   21683842.142
        57.0004         52.0004
  -4293259.39847  -3313754.41146  24857972.7944   24857976.6694   24857971.513
        44.0004         39.0004
 -10188180.44248  -7898116.48947  23293298.0294   23293303.8534   23293298.473
        48.0004         43.0004
  -8276883.97447  -6392456.88747  23416210.1854   23416213.9914   23416211.262
        46.0004         42.0004
 -19085531.67949 -14788568.91548  20382267.1994   20382269.0134   20382267.014
        54.0004         50.0004
 -12622916.70548  -9795830.72947  22713693.4544   22713695.2474   22713693.818
        50.0004         45.0004
 20 11  6  2 18 30.0000000  0  8G05G29G15G07G30G18G13G02
 -21127726.56149 -16410359.08849  20872847.0744   20872849.0284   20872847.153
        59.0004         55.0004
 -11937149.60749  -9245368.76048  22626388.5394   22626390.6194   22626388.725
        55.0004         51.0004
 -19277215.75649 -14963617.96248  21668294.8224   21668297.3854   21668294.486
        57.0004         53.0004
  -4239887.91647  -3272166.26746  24868129.1294   24868132.8874   24868128.846
        44.0004         39.0004
 -10176101.71348  -7888704.49547  23295596.9444   23295601.2534   23295596.848
        48.0004         43.0004
  -8373611.07647  -6467828.63347  23397804.7804   23397807.1954   23397804.098
        46.0004         42.0004
 -19108347.71649 -14806347.63648  20377925.2194   20377926.9674   20377925.101
        54.0004         50.0004
 -12540792.91248  -9731838.20247  22729321.7554   22729322.3864   22729321.627
        49.0004         45.0004
 20 11  6  2 19  0.0000000  0  8G05G29G15G07G30G18G13G02
 -21089605.54049 -16380654.40049  20880101.3084   20880103.3494   20880101.075
        59.0004         55.0004
 -11887077.06149  -9206351.20248  22635916.4834   22635919.7774   22635916.235
        55.0004         51.0004
 -19358544.01249 -15026990.61048  21652818.7374   21652821.1314   21652818.407
        57.0004         53.0004
  -4186088.04247  -3230244.30246  24878367.7204   24878368.3904   24878367.492
        44.0004         39.0004
 -10163468.09748  -7878860.12447  23298000.8414   23298005.6184   23298001.209
        48.0004         43.0004
  -8470142.45947  -6543047.88847  23379434.6054   23379437.0054   23379434.646
        46.0004         42.0004
 -19130603.98649 -14823690.17648  20373690.0814   20373691.8574   20373690.202
        54.0004         50.0004
 -12458349.08148  -9667596.28347  22745010.1354   22745011.2014   22745010.282
        49.0004         45.0004
 20 11  6  2 19 30.0000000  0  8G05G29G15G07G30G18G13G02
 -21051192.48949 -16350722.16349  20887411.4674   20887413.6164   20887411.254
        59.0004         55.0004
 -11836486.23949  -9166929.79648  22645543.1494   22645546.8314   22645542.999
        55.0004         50.0004
 -19439495.95149 -15090070.03048  21637414.0684   21637416.6004   21637413.634
        57.0004         53.0004
  -4131861.34747  -3187989.74346  24888686.1104   24888689.3754   24888686.257
        44.0004         39.0004
 -10150279.86547  -7868583.58447  23300510.6744   23300514.9324   23300512.130
        47.0004         43.0004
  -8566475.81047  -6618112.81447  23361102.5204   23361106.4554   23361102.679
        46.0004         42.0004
 -19152300.72749 -14840596.72048  20369561.0954   20369563.0714   20369561.197
        54.0004         50.0004
 -12375586.37548  -9603105.90047  22760758.7264   22760761.1584   22760759.427
        49.0004         45.0004
 20 11  6  2 20  0.0000000  0  8G05G29G15G07G30G18G13G02
 -21012487.68149 -16320562.57649  20894776.4904   20894778.6944   20894776.390
        59.0004         55.0004
 -11785379.34649  -9127106.27748  22655269.1154   22655272.1094   22655269.791
        55.0004         51.0004
 -19520070.04949 -15152855.03048  21622081.5034   21622083.7244   21622081.151
        57.0004         53.0004
  -4077209.14947  -3145403.63946  24899085.9674   24899088.6254   24899085.993
        44.0004         39.0004
 -10136537.14247  -7857874.98147  23303125.7224   23303130.9544   23303125.538
        47.0004         43.0004
  -8662608.71547  -6693021.54847  23342809.8694   23342812.5794   23342809.448
        47.0004         42.0004
 -19173437.66049 -14857067.05348  20365539.2454   20365541.0124   20365539.065
        54.0004         50.0004
 -12292506.59748  -9538368.44847  22776569.0464   22776570.0184   22776570.232
        49.0004         44.0004
 20 11  6  2 20 30.0000000  0  8G05G29G15G07G30G18G13G02
 -20973491.46749 -16290175.92849  20902197.2044   20902199.2574   20902197.097
        59.0004         55.0004
 -11733758.76349  -9086882.46648  22665092.2834   22665094.8724   22665092.574
        55.0004         50.0004
 -19600265.04649 -15215344.62048  21606820.5134   21606823.4964   21606820.064
        57.0004         53.0004
  -4022132.76847  -3102487.00846  24909567.7604   24909568.2224   24909567.942
        44.0004         39.0004
 -10122240.12147  -7846734.45547  23305846.0254   23305851.0104   23305846.884
        47.0004         42.0004
  -8758538.75847  -6767772.21647  23324555.6084   23324557.8654   23324555.258
        47.0004         42.0004
 -19194015.17749 -14873101.46948  20361623.1264   20361625.1754   20361623.109
        54.0004         50.0004
 -12209111.16148  -9473385.02447  22792438.8904   22792440.3894   22792438.472
        49.0004         45.0004
 20 11  6  2 21  0.0000000  0  8G05G29G15G07G30G18G13G02
 -20934204.33349 -16259562.59149  20909673.2404   20909675.3054   20909673.005
        59.0004         55.0004
 -11681626.53749  -9046259.97148  22675012.2234   22675015.6254   22675011.413
        55.0004         50.0004
 -19680079.60849 -15277537.77848  21591632.2274   21591635.2434   21591632.062
        57.0004         53.0004
  -3966634.60147  -3059241.71346  24920128.1734   24920129.6714   24920128.861
        44.0004         39.0004
 -10107388.98547  -7835162.14047  23308671.5884   23308677.8504   23308672.704
        47.0004         42.0004
  -8854263.52547  -6842362.93247  23306340.1534   23306341.8804   23306339.117
        47.0004         42.0004
 -19214033.04949 -14888699.80548  20357814.1744   20357815.7774   20357814.041
        54.0004         50.0004
 -12125401.78048  -9408156.96747  22808368.4174   22808369.9614   22808368.627
        49.0004         44.0004
 20 11  6  2 21 30.0000000  0  8G05G29G15G07G30G18G13G02
 -20894626.65049 -16228722.85349  20917204.7474   20917206.8434   20917204.505
        59.0004         55.0004
 -11628985.30349  -9005240.84248  22685030.0434   22685032.1404   22685029.906
        55.0004         50.0004
 -19759512.39649 -15339433.44348  21576516.8644   21576519.3814   21576516.893
        57.0004         53.0004
  -3910716.07547  -3015668.88246  24930768.5484   24930772.1574   24930768.328
        44.0004         39.0004
 -10091984.02847  -7823158.29147  23311603.4964   23311609.4614   23311604.840
        47.0004         43.0004
  -8949780.66947  -6916791.86247  23288162.8624   23288167.0594   23288163.177
        47.0004         42.0004
 -19233491.77549 -14903862.43948  20354111.4204   20354113.0124   20354111.024
        54.0004         50.0004
 -12041380.00048  -9342685.48647  22824357.1764   22824357.1854   22824357.076
        49.0004         44.0004
 20 11  6  2 22  0.0000000  0  8G05G29G15G07G30G18G13G02
 -20854758.70549 -16197656.93649  20924791.5984   20924793.6544   20924791.174
        59.0004         55.0004
 -11575837.63149  -8963827.08548  22695143.7294   22695145.6824   22695143.352
        55.0004         50.0004
 -19838562.02149 -15401030.54248  21561474.4704   21561476.9374   21561474.165
        57.0004         53.0004
  -3854378.82447  -2971769.75146  24941488.5264   24941491.8664   24941488.871
        43.0004         39.0004
 -10076025.48247  -7810723.07247  23314641.0764   23314645.9644   23314641.390
        47.0004         43.0004
  -9045087.65647  -6991057.03547  23270026.6704   23270028.9954   23270026.417
        47.0004         42.0004
 -19252391.14449 -14918589.21048  20350514.5684   20350516.4504   20350514.697
        54.0004         50.0004
 -11957047.32148  -9276971.74747  22840405.2384   22840407.2474   22840405.445
        49.0004         44.0004
 20 11  6  2 22 30.0000000  0  8G05G29G15G07G30G18G13G02
 -20814600.81549 -16166365.08449  20932433.1864   20932435.2634   20932432.959
        59.0004         55.0004
 -11522185.49649  -8922020.23148  22705353.2644   22705355.8314   22705353.126
        55.0004         50.0004
 -19917227.13049 -15462328.01848  21546504.6874   21546507.2384   21546504.113
        57.0004         53.0004
  -3797624.41847  -2927545.58046  24952287.9004   24952291.6254   24952288.206
        43.0004         38.0004
 -10059513.64647  -7797856.72147  23317783.1114   23317787.9064   23317782.611
        47.0004         43.0004
  -9140182.14347  -7065156.61247  23251930.1554   23251933.3874   23251929.326
        47.0004         42.0004
 -19270731.40049 -14932880.31148  20347024.7474   20347026.3744   20347024.707
        54.0004         50.0004
 -11872405.25248  -9211016.91447  22856511.5054   22856512.7734   22856511.670
        49.0004         44.0004
 20 11  6  2 23  0.0000000  0  8G05G29G15G07G30G18G13G02
 -20774153.40249 -16134847.62349  20940129.9044   20940132.1724   20940129.215
        59.0004         55.0004
 -11468031.53649  -8879822.36248  22715658.1684   22715661.1084   22715658.124
        55.0004         50.0004
 -19995506.53449 -15523324.94448  21531608.6464   21531611.3784   21531608.772
        57.0004         53.0004
  -3740454.42447  -2882997.59546  24963167.2104   24963170.9814   24963166.031
        43.0004         38.0004
 -10042448.73048  -7784559.38847  23321029.5334   23321035.2374   23321029.876
        48.0004         43.0004
  -9235061.60447  -7139088.63247  23233875.5334   23233878.9474   23233874.771
        47.0004         42.0004
 -19288512.67249 -14946735.83948  20343640.9184   20343642.7544   20343640.788
        54.0004         50.0004
 -11787455.39248  -9144822.26747  22872677.5154   22872677.6424   22872678.255
        49.0004         44.0004
 20 11  6  2 23 30.0000000  0  8G05G29G15G07G30G18G13G02
 -20733416.99749 -16103104.97949  20947881.8724   20947883.9584   20947881.588
        59.0004         55.0004
 -11413378.30549  -8837235.44248  22726058.2354   22726061.3944   22726058.294
        55.0004         50.0004
 -20073398.93749 -15584020.31248  21516786.1174   21516788.4704   21516785.108
        57.0004         53.0004
  -3682870.78447  -2838127.27846  24974125.9134   24974130.1824   24974124.898
        43.0004         39.0004
 -10024831.16248  -7770831.42147  23324382.0934   23324388.9224   23324382.517
        48.0004         43.0004
  -9329723.67147  -7212851.27547  23215861.5234   23215863.6184   23215861.203
        47.0004         42.0004
 -19305735.09149 -14960155.89248  20340363.5734   20340365.2764   20340363.723
        54.0004         50.0004
 -11702199.35048  -9078389.02047  22888901.4314   22888902.4334   22888901.186
        49.0004         44.0004
 20 11  6  2 24  0.0000000  0  8G05G29G15G07G30G18G13G02
 -20692391.78649 -16071137.29449  20955688.8204   20955690.4644   20955688.633
        59.0004         55.0004
 -11358228.19849  -8794261.34548  22736552.8834   22736556.0444   22736553.148
        55.0004         50.0004
 -20150903.06949 -15644413.13848  21502037.4574   21502039.5614   21502037.193
        57.0004         53.0004
  -3624875.14447  -2792935.91346  24985163.8394   24985166.4904   24985161.823
        43.0004         38.0004
 -10006661.27648  -7756673.06647  23327839.8604   23327846.2414   23327839.531
        48.0004         43.0004
  -9424165.91447  -7286442.61547  23197890.3664   23197892.8534   23197889.598
        47.0004         42.0004
 -19322398.78349 -14973140.57848  20337192.5944   20337194.3064   20337192.701
        54.0004         50.0004
 -11616638.88948  -9011718.56247  22905183.0274   22905183.2354   22905183.405
        49.0004         44.0004
 20 11  6  2 24 30.0000000  0  8G05G29G15G07G30G18G13G02
 -20651078.13849 -16038944.84649  20963550.4244   20963552.4604   20963550.164
        59.0004         55.0004
 -11302583.42649  -8750901.80548  22747142.1594   22747144.8724   22747142.222
        55.0004         50.0004
 -20228017.47149 -15704502.27548  21487363.2694   21487365.3704   21487363.231
        57.0004         53.0004
  -3566469.19247  -2747424.83146  24996276.5174   24996279.8044   24996277.644
        43.0004         38.0004
  -9987939.40948  -7742084.60547  23331401.7314   23331408.5284   23331402.631
        48.0004         43.0004
  -9518385.84347  -7359860.72247  23179960.2864   23179963.0724   23179959.605
        47.0004         42.0004
 -19338504.13349 -14985690.19348  20334128.2094   20334129.6194   20334127.796
        54.0004         50.0004
 -11530775.56248  -8944812.12647  22921522.1474   22921523.7474   22921522.058
        49.0004         44.0004
 20 11  6  2 25  0.0000000  0  8G05G29G15G07G30G18G13G02
 -20609476.55949 -16006528.04149  20971466.9194   20971469.2024   20971466.645
        59.0004         55.0004
 -11246446.70249  -8707158.91948  22757824.6424   22757826.9054   22757824.685
        55.0004         50.0004
 -20304741.11149 -15764286.92648  21472763.2134   21472765.5004   21472763.464
        58.0004         53.0004
  -3507654.81247  -2701595.49046  25007469.5304   25007472.0114   25007469.351
        43.0004         39.0004
  -9968665.97147  -7727066.33547  23335069.9834   23335074.9314   23335069.912
        47.0004         43.0004
  -9612380.99547  -7433103.67047  23162073.9494   23162076.0374   23162073.976
        47.0004         43.0004
 -19354051.42449 -14997804.95648  20331169.2644   20331170.9474   20331169.442
        54.0004         50.0004
 -11444610.70348  -8877670.69547  22937918.7474   22937920.0594   22937919.201
        49.0004         45.0004
 20 11  6  2 25 30.0000000  0  8G05G29G15G07G30G18G13G02
 -20567587.43249 -15973887.17049  20979438.1724   20979440.3184   20979437.926
        59.0004         55.0004
 -11189820.36749  -8663034.52948  22768600.1874   22768603.1154   22768599.993
        55.0004         50.0004
 -20381072.64949 -15823766.03448  21458237.7054   21458240.3164   21458236.961
        58.0004         53.0004
  -3448433.53947  -2655449.08046  25018738.7424   25018741.9314   25018738.624
        43.0004         39.0004
  -9948841.41647  -7711618.63947  23338843.1044   23338847.7244   23338843.973
        47.0004         43.0004
  -9706148.93347  -7506169.57947  23144230.9154   23144233.5774   23144230.505
        47.0004         43.0004
 -19369040.64949 -15009484.86248  20328317.1064   20328318.7294   20328316.785
        54.0004         50.0004
 -11358146.29548  -8810295.87147  22954371.7694   22954373.4884   22954372.578
        49.0004         44.0004
 20 11  6  2 26  0.0000000  0  8G05G29G15G07G30G18G13G02
 -20525411.07649 -15941022.48549  20987464.3734   20987466.0804   20987464.247
        59.0004         55.0004
 -11132707.00249  -8618530.63348  22779468.4374   22779471.2684   22779468.436
        55.0004         50.0004
 -20457011.02149 -15882938.78748  21443787.1894   21443789.4674   21443787.235
        58.0004         53.0004
  -3388806.82447  -2608986.76546  25030086.6324   25030087.6474   25030087.063
        44.0004         39.0004
  -9928466.15247  -7695741.78547  23342719.9524   23342725.3294   23342720.113
        47.0004         43.0004
  -9799687.21048  -7579056.54347  23126431.8384   23126435.2514   23126431.033
        48.0004         43.0004
 -19383472.30849 -15020730.30448  20325570.8274   20325572.6884   20325570.857
        54.0004         50.0004
 -11271383.73048  -8742688.73547  22970881.9264   22970884.5974   22970883.033
        49.0004         45.0004
 20 11  6  2 26 30.0000000  0  8G05G29G15G07G30G18G13G02
 -20482947.93449 -15907934.32949  20995544.5064   20995546.4574   20995544.441
        59.0004         55.0004
 -11075109.54149  -8573649.51448  22790428.6254   22790431.2094   22790428.339
        55.0004         50.0004
 -20532554.90449 -15941804.13448  21429411.6174   21429414.0994   21429411.383
        58.0004         53.0004
  -3328777.27247  -2562210.50846  25041510.2244   25041513.1384   25041509.557
        43.0004         39.0004
  -9907540.66447  -7679436.20647  23346702.0704   23346706.7524   23346702.091
        47.0004         43.0004
  -9892993.36448  -7651762.60747  23108674.7414   23108678.9274   23108674.563
        48.0004         43.0004
 -19397346.61549 -15031541.43748  20322930.5984   20322932.3914   20322930.746
        54.0004         50.0004
 -11184324.71248  -8674850.57347  22987449.0604   22987450.7814   22987449.897
        49.0004         44.0004
 20 11  6  2 27  0.0000000  0  8G05G29G15G07G30G18G13G02
 -20440198.30249 -15874622.94149  21003679.7114   21003681.5884   21003679.379
        59.0004         55.0004
 -11017029.91749  -8528392.68848  22801481.1684   22801483.3134   22801481.471
        55.0004         50.0004
 -20607703.06749 -16000361.13448  21415111.4094   21415114.0164   21415111.688
        58.0004         53.0004
  -3268346.26847  -2515121.44146  25053007.8874   25053012.1804   25053007.565
        43.0004         39.0004
  -9886065.40647  -7662702.23447  23350788.4354   23350793.1214   23350789.558
        47.0004         43.0004
  -9986064.90348  -7724285.87547  23090964.8514   23090966.9424   23090964.387
        48.0004         43.0004
 -19410663.85549 -15041918.49848  20320396.4324   20320397.9264   20320396.038
        54.0004         50.0004
 -11096970.81848  -8606782.65047  23004072.5484   23004073.8244   23004072.880
        49.0004         44.0004
 20 11  6  2 27 30.0000000  0  8G05G29G15G07G30G18G13G02
 -20397162.20849 -15841088.34049  21011868.9934   21011871.0324   21011868.781
        59.0004         55.0004
 -10958470.98049  -8482762.36248  22812624.6154   22812627.5194   22812624.205
        55.0004         50.0004
 -20682454.37249 -16058608.88848  21400886.5324   21400888.9354   21400886.281
        58.0004         53.0004
  -3207515.73947  -2467721.06746  25064583.6674   25064585.9504   25064583.907
        43.0004         38.0004
  -9864040.91747  -7645540.29047  23354979.1884   23354984.5994   23354979.796
        47.0004         43.0004
 -10078899.38448  -7796624.41647  23073298.2714   23073302.0514   23073298.271
        48.0004         43.0004
 -19423424.46549 -15051861.82448  20317968.3494   20317969.7384   20317968.192
        54.0004         50.0004
 -11009323.95948  -8538486.43347  23020751.5084   23020752.1984   23020751.729
        49.0004         44.0004
 20 11  6  2 28  0.0000000  0  8G05G29G15G07G30G18G13G02
 -20353840.68549 -15807331.31849  21020112.7054   21020114.9534   21020112.480
        59.0004         55.0004
 -10899435.29749  -8436760.56348  22823859.3454   22823861.5354   22823859.731
        55.0004         50.0004
 -20756807.52449 -16116546.39648  21386737.6854   21386740.0574   21386737.622
        58.0004         53.0004
  -3146286.84647  -2420010.25746  25076234.6854   25076237.4534   25076234.564
        43.0004         38.0004
  -9841467.69847  -7627950.77147  23359275.0504   23359280.4194   23359275.559
        47.0004         43.0004
 -10171494.26948  -7868776.26947  23055678.4964   23055681.7704   23055678.312
        48.0004         43.0004
 -19435628.63949 -15061371.56148  20315645.5874   20315647.2404   20315645.640
        54.0004         50.0004
 -10921385.78248  -8469963.22247  23037484.9534   23037486.6364   23037484.450
        49.0004         44.0004
 20 11  6  2 28 30.0000000  0  8G05G29G15G07G30G18G13G02
 -20310233.85449 -15773351.98649  21028410.7534   21028413.1214   21028410.524
        59.0004         55.0004
 -10839925.54549  -8390389.35448  22835182.9424   22835186.0564   22835182.943
        55.0004         50.0004
 -20830761.41549 -16174172.79248  21372664.6144   21372667.3264   21372663.775
        58.0004         53.0004
  -3084662.20047  -2371991.07046  25087962.5394   25087966.4014   25087959.909
        43.0004         38.0004
  -9818346.36247  -7609934.15047  23363675.2594   23363680.4484   23363675.574
        47.0004         43.0004
 -10263847.15248  -7940739.54347  23038104.1554   23038107.2664   23038104.151
        48.0004         43.0004
 -19447276.75349 -15070448.00748  20313429.0344   20313430.6594   20313429.137
        54.0004         50.0004
 -10833157.85848  -8401214.22047  23054275.2334   23054276.0644   23054275.138
        48.0004         43.0004
 20 11  6  2 29  0.0000000  0  8G05G29G15G07G30G18G13G02
 -20266342.09749 -15739150.62849  21036763.2604   21036765.5714   21036762.992
        59.0004         55.0004
 -10779944.06149  -8343650.55348  22846597.2654   22846600.3984   22846597.534
        55.0004         50.0004
 -20904314.81049 -16231487.09848  21358667.7514   21358670.5664   21358667.220
        58.0004         53.0004
  -3022643.06747  -2323664.50846  25099762.9584   25099767.8184   25099762.053
        43.0004         38.0004
  -9794677.39347  -7591490.79847  23368179.3274   23368184.9084   23368180.098
        47.0004         43.0004
 -10355955.50248  -8012512.25747  23020576.8604   23020579.8774   23020576.091
        48.0004         43.0004
 -19458369.30549 -15079091.54648  20311318.3594   20311319.9284   20311318.535
        54.0004         50.0004
 -10744641.77348  -8332240.68147  23071118.8424   23071120.1074   23071119.148
        48.0004         44.0004
