     2.11           OBSERVATION DATA    G (GPS)             RINEX VERSION / TYPE
teqc  2018Dec12     gpsops              20201106 00:21:04UTCPGM / RUN BY / DATE
Linux 2.6.32-573.12.1.x86_64|x86_64|gcc -static|Linux 64|=+ COMMENT
BIT 2 OF LLI FLAGS DATA COLLECTED UNDER A/S CONDITION       COMMENT
CHAN                                                        MARKER NAME
21611M002                                                   MARKER NUMBER
GGN                 Changchun Observatory,NAOC,CAS          OBSERVER / AGENCY
UC2200511014        ASHTECH UZ-12       CQ00                REC # / TYPE / VERS
CR6200503027        ASH701945E_M    NONE                    ANT # / TYPE
 -2674431.9143  3757145.2969  4391528.8732                  APPROX POSITION XYZ
        0.2500        0.0000        0.0000                  ANTENNA: DELTA H/E/N
     1     1                                                WAVELENGTH FACT L1/2
     7    L1    L2    P1    P2    C1    S1    S2            # / TYPES OF OBSERV
    30.0000                                                 INTERVAL
Forced Modulo Decimation to 30 seconds                      COMMENT
                                                            COMMENT
 SNR is mapped to RINEX snr flag value [0-9]                COMMENT
  L1 & L2: min(max(int(snr_dBHz/6), 0), 9)                  COMMENT
pseudorange smoothing corrections not applied               COMMENT
  2020    11     5     0     0    0.0000000     GPS         TIME OF FIRST OBS
                                                            END OF HEADER
 20 11  5  0  0  0.0000000  0  9G06G05G19G02G17G09G29G25G12
 -16937392.94848 -13142271.05148  21741790.1704   21741795.3074   21741789.723
        52.0004         48.0004
 -19071219.68649 -14801699.64548  21320969.2344   21320970.9014   21320969.020
        58.0004         53.0004
  -4303268.56547  -3342357.67847  23794626.2684   23794628.5694   23794626.487
        47.0004         42.0004
 -20574486.75149 -15987006.58148  21203769.5634   21203770.0914   21203770.460
        55.0004         51.0004
   1513481.41346   1185564.83846  24890957.9314   24890960.4354   24890955.931
        41.0004         36.0004
 -12210486.86148  -9477493.49547  22640674.8744   22640679.9774   22640674.830
        50.0004         45.0004
  -3164923.37148  -2412076.11247  24354384.4394   24354386.5324   24354385.245
        49.0004         44.0004
    316648.44248    271878.28147  24728467.2154   24728473.2094   24728467.610
        48.0004         43.0004
  -1270488.56648   -943538.89847  24722288.3654   24722291.9154   24722285.390
        49.0004         44.0004
 20 11  5  0  0 30.0000000  0  9G06G05G19G02G17G09G29G25G12
 -16878680.93848 -13096521.47848  21752963.0734   21752967.8514   21752962.009
        52.0004         48.0004
 -19128552.90849 -14846374.87548  21310058.7464   21310060.9284   21310059.031
        58.0004         53.0004
  -4186081.53447  -3251043.16347  23816926.9034   23816928.4274   23816928.554
        46.0004         42.0004
 -20597660.36749 -16005063.95648  21199359.9814   21199360.4834   21199360.921
        55.0004         51.0004
   1625664.92446   1272980.47746  24912304.8774   24912310.0324   24912304.403
        41.0004         37.0004
 -12148447.06348  -9429150.80347  22652481.4234   22652485.5884   22652480.842
        50.0004         45.0004
  -3263717.77548  -2489058.78147  24335583.8394   24335586.5924   24335584.220
        49.0004         44.0004
    366564.90548    310774.15147  24737966.2254   24737972.4124   24737966.894
        48.0004         44.0004
  -1185334.11448   -877184.85447  24738493.7284   24738496.9544   24738493.188
        49.0004         44.0004
 20 11  5  0  1  0.0000000  0  9G06G05G19G02G17G09G29G25G12
 -16819671.47348 -13050540.09848  21764192.0564   21764197.4124   21764191.795
        52.0004         48.0004
 -19185542.01549 -14890781.96349  21299214.3594   21299216.1034   21299214.102
        58.0004         54.0004
  -4068743.05747  -3159610.62646  23839254.8764   23839256.6864   23839255.665
        46.0004         41.0004
 -20620553.37649 -16022902.67348  21195003.4094   21195004.0574   21195004.004
        55.0004         51.0004
   1737904.34247   1360439.68846  24933662.2184   24933665.8114   24933662.529
        42.0004         37.0004
 -12085925.99848  -9380433.12147  22664378.5844   22664383.5024   22664377.584
        49.0004         45.0004
  -3362252.88748  -2565839.39047  24316832.4714   24316835.4984   24316833.071
        49.0004         44.0004
    416901.13848    349997.14947  24747544.7094   24747551.6104   24747545.356
        49.0004         44.0004
  -1100000.12348   -810690.87647  24754732.3534   24754735.5074   24754733.874
        48.0004         43.0004
 20 11  5  0  1 30.0000000  0  9G06G05G19G02G17G09G29G25G12
 -16760364.73348 -13004327.09048  21775477.7864   21775483.0814   21775477.299
        52.0004         48.0004
 -19242186.48549 -14934920.50849  21288435.4344   21288437.0664   21288435.292
        58.0004         54.0004
  -3951256.01647  -3068062.34246  23861611.8724   23861614.1094   23861613.799
        46.0004         41.0004
 -20643164.91249 -16040522.06148  21190700.7354   21190701.1434   21190701.183
        55.0004         51.0004
   1850197.27447   1447940.60146  24955032.3544   24955034.9054   24955031.279
        42.0004         37.0004
 -12022925.82848  -9331342.08847  22676366.7854   22676370.9324   22676366.725
        49.0004         45.0004
  -3460526.09548  -2642415.90047  24298132.9304   24298135.4724   24298133.965
        49.0004         45.0004
    467654.84948    389545.45147  24757204.1964   24757209.9804   24757203.712
        49.0004         44.0004
  -1014488.88748   -744058.80847  24771005.3094   24771008.0504   24771007.945
        48.0004         44.0004
 20 11  5  0  2  0.0000000  0  9G06G05G19G02G17G09G29G25G12
 -16700761.06848 -12957882.70648  21786820.3064   21786825.4644   21786819.509
        52.0004         48.0004
 -19298486.31649 -14978790.49749  21277721.6264   21277724.0944   21277721.851
        58.0004         54.0004
  -3833623.61347  -2976400.75846  23883996.4864   23883998.9504   23883997.708
        46.0004         41.0004
 -20665493.67449 -16057921.10548  21186451.6364   21186452.2344   21186452.281
        55.0004         51.0004
   1962541.23447   1535481.28246  24976409.7994   24976414.1524   24976409.968
        42.0004         38.0004
 -11959448.81548  -9281879.49247  22688446.3144   22688449.9844   22688445.255
        49.0004         45.0004
  -3558534.49148  -2718786.07947  24279482.7814   24279484.5654   24279483.327
        49.0004         44.0004
    518823.33648    429416.96347  24766940.2664   24766946.0054   24766938.563
        48.0004         43.0004
   -928804.02248   -677291.41247  24787310.0244   24787313.1774   24787311.296
        48.0004         43.0004
 20 11  5  0  2 30.0000000  0  9G06G05G19G02G17G09G29G25G12
 -16640860.64348 -12911207.08048  21798218.9614   21798224.4924   21798218.587
        52.0004         48.0004
 -19354440.68349 -15022391.29849  21267074.0344   21267075.8714   21267073.576
        58.0004         54.0004
  -3715847.80347  -2884627.45046  23906408.4444   23906410.9554   23906409.411
        45.0004         41.0004
 -20687538.40449 -16075098.82948  21182256.8544   21182257.4234   21182257.321
        55.0004         51.0004
   2074934.10247   1623060.06846  24997797.4614   24997802.9594   24997797.682
        42.0004         37.0004
 -11895497.07948  -9232046.99147  22700615.4404   22700620.9084   22700615.787
        49.0004         45.0004
  -3656275.44348  -2794947.85047  24260883.2734   24260885.4594   24260883.395
        49.0004         44.0004
    570404.20147    469609.80247  24776753.7604   24776761.1014   24776753.475
        47.0004         42.0004
   -842948.89648   -610391.37547  24803648.6574   24803648.6884   24803646.336
        48.0004         43.0004
 20 11  5  0  3  0.0000000  0  9G06G05G19G02G17G09G29G25G12
 -16580663.84248 -12864300.51648  21809674.3124   21809679.2964   21809673.587
        52.0004         48.0004
 -19410049.34949 -15065722.72349  21256491.6464   21256493.9394   21256491.502
        58.0004         54.0004
  -3597931.44647  -2792744.61146  23928847.7874   23928850.2484   23928848.349
        45.0004         40.0004
 -20709298.01749 -16092054.38148  21178116.1554   21178116.5874   21178117.055
        55.0004         51.0004
   2187373.28847   1710674.93946  25019192.8124   25019198.5914   25019194.222
        42.0004         37.0004
 -11831072.96948  -9181846.39047  22712874.7544   22712880.2104   22712874.701
        49.0004         45.0004
  -3753746.46848  -2870899.30147  24242335.3604   24242336.6064   24242335.385
        49.0004         44.0004
    622394.84947    510121.96747  24786648.0344   24786655.1264   24786647.062
        47.0004         42.0004
   -756927.15748   -543361.47647  24820016.7074   24820020.6394   24820015.466
        48.0004         43.0004
 20 11  5  0  3 30.0000000  0  9G06G05G19G02G17G09G29G25G12
 -16520170.90848 -12817163.19048  21821185.7404   21821190.0244   21821185.734
        52.0004         48.0004
 -19465311.91549 -15108784.45649  21245975.6854   21245978.0024   21245975.186
        58.0004         54.0004
  -3479876.98347  -2700754.14246  23951313.0354   23951314.2764   23951314.493
        45.0004         40.0004
 -20730771.10449 -16108786.66348  21174029.7664   21174030.5394   21174030.622
        55.0004         51.0004
   2299856.57447   1798324.17346  25040598.6634   25040602.7844   25040598.304
        42.0004         37.0004
 -11766178.62748  -9131279.38447  22725223.7374   22725228.8624   22725224.035
        49.0004         45.0004
  -3850944.50848  -2946638.02147  24223839.1744   24223840.9584   24223837.784
        49.0004         45.0004
    674792.66547    550951.40547  24796620.4624   24796626.7854   24796621.453
        47.0004         43.0004
   -670741.76948   -476204.04047  24836418.4294   24836420.6144   24836416.054
        48.0004         43.0004
 20 11  5  0  4  0.0000000  0  9G06G05G19G02G17G09G29G25G12
 -16459382.11448 -12769795.32848  21832753.4934   21832758.6094   21832752.634
        52.0004         48.0004
 -19520228.11149 -15151576.30049  21235525.9494   21235527.7934   21235525.652
        58.0004         54.0004
  -3361686.87347  -2608658.01846  23973802.3694   23973805.3184   23973805.194
        44.0004         39.0004
 -20751956.41949 -16125294.70548  21169998.5814   21169999.0164   21169999.326
        56.0004         51.0004
   2412381.78447   1886006.09346  25062012.5884   25062016.2354   25062012.040
        42.0004         37.0004
 -11700816.34948  -9080347.75547  22737661.4424   22737666.8064   22737661.797
        49.0004         44.0004
  -3947866.96348  -3022161.98347  24205395.3124   24205397.0724   24205396.001
        49.0004         45.0004
    727595.17048    592096.16847  24806668.0114   24806674.3584   24806667.789
        48.0004         43.0004
   -584395.45748   -408921.24147  24852848.5164   24852853.2094   24852847.717
        48.0004         43.0004
 20 11  5  0  4 30.0000000  0  9G06G05G19G02G17G09G29G25G12
 -16398297.73848 -12722197.14748  21844377.2844   21844382.2204   21844376.790
        52.0004         48.0004
 -19574797.69249 -15194098.04749  21225141.2544   21225143.4954   21225141.180
        58.0004         54.0004
  -3243363.51447  -2516458.04246  23996319.1204   23996322.8354   23996321.172
        44.0004         39.0004
 -20772853.05349 -16141577.80148  21166022.2324   21166022.6614   21166022.911
        56.0004         51.0004
   2524946.76546   1973719.00646  25083431.2824   25083437.7284   25083432.735
        41.0004         36.0004
 -11634988.37948  -9029053.24047  22750188.7374   22750193.6564   22750188.107
        49.0004         45.0004
  -4044510.19948  -3097468.39347  24187004.4504   24187006.0844   24187007.051
        49.0004         45.0004
    780799.75648    633554.26947  24816792.6714   24816799.9544   24816792.822
        48.0004         43.0004
   -497891.63547   -341515.70847  24869309.7434   24869314.2194   24869311.749
        47.0004         43.0004
 20 11  5  0  5  0.0000000  0  9G06G05G19G02G17G09G29G25G12
 -16336918.21648 -12674368.98448  21856057.4994   21856062.5904   21856056.918
        52.0004         48.0004
 -19629020.34849 -15236349.46449  21214822.9814   21214825.1024   21214822.353
        58.0004         54.0004
  -3124910.21347  -2424156.84746  24018860.3844   24018862.7554   24018861.697
        44.0004         39.0004
 -20793460.14949 -16157635.28848  21162100.8564   21162100.9964   21162101.407
        56.0004         51.0004
   2637548.69846   2061460.70145  25104858.3554   25104865.6764   25104859.573
        40.0004         35.0004
 -11568697.07548  -8977397.69447  22762804.0704   22762809.0364   22762803.502
        49.0004         45.0004
  -4140872.50848  -3172555.89147  24168667.3284   24168668.9194   24168667.788
        49.0004         44.0004
    834403.69048    675323.53847  24826992.7784   24826999.5864   24826992.891
        48.0004         43.0004
   -411234.07547   -273990.42147  24885801.3064   24885803.9824   24885804.336
        47.0004         43.0004
 20 11  5  0  5 30.0000000  0  9G06G05G19G02G17G09G29G25G12
 -16275243.63148 -12626310.89348  21867793.9924   21867799.0284   21867792.959
        52.0004         48.0004
 -19682895.62849 -15278330.19749  21204571.0204   21204572.9354   21204570.926
        58.0004         54.0004
  -3006328.90247  -2331755.86646  24041427.0164   24041427.9784   24041428.158
        44.0004         40.0004
 -20813775.81449 -16173465.67948  21158234.8384   21158235.2084   21158235.500
        56.0004         51.0004
   2750185.56046   2149229.66945  25126294.2024   25126298.5204   25126294.523
        40.0004         35.0004
 -11501944.57448  -8925382.76447  22775505.9364   22775510.8034   22775506.660
        49.0004         44.0004
  -4236950.63648  -3247421.95647  24150384.7344   24150386.6284   24150384.924
        49.0004         45.0004
    888404.64247    717402.12447  24837269.2634   24837277.0194   24837269.568
        47.0004         43.0004
   -324425.73147   -206347.62847  24902320.1024   24902324.3784   24902320.425
        47.0004         42.0004
 20 11  5  0  6  0.0000000  0  9G06G05G19G02G17G09G29G25G12
 -16213274.45548 -12578023.24447  21879585.8034   21879591.4164   21879585.732
        52.0004         47.0004
 -19736423.15349 -15320039.95449  21194385.1024   21194387.1464   21194385.124
        58.0004         54.0004
  -2887622.17647  -2239257.17746  24064014.9874   24064017.7834   24064016.282
        44.0004         40.0004
 -20833799.00049 -16189068.16248  21154424.4074   21154424.7854   21154424.774
        56.0004         51.0004
   2862855.08746   2237024.07745  25147730.8554   25147740.9784   25147735.324
        39.0004         34.0004
 -11434733.29348  -8873010.35047  22788294.9764   22788301.1014   22788294.960
        49.0004         44.0004
  -4332741.76548  -3322064.38247  24132155.8164   24132158.5904   24132156.574
        50.0004         45.0004
    942799.74747    759787.88147  24847621.0114   24847626.7274   24847621.488
        47.0004         42.0004
   -237469.83647   -138589.83047  24918866.7114   24918869.9364   24918866.492
        47.0004         43.0004
 20 11  5  0  6 30.0000000  0  8G06G05G19G02G09G29G25G12
 -16151010.90948 -12529506.23047  21891434.7224   21891439.8644   21891434.178
        52.0004         47.0004
 -19789602.54349 -15361478.44249  21184265.5384   21184267.3434   21184265.364
        58.0004         54.0004
  -2768792.60947  -2146662.77546  24086627.0114   24086630.9514   24086629.082
        45.0004         40.0004
 -20853528.74549 -16204441.98748  21150670.0384   21150670.2644   21150670.894
        56.0004         51.0004
 -11367065.44848  -8820282.18147  22801172.5954   22801178.5074   22801171.443
        49.0004         44.0004
  -4428243.07648  -3396480.95647  24113981.6884   24113985.1534   24113981.805
        50.0004         45.0004
    997586.48047    802478.78647  24858046.9414   24858051.5104   24858046.303
        47.0004         42.0004
   -150369.22547    -70719.30947  24935440.9704   24935444.9584   24935443.293
        47.0004         43.0004
 20 11  5  0  7  0.0000000  0  8G06G05G19G02G09G29G25G12
 -16088453.38848 -12480760.14247  21903338.7244   21903343.7264   21903338.835
        52.0004         47.0004
 -19842433.84849 -15402645.67949  21174211.6724   21174213.9334   21174210.765
        58.0004         54.0004
  -2649842.96847  -2053974.81846  24109263.3684   24109265.5114   24109264.807
        45.0004         41.0004
 -20872963.95049 -16219586.30348  21146971.5354   21146971.9544   21146972.190
        56.0004         51.0004
 -11298943.40748  -8767200.09547  22814135.6844   22814140.4284   22814135.594
        49.0004         44.0004
  -4523451.99648  -3470669.72247  24095865.0144   24095867.7264   24095864.164
        50.0004         45.0004
   1052762.21847    845472.84647  24868545.3114   24868551.5494   24868545.053
        47.0004         42.0004
    -63127.84147     -2739.03747  24952042.1184   24952047.1194   24952042.131
        47.0004         42.0004
 20 11  5  0  7 30.0000000  0  8G06G05G19G02G09G29G25G12
 -16025602.23248 -12431785.24247  21915298.9824   21915304.8924   21915298.929
        52.0004         47.0004
 -19894916.33249 -15443541.11149  21164224.7844   21164226.8744   21164224.775
        58.0004         54.0004
  -2530775.90247  -1961195.33546  24131920.4174   24131923.5074   24131922.039
        46.0004         41.0004
 -20892103.31749 -16234500.09948  21143329.5234   21143329.6654   21143330.049
        56.0004         51.0004
 -11230369.54648  -8713765.92947  22827184.8704   22827189.7734   22827184.462
        49.0004         44.0004
  -4618365.77948  -3544628.52847  24077803.5654   24077806.3854   24077803.721
        50.0004         45.0004
   1108324.24747    888767.91747  24879118.2954   24879125.0704   24879118.974
        47.0004         42.0004
     24251.75047     65348.93546  24968670.8854   24968673.7854   24968669.364
        46.0004         41.0004
 20 11  5  0  8  0.0000000  0  8G06G05G19G02G09G29G25G12
 -15962457.66548 -12382581.71547  21927315.1214   21927320.5374   21927314.273
        52.0004         47.0004
 -19947049.69949 -15484164.50649  21154303.9704   21154306.0994   21154303.720
        58.0004         54.0004
  -2411593.77047  -1868326.22446  24154600.4544   24154603.0334   24154600.141
        46.0004         41.0004
 -20910945.64249 -16249182.43148  21139743.6134   21139744.1794   21139744.292
        56.0004         51.0004
 -11161346.06148  -8659981.41647  22840320.7504   22840324.5654   22840320.623
        49.0004         44.0004
  -4712981.33648  -3618354.94447  24059797.9924   24059800.9664   24059797.645
        50.0004         45.0004
   1164269.94547    932361.91447  24889764.8444   24889771.6234   24889765.707
        47.0004         42.0004
    111766.01447    133541.81546  24985323.8144   24985326.4324   24985321.846
        46.0004         41.0004
 20 11  5  0  8 30.0000000  0  8G06G05G19G02G09G29G25G12
 -15899020.16548 -12333149.92347  21939386.9804   21939392.8564   21939386.033
        52.0004         47.0004
 -19998834.04449 -15524515.93849  21144449.7224   21144451.5324   21144449.505
        58.0004         54.0004
  -2292299.37947  -1775369.60847  24177301.1054   24177304.6174   24177302.592
        46.0004         42.0004
 -20929489.76949 -16263632.40248  21136215.0354   21136215.4404   21136215.672
        56.0004         51.0004
 -11091875.43348  -8605848.47647  22853539.6764   22853543.6204   22853538.932
        49.0004         44.0004
  -4807296.14648  -3691846.99647  24041851.5284   24041853.9574   24041852.770
        50.0004         46.0004
   1220596.61547    976252.77547  24900483.6084   24900490.8104   24900484.001
        47.0004         42.0004
    199411.82047    201837.20346  25002003.1094   25002006.3584   25002001.274
        46.0004         41.0004
 20 11  5  0  9  0.0000000  0  8G06G05G19G02G09G29G25G12
 -15835289.96448 -12283490.05747  21951514.1864   21951519.8674   21951513.862
        52.0004         47.0004
 -20050268.75049 -15564594.92749  21134662.2174   21134664.1174   21134662.267
        58.0004         54.0004
  -2172894.99747  -1682327.31747  24200023.0614   24200025.5594   24200024.014
        46.0004         42.0004
 -20947734.42749 -16277849.02248  21132743.0624   21132743.5894   21132744.008
        56.0004         51.0004
 -11021959.94748  -8551368.89947  22866844.1744   22866848.9074   22866845.212
        49.0004         44.0004
  -4901307.31148  -3765102.44047  24023961.6534   24023964.2134   24023962.469
        50.0004         46.0004
   1277301.53147   1020438.37447  24911273.8834   24911281.1054   24911273.553
        47.0004         42.0004
    287185.62047    270232.34647  25018704.3254   25018708.9714   25018702.566
        46.0004         42.0004
 20 11  5  0  9 30.0000000  0  8G06G05G19G02G09G29G25G12
 -15771267.51148 -12233602.45747  21963697.1404   21963703.0924   21963696.893
        52.0004         47.0004
 -20101353.63249 -15604401.32249  21124941.0964   21124942.9044   21124941.103
        58.0004         54.0004
  -2053383.41747  -1589201.46246  24222765.4494   24222768.3874   24222767.041
        46.0004         41.0004
 -20965678.51049 -16291831.42848  21129328.4974   21129328.7424   21129329.226
        56.0004         51.0004
 -10951602.00348  -8496544.55347  22880232.6614   22880237.7024   22880231.702
        49.0004         44.0004
  -4995012.29648  -3838119.30447  24006130.0824   24006131.8484   24006131.131
        50.0004         45.0004
   1334381.97347   1064916.62647  24922136.4764   24922144.0504   24922136.397
        47.0004         43.0004
    375084.59447    338725.01947  25035432.1364   25035435.1714   25035431.051
        46.0004         42.0004
 20 11  5  0 10  0.0000000  0  8G06G05G19G02G09G29G25G12
 -15706953.05848 -12183487.33647  21975935.8064   21975941.4044   21975934.972
        52.0004         47.0004
 -20152088.40149 -15643934.90549  21115286.4894   21115288.4614   21115286.414
        58.0004         54.0004
  -1933766.89147  -1495993.86846  24245527.7654   24245531.6004   24245528.903
        46.0004         41.0004
 -20983320.83049 -16305578.69348  21125971.2884   21125971.7664   21125971.989
        56.0004         51.0004
 -10880803.92548  -8441377.24147  22893705.5824   22893710.7284   22893705.832
        49.0004         44.0004
  -5088407.94648  -3910895.14047  23988357.1234   23988359.2374   23988355.594
        50.0004         45.0004
   1391835.41847   1109685.48947  24933069.2824   24933076.2954   24933068.340
        47.0004         43.0004
    463105.50247    407312.71647  25052183.0834   25052183.8784   25052183.467
        46.0004         42.0004
 20 11  5  0 10 30.0000000  0  8G06G05G19G02G09G29G25G12
 -15642347.05148 -12133145.02047  21988230.1914   21988235.3674   21988229.879
        52.0004         47.0004
 -20202472.98149 -15683195.60949  21105698.4404   21105700.8224   21105698.040
        58.0004         54.0004
  -1814048.29947  -1402706.73546  24268310.2464   24268313.1264   24268310.859
        46.0004         41.0004
 -21000660.21649 -16319089.90648  21122672.0004   21122672.2714   21122672.690
        56.0004         51.0004
 -10809568.19548  -8385868.90247  22907260.5864   22907266.1324   22907260.961
        49.0004         44.0004
  -5181491.76748  -3983427.97347  23970643.5474   23970645.6924   23970644.261
        50.0004         46.0004
   1449658.90248   1154742.71047  24944073.5064   24944079.8434   24944074.201
        48.0004         43.0004
    551245.06847    475992.87647  25068954.6214   25068957.7154   25068955.761
        46.0004         42.0004
 20 11  5  0 11  0.0000000  0  8G06G05G19G02G09G29G25G12
 -15577449.82148 -12082575.78347  22000579.2764   22000585.3554   22000579.594
        51.0004         47.0004
 -20252506.86749 -15722183.04749  21096177.6314   21096179.7294   21096177.688
        59.0004         54.0004
  -1694229.87747  -1309341.80446  24291111.8324   24291113.0354   24291111.477
        45.0004         40.0004
 -21017695.46349 -16332364.12948  21119430.1184   21119430.6314   21119431.115
        56.0004         51.0004
 -10737897.08648  -8330021.29947  22920900.0214   22920904.8784   22920899.721
        49.0004         44.0004
  -5274260.58648  -4055715.35747  23952990.4254   23952993.0904   23952989.751
        50.0004         46.0004
   1507849.80147   1200086.20347  24955146.2304   24955152.1574   24955145.433
        47.0004         43.0004
    639500.11447    544763.01946  25085747.8594   25085751.6684   25085748.199
        46.0004         41.0004
 20 11  5  0 11 30.0000000  0  8G06G05G19G02G09G29G25G12
 -15512261.75648 -12031779.90947  22012984.2894   22012990.2304   22012983.727
        51.0004         47.0004
 -20302189.89249 -15760897.08649  21086723.1954   21086725.1644   21086723.095
        59.0004         54.0004
  -1574314.68047  -1215901.43546  24313929.9774   24313931.6174   24313931.053
        45.0004         40.0004
 -21034425.42649 -16345400.47048  21116246.6074   21116246.9414   21116247.605
        56.0004         51.0004
 -10665793.05948  -8273836.37347  22934620.3164   22934625.0394   22934620.375
        49.0004         44.0004
  -5366711.99748  -4127755.42647  23935397.6984   23935399.6224   23935397.746
        50.0004         46.0004
   1566405.45047   1245713.92447  24966288.3044   24966296.7914   24966287.726
        47.0004         42.0004
    727867.21247    613620.47347  25102565.6374   25102567.6134   25102565.776
        46.0004         42.0004
 20 11  5  0 12  0.0000000  0  8G06G05G19G02G09G29G25G12
 -15446783.27848 -11980757.74747  22025444.4564   22025450.3704   22025444.405
        51.0004         47.0004
 -20351521.82649 -15799337.55149  21077335.4374   21077337.4134   21077335.103
        59.0004         54.0004
  -1454305.18247  -1122387.60646  24336766.6364   24336769.3454   24336768.050
        44.0004         39.0004
 -21050849.20949 -16358198.22648  21113121.2434   21113121.5864   21113121.903
        56.0004         51.0004
 -10593258.56648  -8217316.01247  22948423.7974   22948427.5684   22948423.791
        49.0004         44.0004
  -5458843.82748  -4199546.46347  23917865.3054   23917868.2414   23917866.343
        50.0004         46.0004
   1625322.99248   1291623.66147  24977501.0494   24977506.9624   24977501.686
        48.0004         43.0004
    816343.15147    682562.72146  25119400.0154   25119406.1764   25119400.439
        46.0004         41.0004
 20 11  5  0 12 30.0000000  0  8G06G05G19G02G09G29G25G12
 -15381014.69248 -11929509.52447  22037960.0554   22037965.0234   22037959.986
        52.0004         47.0004
 -20400502.53049 -15837504.33449  21068014.9304   21068016.7724   21068014.772
        59.0004         54.0004
  -1334203.56147  -1028801.99446  24359621.6114   24359623.7734   24359622.575
        43.0004         38.0004
 -21066965.15849 -16370756.11848  21110054.3014   21110054.9364   21110054.903
        56.0004         51.0004
 -10520295.92348  -8160462.02947  22962308.0694   22962312.5394   22962308.277
        49.0004         44.0004
  -5550651.92148  -4271085.23147  23900394.9944   23900397.4024   23900395.065
        50.0004         46.0004
   1684599.75947   1337813.28747  24988780.6284   24988786.5824   24988783.631
        47.0004         42.0004
    904925.07747    751587.53847  25136257.3744   25136261.6604   25136258.278
        46.0004         42.0004
 20 11  5  0 13  0.0000000  0  8G06G05G19G02G09G29G25G12
 -15314956.46648 -11878035.60347  22050531.0324   22050536.3824   22050530.241
        52.0004         47.0004
 -20449131.72249 -15875397.20949  21058761.0434   21058762.9114   21058761.022
        59.0004         54.0004
  -1214012.48147   -935146.69746  24382492.2634   24382495.3284   24382495.584
        42.0004         37.0004
 -21082772.37349 -16383073.44148  21107046.2904   21107046.8784   21107046.905
        56.0004         51.0004
 -10446907.62048  -8103276.35847  22976272.7374   22976278.5104   22976272.825
        49.0004         44.0004
  -5642134.08248  -4342370.04547  23882987.3834   23882989.0514   23882987.463
        51.0004         46.0004
   1744232.89447   1384280.61947  25000128.6524   25000135.4304   25000128.448
        47.0004         42.0004
    993609.65947    820692.39547  25153134.0204   25153137.9144   25153135.123
        46.0004         42.0004
 20 11  5  0 13 30.0000000  0  8G06G05G19G02G09G29G25G12
 -15248609.05548 -11826336.35747  22063156.1404   22063161.7324   22063155.369
        51.0004         47.0004
 -20497409.15949 -15913015.99149  21049574.3274   21049576.0494   21049574.325
        59.0004         54.0004
  -1093734.86947   -841423.97046  24405381.6824   24405383.5834   24405383.158
        43.0004         38.0004
 -21098269.93749 -16395149.47548  21104097.1304   21104097.7094   21104097.623
        56.0004         51.0004
 -10373096.16248  -8045760.96947  22990319.8354   22990324.7524   22990318.777
        49.0004         44.0004
  -5733287.82648  -4413398.93647  23865641.0774   23865643.4434   23865640.313
        51.0004         46.0004
   1804219.50947   1431023.38747  25011543.3884   25011550.8644   25011543.005
        47.0004         42.0004
   1082393.64247    889874.67247  25170030.1644   25170034.2774   25170031.780
        47.0004         42.0004
 20 11  5  0 14  0.0000000  0  8G06G05G19G02G09G29G25G12
 -15181972.66648 -11774411.92647  22075836.2354   22075842.3224   22075835.279
        51.0004         46.0004
 -20545334.56849 -15950360.46449  21040454.3034   21040456.0954   21040454.272
        59.0004         54.0004
   -973372.91047   -747635.49546  24428285.8214   24428288.5534   24428286.991
        43.0004         39.0004
 -21113456.22849 -16406982.95848  21101207.2464   21101207.7374   21101208.175
        56.0004         51.0004
 -10298863.79248  -7987917.58547  23004445.8814   23004449.9904   23004445.342
        49.0004         44.0004
  -5824110.23248  -4484169.63047  23848357.8284   23848360.1144   23848359.241
        51.0004         46.0004
   1864557.10947   1478039.62747  25023026.2174   25023031.0634   25023027.066
        47.0004         42.0004
   1171273.63847    959131.80447  25186943.4014   25186945.9524   25186942.886
        47.0004         42.0004
 20 11  5  0 14 30.0000000  0  8G06G05G19G02G09G29G25G12
 -15115047.87748 -11722262.76447  22088571.4264   22088577.0424   22088570.989
        51.0004         46.0004
 -20592907.83149 -15987430.53649  21031401.5634   21031403.3704   21031401.183
        59.0004         54.0004
   -852929.24547   -653783.35246  24451206.2294   24451207.2204   24451207.127
        43.0004         38.0004
 -21128330.35449 -16418573.20148  21098376.9084   21098377.5134   21098378.016
        56.0004         51.0004
 -10224213.16848  -7929748.28547  23018650.4314   23018655.5094   23018650.784
        49.0004         44.0004
  -5914598.62648  -4554680.06347  23831138.0714   23831140.4804   23831138.246
        51.0004         46.0004
   1925242.71447   1525327.05447  25034574.1284   25034580.8044   25034575.800
        47.0004         42.0004
   1260246.69247   1028461.38447  25203874.6054   25203877.6224   25203876.478
        47.0004         42.0004
 20 11  5  0 15  0.0000000  0  9G06G05G19G02G09G29G25G07G12
 -15047835.05248 -11669889.15747  22101362.3524   22101367.6374   22101361.692
        51.0004         46.0004
 -20640128.62349 -16024225.95649  21022415.8154   21022417.4944   21022415.957
        59.0004         54.0004
   -732406.26247   -559869.42246  24474140.6084   24474142.6324   24474141.572
        43.0004         38.0004
 -21142890.92749 -16429919.10748  21095606.2794   21095606.7574   21095606.724
        56.0004         51.0004
 -10149146.61548  -7871254.87747  23032935.0824   23032940.6604   23032934.472
        48.0004         43.0004
  -6004749.90548  -4624927.81447  23813982.5604   23813985.0484   23813983.189
        51.0004         46.0004
   1986273.48247   1572883.49947  25046187.5154   25046193.4074   25046187.951
        46.0004         42.0004
   -118502.93248    -69318.01446  25174899.8534   25174904.0624   25174898.764
        51.0004         37.0004
   1349309.67947   1097861.06846  25220822.4244   25220825.1744   25220822.902
        46.0004         41.0004
 20 11  5  0 15 30.0000000  0  9G06G05G19G02G09G29G25G07G12
 -14980334.56348 -11617291.38947  22114207.3274   22114212.6974   22114206.840
        51.0004         47.0004
 -20686996.67049 -16060746.51349  21013497.0254   21013498.7374   21013496.630
        59.0004         54.0004
   -611806.70747   -465895.78846  24497089.1534   24497092.8574   24497089.921
        43.0004         38.0004
 -21157136.95049 -16441019.92448  21092895.4114   21092895.8584   21092895.887
        56.0004         51.0004
 -10073666.59948  -7812439.30247  23047297.6774   23047303.8214   23047297.814
        48.0004         43.0004
  -6094561.54448  -4694910.92247  23796891.9754   23796894.4864   23796891.981
        51.0004         46.0004
   2047646.79847   1620706.80446  25057867.5054   25057871.8334   25057865.939
        46.0004         41.0004
   -177026.45247   -114920.76046  25163761.2724   25163767.1374   25163762.686
        46.0004         37.0004
   1438459.74047   1167328.60446  25237787.3654   25237788.6854   25237789.617
        46.0004         41.0004
 20 11  5  0 16  0.0000000  0  9G06G05G19G02G09G29G25G07G12
 -14912546.99448 -11564469.91747  22127106.5774   22127112.3864   22127106.663
        51.0004         47.0004
 -20733512.24449 -16096992.41249  21004645.3134   21004646.8984   21004645.355
        59.0004         54.0004
   -491132.76347   -371864.20946  24520052.8414   24520056.5634   24520054.487
        44.0004         39.0004
 -21171067.51549 -16451874.92048  21090244.4014   21090245.0934   21090244.877
        56.0004         51.0004
  -9997775.70748  -7753303.57247  23061740.2224   23061745.0374   23061739.729
        48.0004         44.0004
  -6184030.74748  -4764627.16847  23779866.5464   23779868.9704   23779866.994
        51.0004         46.0004
   2109359.53247   1668794.58946  25069609.5984   25069616.8264   25069607.911
        46.0004         41.0004
   -235287.43847   -160318.84646  25152676.3484   25152680.3914   25152675.621
        43.0004         37.0004
   1527693.20747   1236861.11046  25254765.9124   25254770.4764   25254767.962
        46.0004         41.0004
 20 11  5  0 16 30.0000000  0  8G06G05G19G02G09G29G25G07
 -14844472.60548 -11511424.95547  22140061.1144   22140065.9514   22140060.872
        51.0004         46.0004
 -20779674.39449 -16132962.92249  20995860.9164   20995862.7514   20995860.785
        59.0004         54.0004
   -370387.42947   -277777.00446  24543030.4824   24543033.5954   24543031.942
        44.0004         40.0004
 -21184680.85749 -16462482.73348  21087653.9164   21087654.2784   21087654.633
        56.0004         51.0004
  -9921476.24648  -7693849.47447  23076259.6614   23076264.3564   23076259.725
        48.0004         43.0004
  -6273154.59648  -4834074.32547  23762907.2394   23762909.6994   23762906.457
        51.0004         46.0004
   2171409.14357   1717144.89156  25081417.0715   25081422.8455   25081416.938
        46.0004         41.0004
   -293283.12047   -205510.25446  25141641.8154   25141643.7764   25141640.845
        42.0004         37.0004
 20 11  5  0 17  0.0000000  0  8G06G05G19G02G09G29G25G07
 -14776112.02648 -11458156.98547  22153069.5134   22153074.6684   22153068.818
        51.0004         46.0004
 -20825483.48049 -16168658.31249  20987143.5014   20987145.7064   20987143.291
        59.0004         54.0004
   -249573.39147   -183636.25546  24566020.2824   24566021.9844   24566021.631
        44.0004         40.0004
 -21197976.49349 -16472842.98448  21085123.7194   21085124.3084   21085124.173
        56.0004         51.0004
  -9844770.90648  -7634079.09647  23090856.6514   23090861.5804   23090856.569
        48.0004         44.0004
  -6361930.74348  -4903250.54547  23746014.1554   23746016.1404   23746015.479
        51.0004         46.0004
   2233792.57247   1765755.32347  25093288.7024   25093294.8584   25093288.779
        46.0004         42.0004
   -351011.58646   -250493.46446  25130656.2854   25130656.8744   25130656.324
        41.0004         37.0004
 20 11  5  0 17 30.0000000  0  8G06G05G19G02G09G29G25G07
 -14707465.50848 -11404666.20847  22166133.1974   22166138.0304   22166133.316
        51.0004         47.0004
 -20870939.15149 -16204078.30749  20978493.7344   20978495.8874   20978493.632
        59.0004         54.0004
   -128692.61147    -89443.48546  24589023.1484   24589025.6754   24589024.373
        44.0004         39.0004
 -21210952.86849 -16482954.46048  21082654.3284   21082655.1544   21082655.048
        56.0004         51.0004
  -9767661.99848  -7573994.24447  23105529.4814   23105534.1174   23105529.702
        48.0004         43.0004
  -6450355.95348  -4972153.29147  23729187.8244   23729189.1704   23729188.472
        51.0004         47.0004
   2296507.06847   1814623.70847  25105223.6154   25105230.4004   25105224.772
        47.0004         43.0004
   -408469.47546   -295265.82046  25119721.2994   25119725.5354   25119722.605
        41.0004         36.0004
 20 11  5  0 18  0.0000000  0  8G06G05G19G02G09G29G25G07
 -14638533.67848 -11350953.10047  22179250.2474   22179255.3934   22179249.953
        51.0004         47.0004
 -20916041.23949 -16239222.78749  20969911.1964   20969913.3504   20969910.878
        59.0004         54.0004
     -7747.99847      4799.01946  24612038.4834   24612041.0704   24612039.317
        44.0004         39.0004
 -21223609.02149 -16492816.40848  21080246.0684   21080246.7864   21080246.324
        56.0004         51.0004
  -9690152.09748  -7513596.94247  23120278.6954   23120284.3314   23120278.612
        48.0004         43.0004
  -6538427.73848  -5040780.64547  23712428.0544   23712430.1294   23712428.645
        52.0004         47.0004
   2359549.74147   1863747.81447  25117219.9214   25117226.6104   25117220.899
        47.0004         43.0004
   -465654.67646   -339825.69546  25108838.6934   25108842.2844   25108839.526
        41.0004         36.0004
 20 11  5  0 18 30.0000000  0  8G06G05G19G02G09G29G25G07
 -14569316.95748 -11297018.00347  22192421.5974   22192427.5434   22192421.580
        51.0004         47.0004
 -20960789.94549 -16274091.90549  20961395.8324   20961397.8884   20961395.574
        59.0004         54.0004
    113257.95247     99089.29546  24635064.3264   24635067.2144   24635064.262
        43.0004         38.0004
 -21235943.76649 -16502427.91248  21077898.8164   21077899.3894   21077899.487
        56.0004         51.0004
  -9612243.73448  -7452889.16047  23135104.2574   23135110.0534   23135103.577
        48.0004         43.0004
  -6626143.57848  -5109130.63047  23695736.6224   23695737.9904   23695736.431
        52.0004         47.0004
   2422917.71147   1913125.42047  25129279.0974   25129284.9754   25129280.908
        47.0004         42.0004
   -522564.82246   -384171.22046  25098008.3374   25098014.2404   25098008.415
        41.0004         37.0004
 20 11  5  0 19  0.0000000  0  8G06G05G19G02G09G29G25G07
 -14499815.75548 -11242861.22447  22205647.3244   22205653.0294   22205646.961
        51.0004         46.0004
 -21005184.63649 -16308685.16549  20952947.5964   20952949.7504   20952947.295
        59.0004         54.0004
    234322.60347    193425.31246  24658104.2454   24658105.4454   24658104.437
        43.0004         38.0004
 -21247955.97849 -16511788.09348  21075613.0044   21075613.8844   21075614.146
        56.0004         52.0004
  -9533939.37448  -7391872.80347  23150005.2684   23150010.5524   23150007.154
        48.0004         43.0004
  -6713500.06348  -5177200.61547  23679112.3374   23679114.5964   23679112.220
        51.0004         47.0004
   2486608.19247   1962754.30147  25141398.9984   25141404.6914   25141400.553
        47.0004         42.0004
   -579197.32446   -428300.43746  25087231.1984   25087234.3004   25087234.628
        41.0004         36.0004
 20 11  5  0 19 30.0000000  0  9G06G05G19G02G09G29G25G07G12
 -14430030.58748 -11188483.18747  22218926.9454   22218932.2354   22218926.415
        51.0004         46.0004
 -21049225.31749 -16343002.57949  20944567.2674   20944568.9934   20944566.819
        59.0004         54.0004
    355443.56147    287805.25046  24681151.3584   24681152.5474   24681153.967
        43.0004         38.0004
 -21259644.29749 -16520895.88648  21073388.8164   21073389.6624   21073389.208
        56.0004         52.0004
  -9455241.59448  -7330549.87047  23164982.3494   23164986.0574   23164981.721
        48.0004         43.0004
  -6800494.81248  -5244988.71847  23662557.4854   23662559.7674   23662557.256
        51.0004         47.0004
   2550618.27547   2012632.25146  25153579.9794   25153586.7524   25153579.329
        46.0004         41.0004
   -635549.80646   -472211.43846  25076508.1644   25076512.5674   25076508.220
        41.0004         36.0004
                                                                  25374029.866

 20 11  5  0 20  0.0000000  0  9G06G05G19G02G09G29G25G07G12
 -14359961.96048 -11133884.26747  22232260.5574   22232265.1554   22232259.621
        51.0004         46.0004
 -21092911.80049 -16377043.99249  20936253.5594   20936255.7234   20936253.423
        59.0004         54.0004
    476618.57947    382227.32046  24704210.2544   24704213.3454   24704210.682
        43.0004         38.0004
 -21271007.80449 -16529750.57748  21071226.5344   21071227.0574   21071227.522
        56.0004         52.0004
  -9376152.85548  -7268922.30347  23180032.2444   23180036.4614   23180032.031
        48.0004         43.0004
  -6887124.96148  -5312492.71247  23646072.5734   23646074.8104   23646072.379
        51.0004         47.0004
   2614944.93647   2062756.87846  25165819.9204   25165827.1184   25165819.528
        46.0004         41.0004
   -691619.56346   -515902.18646  25065840.2964   25065842.8004   25065842.058
        41.0004         36.0004
    106629.77849     66348.64447  25391113.3914   25391114.2384   25391114.009
        54.0004         43.0004
 20 11  5  0 20 30.0000000  0  9G06G05G19G02G09G29G25G07G12
 -14289610.29248 -11079064.80447  22245648.2424   22245652.6784   22245647.046
        51.0004         46.0004
 -21136244.04549 -16410809.37949  20928007.8474   20928009.7114   20928007.881
        59.0004         54.0004
    597844.88747    476689.33046  24727279.0844   24727283.9394   24727279.665
        43.0004         38.0004
 -21282045.42449 -16538351.33148  21069126.2684   21069126.9144   21069127.297
        56.0004         52.0004
  -9296675.65848  -7206992.05247  23195156.2394   23195160.9984   23195156.309
        48.0004         43.0004
  -6973387.81248  -5379710.51147  23629656.9434   23629659.5314   23629657.086
        51.0004         47.0004
   2679585.47847   2113126.08447  25178121.0044   25178127.2014   25178120.473
        46.0004         42.0004
   -747404.00346   -559370.57746  25055222.6954   25055228.4184   25055221.964
        41.0004         36.0004
    196473.28548    136356.63247  25408209.0704   25408213.3054   25408210.106
        50.0004         43.0004
 20 11  5  0 21  0.0000000  0  9G06G05G19G02G09G29G25G07G12
 -14218976.19448 -11024025.25047  22259088.9354   22259093.9394   22259088.541
        51.0004         46.0004
 -21179221.80349 -16444298.54149  20919829.6084   20919831.4704   20919829.327
        59.0004         54.0004
    719119.71847    571189.14146  24750357.2454   24750359.7934   24750359.031
        43.0004         38.0004
 -21292755.93849 -16546697.19848  21067087.9934   21067088.5534   21067088.431
        56.0004         52.0004
  -9216812.64348  -7144761.14347  23210353.2184   23210357.3844   23210353.511
        48.0004         43.0004
  -7059281.21248  -5446640.41347  23613311.6934   23613314.4244   23613311.290
        52.0004         47.0004
   2744536.79647   2163737.45446  25190479.5774   25190485.4274   25190481.165
        46.0004         41.0004
   -802901.05146   -602615.03146  25044664.1894   25044667.7184   25044664.155
        41.0004         37.0004
    286368.56248    206404.84847  25425315.1124   25425318.1134   25425316.251
        48.0004         43.0004
 20 11  5  0 21 30.0000000  0  9G06G05G19G02G09G29G25G07G12
 -14148060.03848 -10968765.92947  22272583.6224   22272589.5854   22272583.273
        51.0004         46.0004
 -21221845.02149 -16477511.44149  20911718.4674   20911720.7504   20911718.470
        59.0004         54.0004
    840440.92847    665725.12946  24773442.4314   24773446.5794   24773444.329
        43.0004         38.0004
 -21303138.21049 -16554787.28448  21065112.4694   21065112.9784   21065113.099
        56.0004         52.0004
  -9136566.23048  -7082231.50047  23225624.2434   23225629.1104   23225624.360
        48.0004         43.0004
  -7144802.04348  -5513280.02147  23597039.0364   23597040.4174   23597040.250
        52.0004         47.0004
   2809796.15547   2214588.86546  25202899.5624   25202906.9224   25202898.019
        46.0004         41.0004
   -858107.99947   -645633.41246  25034158.0654   25034160.3294   25034156.513
        42.0004         37.0004
    376313.04148    276491.41747  25442431.3634   25442435.8674   25442432.229
        48.0004         43.0004
 20 11  5  0 22  0.0000000  0  9G06G05G19G02G09G29G25G07G12
 -14076862.46348 -10913287.29847  22286132.2764   22286137.4924   22286132.007
        51.0004         46.0004
 -21264113.77349 -16510448.13549  20903675.1734   20903677.4124   20903674.673
        59.0004         55.0004
    961805.72847    760295.05946  24796537.2644   24796541.5124   24796539.042
        43.0004         38.0004
 -21313191.30349 -16562620.87048  21063199.2694   21063199.8164   21063200.147
        56.0004         51.0004
  -9055939.07648  -7019405.16847  23240967.1474   23240969.9614   23240966.800
        48.0004         43.0004
  -7229946.97948  -5579626.70147  23580835.5254   23580838.0624   23580835.157
        52.0004         47.0004
   2875360.50647   2265677.96347  25215375.9964   25215383.2654   25215376.487
        46.0004         42.0004
   -913022.44747   -688423.91146  25023708.8184   25023711.5184   25023706.261
        42.0004         37.0004
    466303.47647    346613.81547  25459554.1474   25459558.2174   25459554.296
        47.0004         42.0004
 20 11  5  0 22 30.0000000  0  9G06G05G19G02G09G29G25G07G12
 -14005383.85448 -10857589.69247  22299734.1054   22299739.8524   22299733.688
        50.0004         46.0004
 -21306027.72649 -16543108.36049  20895699.3774   20895701.2164   20895699.364
        59.0004         55.0004
   1083211.73647    854897.09746  24819641.0824   24819643.8154   24819642.692
        43.0004         38.0004
 -21322914.01149 -16570197.01048  21061348.9394   21061349.6734   21061349.443
        56.0004         51.0004
  -8974933.61448  -6956284.04747  23256382.5804   23256385.9034   23256382.139
        48.0004         43.0004
  -7314713.53648  -5645678.55447  23564705.2324   23564707.0764   23564705.533
        52.0004         47.0004
   2941227.11147   2317002.49547  25227910.7474   25227916.1914   25227910.583
        46.0004         42.0004
   -967641.84746   -730984.48046  25013313.8404   25013319.3014   25013314.679
        41.0004         37.0004
    556336.63947    416769.50546  25476688.1484   25476692.5134   25476688.943
        46.0004         41.0004
 20 11  5  0 23  0.0000000  0  9G06G05G19G02G09G29G25G07G12
 -13933624.81948 -10801673.57547  22313389.5744   22313394.8124   22313388.944
        50.0004         46.0004
 -21347586.84349 -16575492.08849  20887790.6344   20887792.7684   20887790.844
        59.0004         54.0004
   1204656.66647    949529.46746  24842752.7304   24842753.2914   24842753.882
        43.0004         38.0004
 -21332305.00449 -16577514.66748  21059561.7384   21059562.3894   21059562.208
        56.0004         51.0004
  -8893552.48448  -6892870.18447  23271867.7354   23271871.3734   23271868.326
        48.0004         43.0004
  -7399099.47648  -5711433.81247  23548646.8314   23548648.9874   23548646.866
        52.0004         47.0004
   3007392.83047   2368560.17047  25240500.3564   25240506.9474   25240499.084
        46.0004         42.0004
  -1021963.69946   -773313.23946  25002975.8274   25002981.1844   25002976.605
        41.0004         37.0004
    646409.50547    486956.14546  25493829.2094   25493832.0954   25493828.498
        46.0004         41.0004
 20 11  5  0 23 30.0000000  0  9G06G05G19G02G09G29G25G07G12
 -13861585.86548 -10745539.33147  22327097.8804   22327104.0014   22327097.047
        50.0004         46.0004
 -21388790.72649 -16607599.01349  20879949.7444   20879951.8194   20879949.539
        59.0004         54.0004
   1326137.39447   1044189.74246  24865868.3184   24865871.7184   24865870.091
        43.0004         38.0004
 -21341363.22649 -16584573.02348  21057838.3154   21057838.8874   21057839.096
        56.0004         52.0004
  -8811798.20248  -6829165.55747  23287424.0404   23287429.0584   23287424.340
        48.0004         43.0004
  -7483101.86148  -5776890.21248  23532661.5614   23532663.9234   23532662.103
        52.0004         48.0004
   3073854.89247   2420348.74947  25253147.9084   25253155.9424   25253146.941
        46.0004         42.0004
  -1075985.83046   -815408.41546  24992697.0604   24992700.5364   24992698.482
        41.0004         37.0004
    736519.08347    557171.36846  25510976.1854   25510977.5304   25510976.803
        46.0004         41.0004
 20 11  5  0 24  0.0000000  0 10G06G05G19G02G09G29G25G07G12G13
 -13789267.52048 -10689187.38847  22340859.8204   22340865.0864   22340859.516
        50.0004         46.0004
 -21429639.59549 -16639429.30749  20872176.5574   20872178.4224   20872176.107
        59.0004         54.0004
   1447651.80147   1138876.24046  24888992.8704   24888994.5794   24888992.842
        43.0004         38.0004
 -21350087.71449 -16591371.33348  21056178.2944   21056178.7084   21056178.974
        56.0004         52.0004
  -8729673.30348  -6765172.15147  23303051.7104   23303057.1274   23303051.432
        48.0004         43.0004
  -7566718.17848  -5842045.77347  23516749.9264   23516752.4324   23516750.095
        52.0004         47.0004
   3140610.21147   2472365.84747  25265851.6094   25265858.0084   25265850.303
        46.0004         42.0004
  -1129705.86247   -857268.20846  24982475.8014   24982477.9314   24982473.051
        42.0004         37.0004
    826662.11747    627412.63546  25528129.0994   25528130.8214   25528129.822
        45.0004         40.0004
   -267118.91548   -146642.99346  23920088.5354   23920090.7014   23920086.934
        50.0004         36.0004
 20 11  5  0 24 30.0000000  0 11G06G30G05G19G02G09G29G25G07G12G13
 -13716670.35148 -10632618.17347  22354674.7004   22354679.8254   22354674.209
        50.0004         46.0004
                                                                  25225528.219

 -21470133.66649 -16670983.13549  20864471.0964   20864472.9264   20864471.011
        59.0004         55.0004
   1569197.45647   1233587.06646  24912121.2984   24912123.1614   24912121.707
        42.0004         38.0004
 -21358477.60849 -16597908.91748  21054581.4644   21054582.0394   21054582.338
        56.0004         52.0004
  -8647180.43148  -6700892.01147  23318750.1804   23318755.1214   23318750.689
        48.0004         43.0004
  -7649945.30148  -5906898.08847  23500912.4694   23500914.3734   23500911.887
        52.0004         47.0004
   3207655.90247   2524609.17647  25278610.3294   25278617.0354   25278610.557
        47.0004         42.0004
  -1183121.19147   -898890.56546  24972310.7944   24972312.2354   24972311.893
        42.0004         37.0004
    916835.28447    697677.46346  25545290.8654   25545291.2244   25545291.942
        45.0004         40.0004
   -383016.30347   -236952.66746  23898033.6734   23898035.4914   23898032.053
        45.0004         37.0004
 20 11  5  0 25  0.0000000  0 11G06G30G05G19G02G09G29G25G07G12G13
 -13643794.88448 -10575832.10747  22368543.1444   22368547.9764   22368541.898
        50.0004         46.0004
   -203250.89348   -117722.29346  25210493.6634   25210502.2064   25210492.920
        49.0004         37.0004
 -21510272.06249 -16702259.81449  20856833.0414   20856834.9184   20856833.136
        59.0004         55.0004
   1690771.77447   1328320.20446  24935257.5454   24935258.9634   24935258.037
        43.0004         38.0004
 -21366531.54749 -16604184.72148  21053048.8924   21053049.5704   21053049.533
        56.0004         52.0004
  -8564322.14447  -6636327.11247  23334517.6314   23334523.0034   23334516.560
        47.0004         43.0004
  -7732781.02548  -5971445.40548  23485149.1044   23485151.7654   23485148.605
        52.0004         48.0004
   3274989.02447   2577076.52047  25291423.3414   25291429.4354   25291424.727
        47.0004         42.0004
  -1236229.14947   -940273.40646  24962204.6504   24962208.5184   24962203.502
        42.0004         38.0004
   1007035.73347    767963.48746  25562454.4024   25562456.1694   25562455.024
        45.0004         40.0004
   -498792.96947   -327168.24746  23875999.9414   23876004.5624   23875999.919
        43.0004         37.0004
 20 11  5  0 25 30.0000000  0 11G06G30G05G19G02G09G29G25G07G12G13
 -13570641.68548 -10518829.63147  22382463.3584   22382467.4044   22382463.067
        50.0004         45.0004
   -282139.37047   -179193.69246  25195483.6504   25195490.2344   25195484.402
        44.0004         37.0004
 -21550055.31649 -16733259.75249  20849262.0394   20849264.1634   20849261.638
        59.0004         54.0004
   1812372.45047   1423073.92746  24958396.7674   24958399.6974   24958398.409
        43.0004         38.0004
 -21374248.42949 -16610197.88048  21051580.5244   21051581.1264   21051581.227
        56.0004         52.0004
  -8481100.96647  -6571479.45647  23350354.4284   23350359.0964   23350354.371
        47.0004         43.0004
  -7815222.10648  -6035685.18448  23469461.3904   23469464.7084   23469462.537
        52.0004         48.0004
   3342606.61347   2629765.53347  25304289.5104   25304295.5104   25304293.278
        47.0004         42.0004
  -1289027.49647   -981414.98246  24952157.3434   24952161.4684   24952156.664
        42.0004         38.0004
   1097260.72347    838268.62846  25579623.0294   25579625.9614   25579622.990
        45.0004         40.0004
   -614446.14447   -417287.58946  23853994.1794   23853996.4214   23853994.733
        42.0004         37.0004
 20 11  5  0 26  0.0000000  0 11G06G30G05G19G02G09G29G25G07G12G13
 -13497211.29048 -10461611.16747  22396436.9984   22396441.4324   22396436.274
        50.0004         45.0004
   -360926.75647   -240586.29646  25180489.8984   25180497.3604   25180491.493
        42.0004         37.0004
 -21589482.85649 -16763982.51349  20841759.1394   20841761.4634   20841758.711
        59.0004         55.0004
   1933996.45147   1517845.79046  24981540.7324   24981543.0224   24981541.856
        43.0004         38.0004
 -21381627.10749 -16615947.50448  21050176.3084   21050176.9664   21050177.101
        56.0004         52.0004
  -8397519.46547  -6506351.02247  23366259.1834   23366264.0774   23366260.094
        47.0004         43.0004
  -7897266.43848  -6099615.83548  23453848.9614   23453851.7084   23453849.009
        53.0004         48.0004
   3410505.73047   2682673.91646  25317210.8624   25317216.1964   25317212.290
        46.0004         41.0004
  -1341514.20247  -1022313.73046  24942169.8104   24942170.7934   24942168.682
        43.0004         38.0004
   1187506.88947    908590.29046  25596796.9114   25596799.8734   25596797.314
        45.0004         40.0004
   -729973.23747   -507308.69246  23832009.5534   23832013.8224   23832009.281
        42.0004         38.0004
 20 11  5  0 26 30.0000000  0 11G06G30G05G19G02G09G29G25G07G12G13
 -13423504.25348 -10404177.14747  22410462.2214   22410467.3644   22410461.743
        50.0004         45.0004
   -439610.19047   -301897.90646  25165518.2744   25165524.7084   25165517.730
        42.0004         37.0004
 -21628555.04849 -16794428.38049  20834324.2394   20834326.3644   20834324.251
        59.0004         55.0004
   2055641.92847   1612634.37846  25004688.7764   25004691.9194   25004690.018
        43.0004         38.0004
 -21388666.56749 -16621432.80648  21048836.6384   21048837.2514   21048837.422
        56.0004         52.0004
  -8313580.26947  -6440943.85347  23382232.5484   23382237.4204   23382231.925
        47.0004         43.0004
  -7978910.71848  -6163234.74148  23438312.9944   23438314.9614   23438312.541
        53.0004         48.0004
   3478683.39247   2735799.33546  25330185.0094   25330190.3684   25330186.572
        46.0004         41.0004
  -1393686.46947  -1062967.43546  24932240.4784   24932243.7094   24932240.133
        43.0004         38.0004
   1277771.34047    978926.22546  25613973.9714   25613978.6184   25613973.906
        44.0004         39.0004
   -845371.62647   -597229.52246  23810050.5274   23810051.8984   23810051.682
        42.0004         38.0004
 20 11  5  0 27  0.0000000  0 11G06G30G05G19G02G09G29G25G07G12G13
 -13349521.23148 -10346528.05647  22424541.1304   22424546.7924   22424540.560
        50.0004         45.0004
   -518186.81846   -363126.26646  25150565.9814   25150571.9214   25150563.511
        41.0004         36.0004
 -21667271.86049 -16824597.32849  20826956.6444   20826958.6974   20826956.370
        59.0004         55.0004
   2177306.01447   1707437.51346  25027841.1174   25027843.5144   25027841.693
        43.0004         38.0004
 -21395365.86149 -16626653.04048  21047561.9004   21047562.4614   21047562.597
        56.0004         52.0004
  -8229285.98847  -6375260.02047  23398272.9654   23398278.5374   23398272.939
        47.0004         43.0004
  -8060152.59848  -6226540.10548  23422852.7864   23422854.8784   23422853.017
        53.0004         48.0004
   3547136.65347   2789139.47046  25343210.3614   25343218.4264   25343210.068
        45.0004         41.0004
  -1445542.02647  -1103374.36946  24922372.6104   24922376.9194   24922371.879
        43.0004         38.0004
   1368050.89647   1049273.83546  25631152.6484   25631157.1714   25631152.566
        43.0004         38.0004
   -960638.47247   -687047.85246  23788115.0144   23788118.6004   23788114.555
        42.0004         38.0004
 20 11  5  0 27 30.0000000  0 11G06G30G05G19G02G09G29G25G07G12G13
 -13275262.70148 -10288664.28947  22438672.1934   22438676.4584   22438671.386
        50.0004         45.0004
   -596653.68146   -424269.12946  25135632.2864   25135639.9164   25135633.307
        41.0004         36.0004
 -21705633.00449 -16854489.13449  20819656.7344   20819658.7574   20819656.586
        59.0004         55.0004
   2298986.32247   1802253.27246  25050996.0254   25050997.8184   25050997.040
        43.0004         38.0004
 -21401723.81849 -16631607.30348  21046352.1404   21046352.7214   21046353.008
        56.0004         52.0004
  -8144639.14447  -6309301.46047  23414381.4394   23414385.6224   23414380.635
        47.0004         42.0004
  -8140989.74248  -6289530.07648  23407469.8244   23407472.5514   23407468.912
        53.0004         48.0004
   3615862.46347   2842692.00346  25356288.2354   25356296.1814   25356289.435
        46.0004         41.0004
  -1497078.70347  -1143532.79346  24912566.7204   24912569.5344   24912565.847
        44.0004         39.0004
   1458342.52147   1119630.91246  25648332.1954   25648336.9724   25648333.326
        43.0004         38.0004
  -1075771.13447   -776761.62546  23766205.4794   23766210.0694   23766208.158
        42.0004         38.0004
 20 11  5  0 28  0.0000000  0 10G06G30G05G19G02G09G29G25G07G13
 -13200729.33848 -10230586.37147  22452854.7414   22452860.6624   22452854.434
        50.0004         45.0004
   -675008.03446   -485324.35545  25120722.1494   25120728.3024   25120722.460
        40.0004         35.0004
 -21743638.39249 -16884103.72449  20812424.6504   20812426.5284   20812424.446
        59.0004         55.0004
   2420680.13247   1897079.52446  25074153.3524   25074156.2954   25074155.386
        42.0004         37.0004
 -21407739.24949 -16636294.66048  21045207.4124   21045207.9874   21045208.050
        56.0004         52.0004
  -8059642.38747  -6243070.23547  23430555.8044   23430560.4244   23430554.498
        47.0004         42.0004
  -8221418.96048  -6352202.17948  23392164.5164   23392166.6654   23392164.420
        53.0004         48.0004
   3684857.80447   2896454.59646  25369418.2844   25369424.7894   25369420.235
        46.0004         41.0004
  -1548294.12847  -1183440.88746  24902819.1564   24902822.8684   24902820.113
        44.0004         39.0004
  -1190766.68147   -866368.55346  23744323.7384   23744326.4194   23744323.180
        43.0004         38.0004
 20 11  5  0 28 30.0000000  0 10G06G30G05G19G02G09G29G25G07G13
 -13125921.72848 -10172294.75947  22467090.1584   22467095.6974   22467089.112
        50.0004         45.0004
   -753246.84846   -546289.51645  25105834.0804   25105840.5374   25105834.437
        40.0004         35.0004
 -21781288.07649 -16913441.14449  20805260.2624   20805262.1974   20805260.261
        59.0004         55.0004
   2542384.86046   1991914.28746  25097312.3824   25097315.8244   25097314.651
        41.0004         36.0004
 -21413411.22849 -16640714.39648  21044128.0504   21044129.0244   21044128.573
        56.0004         52.0004
  -7974298.30447  -6176568.37047  23446795.7304   23446800.1184   23446796.833
        47.0004         42.0004
  -8301438.04948  -6414554.71748  23376937.7964   23376939.5294   23376938.826
        53.0004         48.0004
   3754119.76347   2950424.90746  25382599.6634   25382606.2984   25382600.274
        46.0004         41.0004
  -1599185.88947  -1223096.77646  24893136.1614   24893139.3704   24893136.168
        44.0004         39.0004
  -1305622.70447   -955866.76746  23722468.6664   23722470.7844   23722467.492
        43.0004         38.0004
 20 11  5  0 29  0.0000000  0 10G06G30G05G19G02G09G29G25G07G13
 -13050840.41948 -10113789.88047  22481377.7714   22481383.9874   22481376.621
        50.0004         45.0004
   -831367.23246   -607162.49145  25090968.5344   25090974.4284   25090968.542
        40.0004         35.0004
 -21818581.96949 -16942501.31949  20798163.3514   20798165.6094   20798162.937
        59.0004         55.0004
   2664098.47946   2086755.99146  25120476.2404   25120477.0044   25120475.108
        41.0004         36.0004
 -21418738.64749 -16644865.64148  21043114.2894   21043115.0184   21043114.656
        56.0004         52.0004
  -7888609.43447  -6109797.83447  23463101.5984   23463106.1714   23463101.933
        47.0004         42.0004
  -8381043.83948  -6476585.19248  23361789.2854   23361791.1154   23361789.820
        53.0004         48.0004
   3823645.33347   3004600.67346  25395829.9244   25395835.2814   25395830.610
        46.0004         41.0004
  -1649751.68247  -1262498.67346  24883514.5474   24883516.6044   24883514.052
        44.0004         39.0004
  -1420336.46747  -1045254.11646  23700637.6454   23700641.7384   23700637.590
        43.0004         38.0004
 20 11  5  0 29 30.0000000  0 10G06G30G05G19G02G09G29G25G07G13
 -12975486.00648 -10055072.18747  22495717.5564   22495722.9894   22495717.507
        50.0004         45.0004
   -909366.35146   -667940.88746  25076125.4024   25076130.0854   25076125.863
        40.0004         36.0004
 -21855520.13549 -16971284.30249  20791134.2344   20791136.4904   20791133.950
        59.0004         55.0004
   2785818.64246   2181602.80146  25143638.5944   25143641.9484   25143638.509
        41.0004         36.0004
 -21423720.44649 -16648747.57648  21042166.3694   21042166.9884   21042166.703
        56.0004         52.0004
  -7802578.42947  -6042760.70947  23479472.7324   23479477.7174   23479472.893
        47.0004         42.0004
  -8460233.76048  -6538291.60448  23346719.5484   23346721.9944   23346719.186
        53.0004         48.0004
   3893431.57047   3058979.48146  25409108.1014   25409114.5464   25409108.301
        45.0004         40.0004
  -1699989.29547  -1301644.81846  24873953.5694   24873955.3764   24873954.589
        44.0004         39.0004
  -1534905.28147  -1134528.52846  23678836.6304   23678841.0104   23678836.147
        44.0004         39.0004
 20 11  5  0 30  0.0000000  0 10G06G30G05G19G02G09G29G25G07G13
 -12899859.15348  -9996142.20147  22510109.2204   22510114.7794   22510108.034
        50.0004         45.0004
   -987241.20246   -728622.51546  25061304.4284   25061314.0344   25061304.340
        41.0004         36.0004
 -21892102.51549 -16999790.04649  20784172.5854   20784175.0324   20784172.684
        59.0004         55.0004
   2907542.63646   2276452.58346  25166800.2294   25166802.7134   25166801.914
        40.0004         36.0004
 -21428355.58249 -16652359.37748  21041284.2034   21041285.0954   21041284.890
        56.0004         52.0004
  -7716207.83647  -5975458.98547  23495908.7664   23495914.5334   23495908.923
        47.0004         42.0004
  -8539005.63548  -6599672.26248  23331729.6284   23331732.1644   23331729.850
        53.0004         48.0004
   3963475.37847   3113559.01946  25422437.9304   25422444.5404   25422438.742
        46.0004         41.0004
  -1749896.21947  -1340533.29146  24864456.8124   24864458.7204   24864456.876
        44.0004         39.0004
  -1649325.90647  -1223687.43346  23657062.3694   23657066.3914   23657062.418
        44.0004         39.0004
 20 11  5  0 30 30.0000000  0 10G06G30G05G19G02G09G29G25G07G13
 -12823960.41648  -9937000.35547  22524551.9994   22524557.6624   22524552.461
        50.0004         45.0004
  -1064988.94746   -789205.10446  25046511.2504   25046519.4704   25046510.384
        41.0004         36.0004
 -21928329.13649 -17028018.57949  20777279.0544   20777281.2754   20777279.160
        59.0004         55.0004
   3029268.06746   2371303.49645  25189965.5044   25189968.0604   25189966.633
        40.0004         35.0004
 -21432643.07549 -16655700.29248  21040468.3864   21040469.1664   21040469.207
        56.0004         52.0004
  -7629500.29747  -5907894.70447  23512408.0224   23512414.4644   23512407.625
        47.0004         42.0004
  -8617356.40948  -6660724.80148  23316820.5424   23316822.6834   23316821.208
        53.0004         48.0004
   4033773.83747   3168337.01546  25435814.0004   25435821.2854   25435815.605
        46.0004         41.0004
  -1799470.16047  -1379162.32746  24855023.1634   24855026.3774   24855023.786
        44.0004         39.0004
  -1763596.04147  -1312729.10246  23635318.1674   23635321.6064   23635317.713
        44.0004         39.0004
 20 11  5  0 31  0.0000000  0 10G06G30G05G19G02G09G29G25G07G13
 -12747790.54348  -9877647.23747  22539046.4084   22539051.7484   22539045.843
        50.0004         45.0004
  -1142606.73646   -849686.36146  25031741.6964   25031746.9734   25031741.507
        41.0004         37.0004
 -21964200.25249 -17055970.09349  20770453.1834   20770455.2304   20770453.056
        59.0004         55.0004
   3150992.48146   2466153.60545  25213126.9614   25213131.6374   25213128.580
        40.0004         35.0004
 -21436581.77149 -16658769.41948  21039718.9744   21039719.5414   21039719.343
        56.0004         52.0004
  -7542458.46547  -5840069.91747  23528971.8224   23528977.3764   23528972.880
        47.0004         42.0004
  -8695283.52848  -6721447.21448  23301990.8884   23301993.5044   23301990.827
        53.0004         48.0004
   4104323.88047   3223311.03846  25449239.9434   25449245.8024   25449241.838
        46.0004         41.0004
  -1848708.85547  -1417530.08546  24845652.8704   24845655.5254   24845651.679
        44.0004         39.0004
  -1877713.09147  -1401651.46046  23613602.1624   23613603.5464   23613602.908
        44.0004         39.0004
 20 11  5  0 31 30.0000000  0 10G06G30G05G19G02G09G29G25G07G13
 -12671350.06948  -9818083.26347  22553592.2684   22553598.0774   22553592.448
        50.0004         45.0004
  -1220091.52046   -910064.04246  25016995.9964   25017000.7644   25016994.991
        41.0004         36.0004
 -21999715.35549 -17083644.19549  20763694.9784   20763696.9674   20763694.937
        59.0004         55.0004
   3272713.21446   2561000.80845  25236289.2204   25236293.7374   25236291.659
        40.0004         35.0004
 -21440170.76849 -16661566.05548  21039036.2814   21039036.6524   21039037.063
        56.0004         52.0004
  -7455084.88847  -5771986.62747  23545597.7894   23545604.0704   23545598.543
        47.0004         42.0004
  -8772784.60148  -6781837.64648  23287243.4894   23287245.5884   23287243.905
        53.0004         49.0004
   4175122.53347   3278478.76446  25462713.0784   25462719.4404   25462713.973
        46.0004         41.0004
  -1897610.06447  -1455634.86046  24836347.1264   24836349.7144   24836347.901
        44.0004         39.0004
  -1991674.10047  -1490452.23346  23591915.4444   23591919.2024   23591915.263
        44.0004         40.0004
 20 11  5  0 32  0.0000000  0 10G06G30G05G19G02G09G29G25G07G13
 -12594639.67748  -9758308.96247  22568190.4184   22568195.2044   22568189.364
        50.0004         45.0004
  -1297440.59846   -970335.93746  25002277.1274   25002284.0504   25002276.606
        41.0004         37.0004
 -22034874.43149 -17111040.86649  20757004.1894   20757006.2344   20757004.009
        59.0004         55.0004
   3394427.98346   2655843.40345  25259452.7574   25259455.4954   25259453.800
        39.0004         35.0004
 -21443408.92749 -16664089.30848  21038419.8174   21038420.3894   21038420.883
        56.0004         52.0004
  -7367382.16447  -5703646.86747  23562287.3944   23562293.6074   23562288.736
        47.0004         42.0004
  -8849857.24948  -6841894.24448  23272576.7734   23272579.3024   23272576.223
        53.0004         49.0004
   4246166.66747   3333837.80546  25476232.2284   25476239.6894   25476234.547
        45.0004         41.0004
  -1946171.60947  -1493474.95746  24827104.6304   24827109.3404   24827107.675
        44.0004         39.0004
  -2105476.13547  -1579129.11546  23570260.4114   23570263.6604   23570258.722
        44.0004         40.0004
 20 11  5  0 32 30.0000000  0 10G06G30G05G19G02G09G29G25G07G13
 -12517659.95248  -9698324.80747  22582838.6214   22582844.2064   22582839.035
        50.0004         45.0004
  -1374650.87546  -1030499.66446  24987583.9444   24987590.6924   24987586.385
        41.0004         36.0004
 -22069677.50749 -17138160.13949  20750381.5484   20750383.3354   20750381.331
        59.0004         55.0004
   3516134.39846   2750679.49545  25282613.1434   25282615.7854   25282613.850
        39.0004         34.0004
 -21446295.50549 -16666338.59848  21037870.4774   21037870.9554   21037871.230
        56.0004         52.0004
  -7279352.89447  -5635052.64247  23579039.7234   23579044.4724   23579038.480
        47.0004         42.0004
  -8926498.03248  -6901614.32548  23257992.1794   23257994.8494   23257991.493
        53.0004         48.0004
   4317453.38647   3389385.88546  25489796.8934   25489804.5604   25489798.609
        46.0004         41.0004
  -1994390.92147  -1531048.36146  24817929.8194   24817933.4884   24817930.021
        44.0004         39.0004
  -2219116.67147  -1667680.15746  23548634.5944   23548637.4004   23548636.069
        44.0004         40.0004
 20 11  5  0 33  0.0000000  0  9G06G05G19G02G09G29G25G07G13
 -12440411.59748  -9638131.31547  22597538.8344   22597544.5494   22597539.119
        50.0004         45.0004
 -22104124.50549 -17165001.95149  20743826.3334   20743828.2344   20743826.348
        59.0004         55.0004
   3637829.77646   2845506.98845  25305767.0594   25305772.9944   25305773.070
        39.0004         34.0004
 -21448828.90149 -16668312.68448  21037388.5634   21037389.1754   21037388.899
        56.0004         52.0004
  -7190999.74147  -5566206.03847  23595852.4174   23595857.1994   23595852.773
        47.0004         42.0004
  -9002704.75248  -6960996.17048  23243490.3524   23243492.9694   23243490.538
        53.0004         48.0004
   4388979.71847   3445120.64746  25503408.4574   25503416.1284   25503407.702
        45.0004         41.0004
  -2042266.12047  -1568353.63546  24808820.1494   24808824.3194   24808818.553
        44.0004         39.0004
  -2332593.05547  -1756103.28046  23527041.4914   23527043.6984   23527039.584
        45.0004         40.0004
 20 11  5  0 33 30.0000000  0  9G06G30G05G02G09G29G25G07G13
 -12362895.30748  -9577729.04847  22612290.1394   22612295.6954   22612289.677
        50.0004         45.0004
  -1528643.66847  -1150493.86046  24958279.5244   24958285.1414   24958278.592
        42.0004         37.0004
 -22138215.81149 -17191566.59849  20737338.9524   20737341.1104   20737338.749
        59.0004         55.0004
 -21451008.53249 -16670011.10748  21036973.5594   21036974.2654   21036974.253
        56.0004         52.0004
  -7102325.29347  -5497109.09747  23612727.1764   23612732.0914   23612726.975
        47.0004         42.0004
  -9078475.44648  -7020038.24848  23229071.6094   23229073.8964   23229071.664
        53.0004         49.0004
   4460742.52647   3501039.64646  25517064.4384   25517072.3154   25517063.364
        45.0004         40.0004
  -2089794.65947  -1605388.77746  24799775.8774   24799778.6224   24799776.385
        44.0004         40.0004
  -2445902.49547  -1844396.27746  23505478.3194   23505482.0804   23505479.336
        45.0004         40.0004
 20 11  5  0 34  0.0000000  0  9G06G30G05G02G09G29G25G07G13
 -12285111.68348  -9517118.47447  22627092.4634   22627097.4914   22627091.682
        50.0004         45.0004
  -1605420.25647  -1210319.72946  24943669.9904   24943676.2454   24943670.037
        43.0004         38.0004
 -22171951.30549 -17217853.99049  20730919.3244   20730921.5064   20730918.976
        59.0004         55.0004
 -21452833.35649 -16671433.06048  21036626.3454   21036627.1834   21036627.034
        56.0004         52.0004
  -7013332.19547  -5427763.83947  23629662.1214   23629666.3444   23629662.361
        46.0004         42.0004
  -9153807.02548  -7078738.17048  23214737.0044   23214739.1794   23214737.241
        53.0004         49.0004
   4532738.81057   3557140.63356  25530764.5225   25530773.1965   25530764.242
        44.0004         40.0004
  -2136974.58647  -1642152.27746  24790797.7314   24790801.5914   24790796.769
        44.0004         40.0004
  -2559042.43247  -1932557.21446  23483949.0424   23483952.4504   23483949.539
        45.0004         40.0004
 20 11  5  0 34 30.0000000  0  8G06G30G05G02G09G29G07G13
 -12207061.41148  -9456300.11447  22641943.7064   22641949.5884   22641944.060
        50.0004         45.0004
  -1682046.49847  -1270028.41446  24929088.6574   24929094.4254   24929088.804
        43.0004         38.0004
 -22205330.94349 -17243864.09149  20724567.5414   20724569.6024   20724567.584
        59.0004         55.0004
 -21454302.38449 -16672577.77048  21036346.8224   21036347.7744   21036347.414
        56.0004         52.0004
  -6924023.01947  -5358172.28847  23646656.3434   23646661.8834   23646654.889
        46.0004         42.0004
  -9228696.58749  -7137093.66048  23200486.4274   23200488.5354   23200487.537
        54.0004         49.0004
  -2183803.27247  -1678642.09646  24781886.8754   24781888.5574   24781886.313
        44.0004         39.0004
  -2672009.99347  -2020583.81646  23462452.4524   23462454.7704   23462451.335
        45.0004         40.0004
 20 11  5  0 35  0.0000000  0  8G06G30G05G02G09G29G07G13
 -12128745.20448  -9395274.53847  22656847.0274   22656853.0674   22656846.519
        49.0004         45.0004
  -1758519.41847  -1329617.64146  24914535.7704   24914542.2084   24914534.779
        43.0004         38.0004
 -22238354.62849 -17269596.83249  20718283.3314   20718285.4514   20718282.914
        59.0004         55.0004
 -21455414.46049 -16673444.34048  21036135.5174   21036135.9174   21036136.251
        56.0004         52.0004
  -6834400.45447  -5288336.54947  23663711.5324   23663716.3154   23663711.414
        47.0004         42.0004
  -9303141.75449  -7195102.86548  23186320.5594   23186322.1594   23186320.551
        54.0004         49.0004
  -2230278.98047  -1714856.83646  24773042.2274   24773044.8964   24773042.543
        44.0004         39.0004
  -2784802.38847  -2108473.92346  23440988.1644   23440990.6324   23440987.365
        45.0004         41.0004
 20 11  5  0 35 30.0000000  0  8G06G30G05G02G09G29G07G13
 -12050163.68648  -9334042.22047  22671800.8164   22671806.0204   22671801.104
        49.0004         44.0004
  -1834836.15547  -1389085.19646  24900013.2164   24900020.3554   24900014.045
        43.0004         39.0004
 -22271022.32549 -17295052.17249  20712066.8084   20712068.8664   20712066.849
        59.0004         55.0004
 -21456168.86449 -16674032.19848  21035991.7564   21035992.4274   21035992.592
        56.0004         52.0004
  -6744466.99047  -5218258.54747  23680825.3384   23680830.5894   23680824.585
        46.0004         42.0004
  -9377140.24849  -7252764.02348  23172238.5614   23172240.3744   23172238.714
        54.0004         49.0004
  -2276399.27947  -1750794.63146  24764265.8754   24764269.6004   24764265.612
        44.0004         39.0004
  -2897416.96047  -2196225.46146  23419559.0144   23419562.0864   23419558.563
        45.0004         41.0004
 20 11  5  0 36  0.0000000  0  8G06G30G05G02G09G29G07G13
 -11971317.64448  -9272603.76347  22686804.6334   22686810.9544   22686803.700
        49.0004         45.0004
  -1910993.83247  -1448428.80046  24885521.0774   24885527.5564   24885521.698
        43.0004         39.0004
 -22303334.31449 -17320230.34049  20705917.9704   20705920.0504   20705917.580
        59.0004         55.0004
 -21456564.42049 -16674340.43748  21035916.5634   21035917.0254   21035916.998
        56.0004         52.0004
  -6654225.40947  -5147940.43446  23697996.2534   23698002.4244   23697996.282
        46.0004         41.0004
  -9450689.50449  -7310075.11448  23158242.3444   23158244.4094   23158242.466
        54.0004         49.0004
  -2322161.92647  -1786453.75646  24755557.2814   24755560.3074   24755557.163
        44.0004         39.0004
  -3009850.83547  -2283836.21546  23398162.3154   23398166.3054   23398163.135
        45.0004         41.0004
 20 11  5  0 36 30.0000000  0  8G06G30G05G02G09G29G07G13
 -11892207.66648  -9210959.66947  22701859.0094   22701864.9224   22701859.733
        49.0004         45.0004
  -1986989.49547  -1507646.17346  24871059.0104   24871065.6064   24871058.628
        43.0004         38.0004
 -22335290.67149 -17345131.39349  20699836.8194   20699838.9014   20699836.831
        59.0004         55.0004
 -21456600.12549 -16674368.26648  21035909.7204   21035910.2174   21035910.553
        56.0004         52.0004
  -6563678.23547  -5077384.21646  23715227.4324   23715233.5384   23715227.217
        46.0004         41.0004
  -9523786.84149  -7367034.06348  23144332.0144   23144334.0594   23144332.354
        54.0004         49.0004
  -2367564.93647  -1821832.65346  24746917.5904   24746920.8274   24746916.718
        44.0004         39.0004
  -3122101.65547  -2371304.31746  23376802.3324   23376804.7394   23376802.051
        45.0004         41.0004
 20 11  5  0 37  0.0000000  0  8G06G30G05G02G09G29G07G13
 -11812834.49848  -9149110.47047  22716963.7914   22716968.2744   22716963.211
        49.0004         44.0004
  -2062820.18147  -1566735.01446  24856629.0654   24856636.2784   24856628.444
        43.0004         38.0004
 -22366891.42249 -17369755.35149  20693823.4194   20693825.4874   20693823.312
        59.0004         55.0004
 -21456274.96849 -16674114.90448  21035971.7084   21035972.1464   21035972.154
        56.0004         51.0004
  -6472828.02147  -5006591.87546  23732516.5594   23732522.1394   23732516.010
        46.0004         41.0004
  -9596429.70049  -7423638.88548  23130509.0864   23130510.5084   23130509.525
        54.0004         49.0004
  -2412606.16347  -1856929.66146  24738346.1914   24738348.7094   24738347.352
        44.0004         39.0004
  -3234166.52547  -2458627.53246  23355477.4494   23355479.5774   23355476.378
        45.0004         41.0004
 20 11  5  0 37 30.0000000  0  8G06G30G05G02G09G29G07G13
 -11733198.96148  -9087056.83447  22732117.1804   22732122.5354   22732116.156
        49.0004         44.0004
  -2138483.15747  -1625693.14546  24842231.6734   24842238.4724   24842231.565
        43.0004         38.0004
 -22398136.39449 -17394102.07949  20687877.6374   20687879.6474   20687877.257
        59.0004         55.0004
 -21455588.09649 -16673579.68848  21036102.2654   21036102.7144   21036103.114
        56.0004         51.0004
  -6381677.61847  -4935565.59146  23749861.2064   23749867.3914   23749861.438
        46.0004         41.0004
  -9668615.81749  -7479887.78748  23116771.9024   23116774.1304   23116771.760
        54.0004         49.0004
  -2457283.42747  -1891743.05246  24729844.4264   24729847.5004   24729842.057
        43.0004         39.0004
  -3346042.69847  -2545803.70846  23334187.6874   23334189.5354   23334187.342
        45.0004         41.0004
 20 11  5  0 38  0.0000000  0  8G06G30G05G02G09G29G07G13
 -11653301.60748  -9024799.18947  22747320.9684   22747326.0724   22747320.701
        49.0004         44.0004
  -2213975.29147  -1684518.20746  24827865.8154   24827873.0594   24827865.409
        43.0004         38.0004
 -22429025.74749 -17418171.70449  20681999.8494   20682001.7974   20681999.635
        59.0004         55.0004
 -21454538.47149 -16672761.80948  21036301.9764   21036302.5434   21036302.809
        56.0004         51.0004
  -6290229.38747  -4864307.25146  23767263.7284   23767269.2564   23767262.828
        46.0004         41.0004
  -9740342.44549  -7535778.65448  23103123.3684   23103125.0814   23103123.634
        54.0004         49.0004
  -2501594.55247  -1926271.11546  24721411.8964   24721415.5524   24721410.145
        43.0004         39.0004
  -3457727.50047  -2632830.75946  23312934.5364   23312937.5294   23312934.764
        45.0004         41.0004
 20 11  5  0 38 30.0000000  0  8G06G30G05G02G09G29G07G13
 -11573143.28748  -8962338.20547  22762575.0484   22762580.3274   22762574.737
        49.0004         44.0004
  -2289293.80047  -1743207.96046  24813533.5374   24813539.1094   24813533.043
        42.0004         38.0004
 -22459559.89249 -17441964.54149  20676189.2284   20676191.5184   20676189.140
        59.0004         55.0004
 -21453125.21049 -16671660.57348  21036570.9034   21036571.5104   21036571.686
        56.0004         51.0004
  -6198486.13347  -4792819.03246  23784721.4394   23784727.2514   23784722.437
        46.0004         41.0004
  -9811607.58249  -7591309.91248  23089561.9434   23089563.9964   23089561.624
        54.0004         49.0004
  -2545537.11447  -1960512.05746  24713049.7854   24713052.8394   24713048.973
        43.0004         39.0004
  -3569218.20947  -2719706.57346  23291718.6164   23291721.4614   23291718.917
        46.0004         41.0004
 20 11  5  0 39  0.0000000  0  8G06G30G05G02G09G29G07G13
 -11492724.67048  -8899674.37447  22777878.4014   22777883.7704   22777878.632
        49.0004         44.0004
  -2364435.74747  -1801760.13546  24799234.5984   24799241.5454   24799233.962
        43.0004         38.0004
 -22489738.57749 -17465480.39749  20670446.2974   20670448.4924   20670446.236
        59.0004         55.0004
 -21451347.34849 -16670275.23448  21036909.1984   21036910.2524   21036909.745
        56.0004         52.0004
  -6106450.32247  -4721102.85346  23802235.8174   23802241.8014   23802235.701
        46.0004         41.0004
  -9882408.36349  -7646479.34048  23076088.8314   23076090.7224   23076088.678
        54.0004         49.0004
  -2589109.35647  -1994464.41546  24704757.9454   24704761.1954   24704757.485
        44.0004         39.0004
  -3680512.03547  -2806428.97746  23270539.8524   23270542.0924   23270539.737
        46.0004         41.0004
 20 11  5  0 39 30.0000000  0  8G06G30G05G02G09G29G07G13
 -11412046.50348  -8836808.31847  22793231.1234   22793236.1364   22793229.845
        49.0004         44.0004
  -2439398.32047  -1860172.50846  24784968.0154   24784975.8534   24784967.330
        43.0004         38.0004
 -22519561.82249 -17488719.28849  20664771.2434   20664773.4844   20664771.077
        59.0004         55.0004
 -21449203.95949 -16668605.06648  21037317.1284   21037317.7774   21037317.982
        56.0004         51.0004
  -6014124.68547  -4649160.83746  23819806.2264   23819809.0724   23819804.512
        46.0004         41.0004
  -9952742.17949  -7701284.91148  23062704.3764   23062707.0004   23062704.411
        54.0004         49.0004
  -2632309.20547  -2028126.61546  24696536.0904   24696541.0594   24696536.632
        44.0004         39.0004
  -3791606.37947  -2892995.93646  23249398.7024   23249402.2844   23249399.693
        46.0004         41.0004
 20 11  5  0 40  0.0000000  0  8G06G30G05G02G09G29G07G13
 -11331109.60548  -8773740.62847  22808632.4744   22808638.4984   22808631.842
        49.0004         44.0004
  -2514178.42847  -1918442.75746  24770739.3204   24770745.4824   24770740.159
        43.0004         39.0004
 -22549029.86449 -17511681.40149  20659163.7484   20659165.7344   20659163.875
        59.0004         55.0004
 -21446694.22349 -16666649.43348  21037795.0704   21037795.6214   21037795.608
        56.0004         52.0004
  -5921511.83947  -4576995.02746  23837428.6424   23837433.9524   23837429.284
        46.0004         41.0004
 -10022607.12149  -7755725.11348  23049409.0564   23049411.7914   23049409.457
        54.0004         49.0004
  -2675134.58747  -2061497.07146  24688387.0454   24688391.0434   24688387.441
        44.0004         39.0004
  -3902498.30747  -2979405.17246  23228297.1764   23228298.9954   23228299.148
        46.0004         41.0004
 20 11  5  0 40 30.0000000  0  8G06G30G05G02G09G29G07G13
 -11249914.67748  -8710471.88947  22824082.7404   22824088.5344   22824081.960
        49.0004         44.0004
  -2588773.38047  -1976568.65646  24756544.0674   24756550.4474   24756542.751
        43.0004         39.0004
 -22578142.59949 -17534366.65049  20653623.6864   20653625.6564   20653623.724
        59.0004         55.0004
 -21443817.31149 -16664407.69048  21038342.4734   21038342.9744   21038342.922
        56.0004         51.0004
  -5828614.38147  -4504607.43546  23855106.8054   23855110.1354   23855105.964
        45.0004         40.0004
 -10092000.17049  -7809797.61748  23036204.3554   23036207.0654   23036204.096
        54.0004         49.0004
  -2717583.49347  -2094574.12946  24680310.5274   24680313.5344   24680311.954
        44.0004         39.0004
  -4013184.96447  -3065654.46646  23207235.1424   23207237.9704   23207233.892
        46.0004         41.0004
 20 11  5  0 41  0.0000000  0  8G06G30G05G02G09G29G07G13
 -11168462.45648  -8647002.64547  22839583.4564   22839589.4514   22839582.877
        49.0004         44.0004
  -2663180.10747  -2034547.93046  24742384.0264   24742390.4464   24742383.830
        44.0004         39.0004
 -22606899.90749 -17556774.94149  20648151.6364   20648153.4834   20648151.704
        59.0004         55.0004
 -21440572.07449 -16661878.94148  21038959.7214   21038960.4784   21038960.234
        56.0004         51.0004
  -5735434.89447  -4432000.08646  23872838.3374   23872841.9144   23872837.997
        45.0004         40.0004
 -10160919.08949  -7863500.66248  23023090.2924   23023092.2424   23023090.116
        54.0004         49.0004
  -2759653.18047  -2127355.71046  24672304.7904   24672308.2624   24672306.085
        44.0004         39.0004
  -4123664.10547  -3151742.04046  23186210.6504   23186213.0594   23186211.005
        45.0004         41.0004
 20 11  5  0 41 30.0000000  0  8G06G30G05G02G09G29G07G13
 -11086753.66548  -8583333.49147  22855131.5014   22855137.4994   22855130.551
        49.0004         44.0004
  -2737395.70147  -2092378.27046  24728262.0104   24728269.7564   24728262.029
        44.0004         39.0004
 -22635302.17649 -17578906.57649  20642746.4464   20642748.5284   20642746.213
        59.0004         55.0004
 -21436957.25349 -16659062.20148  21039647.6304   21039648.3364   21039648.475
        56.0004         51.0004
  -5641976.01747  -4359175.01046  23890621.8934   23890626.8824   23890621.767
        45.0004         41.0004
 -10229361.38249  -7916832.30848  23010066.4154   23010068.6504   23010067.026
        54.0004         50.0004
  -2801342.13147  -2159840.60446  24664371.8774   24664374.9184   24664371.917
        44.0004         39.0004
  -4233932.63147  -3237665.51546  23165228.0594   23165230.0604   23165227.372
        46.0004         41.0004
 20 11  5  0 42  0.0000000  0  8G06G30G05G02G09G29G07G13
 -11004789.21948  -8519465.12547  22870729.6064   22870734.1154   22870729.218
        49.0004         44.0004
  -2811417.38547  -2150057.51346  24714176.3204   24714183.3944   24714177.137
        44.0004         39.0004
 -22663349.45549 -17600761.59649  20637409.3794   20637411.5174   20637409.160
        59.0004         55.0004
 -21432972.51749 -16655957.21748  21040405.9514   21040406.5194   21040406.526
        56.0004         51.0004
  -5548240.39647  -4286134.30846  23908459.6884   23908464.7014   23908458.547
        45.0004         41.0004
 -10297325.25149  -7969791.16648  22997133.0484   22997135.1914   22997133.369
        54.0004         50.0004
  -2842648.51047  -2192027.39946  24656512.8044   24656515.4394   24656512.307
        44.0004         39.0004
  -4343988.32647  -3323423.15946  23144284.7284   23144287.1594   23144285.192
        46.0004         41.0004
 20 11  5  0 42 30.0000000  0  8G06G30G05G02G09G29G07G13
 -10922569.80048  -8455398.07647  22886375.7964   22886380.9594   22886374.746
        49.0004         44.0004
  -2885242.22747  -2207583.36146  24700128.1204   24700133.4894   24700127.560
        44.0004         39.0004
 -22691041.81049 -17622340.05649  20632139.8284   20632141.8364   20632139.499
        60.0004         55.0004
 -21428616.82949 -16652563.17848  21041235.0694   21041235.1494   21041235.605
        56.0004         51.0004
  -5454230.61047  -4212879.98346  23926348.7354   23926353.8554   23926348.647
        45.0004         40.0004
 -10364807.84949  -8022374.98548  22984290.6644   22984293.4214   22984290.528
        54.0004         49.0004
  -2883570.12247  -2223914.37446  24648724.1304   24648728.1094   24648724.425
        44.0004         39.0004
  -4453828.28047  -3409012.70746  23123383.4814   23123385.0844   23123381.706
        46.0004         41.0004
 20 11  5  0 43  0.0000000  0  8G06G30G05G02G09G29G07G13
 -10840096.21248  -8391132.96447  22902069.8574   22902074.7284   22902068.878
        49.0004         44.0004
  -2958867.23547  -2264953.51446  24686117.2104   24686124.2734   24686117.611
        43.0004         38.0004
 -22718379.19549 -17643641.90649  20626937.3244   20626939.5694   20626937.420
        59.0004         55.0004
 -21423889.28549 -16648879.38048  21042134.6304   21042135.0254   21042135.192
        56.0004         51.0004
  -5359949.25947  -4139414.02246  23944290.1374   23944295.5034   23944289.742
        45.0004         40.0004
 -10431806.25449  -8074581.54448  22971541.3394   22971544.2234   22971541.092
        54.0004         49.0004
  -2924104.82847  -2255499.87546  24641010.9694   24641014.1514   24641011.397
        44.0004         39.0004
  -4563449.45847  -3494431.75046  23102522.3824   23102525.1564   23102521.556
        46.0004         41.0004
 20 11  5  0 43 30.0000000  0  8G06G30G05G02G09G29G07G13
 -10757369.28548  -8326670.46147  22917811.4804   22917817.8794   22917810.349
        48.0004         44.0004
  -3032289.68647  -2322165.80646  24672144.9014   24672151.6674   24672144.255
        43.0004         38.0004
 -22745361.97749 -17664667.44349  20621803.0594   20621805.0434   20621803.044
        60.0004         55.0004
 -21418789.08549 -16644905.20048  21043104.8694   21043105.3764   21043105.596
        56.0004         51.0004
  -5265399.05947  -4065738.55346  23962281.7774   23962286.8814   23962282.430
        45.0004         40.0004
 -10498318.61349  -8126409.34748  22958884.0754   22958887.2544   22958884.335
        54.0004         49.0004
  -2964250.81947  -2286782.46946  24633370.9594   24633374.9644   24633371.160
        44.0004         39.0004
  -4672849.42447  -3579678.41946  23081704.9824   23081706.5644   23081704.151
        45.0004         41.0004
 20 11  5  0 44  0.0000000  0  8G06G30G05G02G09G29G07G13
 -10674389.77048  -8262011.11847  22933602.1954   22933608.0284   22933601.041
        48.0004         44.0004
  -3105506.60947  -2379217.97046  24658213.4644   24658218.9204   24658212.503
        43.0004         38.0004
 -22771990.14249 -17685416.65549  20616735.7164   20616737.6204   20616735.292
        60.0004         55.0004
 -21413315.25549 -16640639.88248  21044146.7214   21044147.3284   21044147.506
        56.0004         51.0004
  -5170582.48347  -3991855.54146  23980324.9354   23980331.1144   23980325.683
        45.0004         40.0004
 -10564342.35849  -8177856.42348  22946320.2974   22946323.4354   22946319.359
        54.0004         49.0004
  -3004005.79247  -2317760.38146  24625806.1804   24625809.4674   24625807.552
        44.0004         40.0004
  -4782025.52347  -3664750.67246  23060928.6684   23060931.9184   23060928.769
        45.0004         41.0004
 20 11  5  0 44 30.0000000  0  8G06G30G05G02G09G29G07G13
 -10591158.48148  -8197155.60247  22949440.5264   22949445.6464   22949440.832
        48.0004         43.0004
  -3178515.05947  -2436107.67846  24644318.7824   24644326.7894   24644317.572
        43.0004         38.0004
 -22798263.82749 -17705889.64849  20611736.0254   20611737.8464   20611736.104
        60.0004         55.0004
 -21407466.70549 -16636082.58148  21045259.4824   21045260.0804   21045260.295
        56.0004         51.0004
  -5075502.22047  -3917767.05646  23998419.4874   23998424.5444   23998419.670
        45.0004         40.0004
 -10629875.45949  -8228921.16948  22933850.5904   22933852.9674   22933850.619
        54.0004         50.0004
  -3043367.89247  -2348432.15646  24618315.7674   24618319.1814   24618315.147
        44.0004         40.0004
  -4890975.02447  -3749646.35046  23040196.6504   23040198.2754   23040195.948
        45.0004         41.0004
 20 11  5  0 45  0.0000000  0  8G06G30G05G02G09G29G07G13
 -10507676.27548  -8132104.55747  22965327.6924   22965332.8994   22965325.553
        48.0004         43.0004
  -3251312.20247  -2492832.74746  24630466.4764   24630472.9984   24630468.031
        43.0004         38.0004
 -22824183.13249 -17726086.50049  20606803.6774   20606805.8784   20606803.357
        60.0004         55.0004
 -21401242.79549 -16631232.79048  21046443.8834   21046444.7964   21046444.479
        56.0004         51.0004
  -4980160.87147  -3843475.10246  24016562.6344   24016567.6504   24016562.920
        45.0004         40.0004
 -10694915.47349  -8279601.68548  22921473.7934   22921476.2784   22921473.690
        54.0004         50.0004
  -3082335.29447  -2378796.39346  24610900.6674   24610904.0274   24610902.496
        44.0004         40.0004
  -4999695.09547  -3834363.25646  23019507.9654   23019510.4724   23019507.504
        45.0004         41.0004
 20 11  5  0 45 30.0000000  0  8G06G30G05G02G09G29G07G13
 -10423943.89948  -8066858.58347  22981260.7024   22981265.8864   22981261.469
        48.0004         43.0004
  -3323895.11647  -2549390.86646  24616655.7774   24616663.5454   24616655.021
        43.0004         38.0004
 -22849748.24649 -17746007.35849  20601938.8554   20601941.0644   20601938.918
        60.0004         55.0004
 -21394642.65549 -16626089.83248  21047699.8804   21047700.3144   21047700.543
        56.0004         51.0004
  -4884560.97147  -3768981.69546  24034754.2124   24034759.6054   24034754.349
        45.0004         40.0004
 -10759460.26749  -8329896.32648  22909191.2124   22909193.8354   22909191.441
        54.0004         50.0004
  -3120906.00047  -2408851.46146  24603561.5414   24603564.4904   24603561.589
        45.0004         40.0004
  -5108182.87147  -3918899.16746  22998863.6334   22998866.0964   22998863.141
        46.0004         41.0004
 20 11  5  0 46  0.0000000  0  8G06G30G05G02G09G29G07G13
 -10339962.28148  -8001418.39647  22997241.9854   22997247.6004   22997241.843
        48.0004         43.0004
  -3396261.00347  -2605779.84446  24602882.7154   24602890.3234   24602884.398
        43.0004         38.0004
 -22874959.31349 -17765652.33449  20597141.1874   20597143.4664   20597141.087
        60.0004         55.0004
 -21387665.62649 -16620653.19348  21049027.7034   21049028.2134   21049028.516
        56.0004         51.0004
  -4788705.24747  -3694288.94146  24052996.0544   24053000.6494   24052995.010
        45.0004         40.0004
 -10823507.53649  -8379803.28248  22897003.4974   22897005.6994   22897003.630
        54.0004         50.0004
  -3159078.16847  -2438595.99746  24596296.6134   24596300.6804   24596296.818
        45.0004         40.0004
  -5216436.29047  -4003252.44346  22978263.5444   22978265.5174   22978264.077
        46.0004         41.0004
 20 11  5  0 46 30.0000000  0  8G06G30G05G02G09G29G07G13
 -10255732.19148  -7935784.58247  23013270.0934   23013275.5564   23013268.798
        48.0004         43.0004
  -3468406.86547  -2661997.42346  24589154.4154   24589160.5284   24589155.075
        42.0004         37.0004
 -22899816.26049 -17785021.37249  20592411.1824   20592413.3264   20592410.954
        60.0004         55.0004
 -21380310.62049 -16614922.02948  21050427.2074   21050427.7754   21050428.055
        56.0004         51.0004
  -4692596.18247  -3619398.76846  24071284.5564   24071288.9754   24071284.292
        45.0004         40.0004
 -10887054.38449  -8429320.30748  22884910.7254   22884913.0724   22884911.067
        54.0004         50.0004
  -3196849.80747  -2468028.41046  24589108.0384   24589112.4864   24589108.241
        45.0004         40.0004
  -5324452.15047  -4087420.62246  22957707.9334   22957710.3924   22957707.973
        46.0004         41.0004
 20 11  5  0 47  0.0000000  0  8G06G30G05G02G09G29G07G13
 -10171254.40348  -7869957.75647  23029345.7774   23029352.0814   23029345.454
        48.0004         43.0004
  -3540329.82847  -2718041.20546  24575467.8894   24575474.8604   24575467.470
        42.0004         37.0004
 -22924319.15349 -17804114.52149  20587748.2734   20587750.5434   20587748.327
        60.0004         55.0004
 -21372576.95549 -16608895.80148  21051898.9894   21051899.4924   21051899.517
        56.0004         51.0004
  -4596236.39147  -3544313.22646  24089620.6754   24089624.9224   24089620.185
        45.0004         40.0004
 -10950098.82749  -8478445.82648  22872913.3684   22872916.2224   22872913.782
        54.0004         50.0004
  -3234218.71647  -2497147.01446  24581997.8874   24582001.5294   24581998.085
        44.0004         40.0004
  -5432227.82847  -4171401.66146  22937198.6494   22937201.6734   22937199.758
        46.0004         41.0004
 20 11  5  0 47 30.0000000  0  8G06G30G05G02G09G29G07G13
 -10086529.97348  -7803938.75047  23045468.8814   23045474.0554   23045468.874
        48.0004         43.0004
  -3612027.14247  -2773909.21846  24561824.2524   24561831.7614   24561826.644
        42.0004         38.0004
 -22948468.32449 -17822932.05149  20583152.9474   20583155.0104   20583152.755
        60.0004         55.0004
 -21364463.94549 -16602573.98548  21053442.6994   21053443.4624   21053443.318
        56.0004         51.0004
  -4499628.68647  -3469034.50346  24108003.2704   24108008.2024   24108003.986
        45.0004         40.0004
 -11012638.88149  -8527178.34748  22861013.3184   22861014.7434   22861013.258
        54.0004         50.0004
  -3271183.44547  -2525950.63446  24574964.3514   24574967.2514   24574963.751
        44.0004         39.0004
  -5539760.80047  -4255193.56846  22916735.9044   22916739.0104   22916736.870
        46.0004         41.0004
 20 11  5  0 48  0.0000000  0  8G06G30G05G02G09G29G07G13
 -10001559.57348  -7737728.08147  23061638.2744   23061644.5164   23061637.420
        48.0004         43.0004
  -3683495.84847  -2829599.05546  24548224.4624   24548231.1964   24548224.109
        43.0004         38.0004
 -22972264.01449 -17841474.13649  20578624.7754   20578626.6964   20578624.853
        60.0004         55.0004
 -21355970.27449 -16595955.55048  21055058.9444   21055059.8024   21055059.462
        56.0004         51.0004
  -4402775.40647  -3393564.44746  24126433.7954   24126440.0374   24126433.957
        45.0004         40.0004
 -11074672.06649  -8575515.89048  22849208.5024   22849211.1344   22849208.677
        54.0004         50.0004
  -3307741.99647  -2554437.80946  24568006.5744   24568009.9284   24568006.845
        43.0004         39.0004
  -5647048.41347  -4338794.28647  22896320.7234   22896322.3324   22896320.311
        46.0004         42.0004
 20 11  5  0 48 30.0000000  0  8G06G30G05G02G09G29G07G13
  -9916344.06348  -7671326.41047  23077853.3834   23077860.3784   23077852.781
        48.0004         43.0004
  -3754732.97647  -2885108.44046  24534668.1414   24534673.7684   24534667.636
        42.0004         38.0004
 -22995706.13949 -17859740.71549  20574163.9514   20574165.8934   20574163.744
        60.0004         55.0004
 -21347095.49149 -16589040.14348  21056747.7304   21056748.5414   21056748.353
        56.0004         51.0004
  -4305679.17547  -3317905.07446  24144910.4314   24144915.9734   24144910.116
        45.0004         40.0004
 -11136196.13349  -8623456.70448  22837500.3394   22837502.7914   22837500.617
        54.0004         50.0004
  -3343892.47347  -2582606.96246  24561127.5744   24561130.1084   24561125.816
        43.0004         38.0004
  -5754087.68147  -4422201.50047  22875951.8274   22875954.1034   22875950.813
        46.0004         42.0004
 20 11  5  0 49  0.0000000  0  8G06G30G05G02G09G29G07G13
  -9830884.33647  -7604734.46347  23094115.8704   23094121.7914   23094115.317
        47.0004         43.0004
  -3825735.80347  -2940435.23746  24521157.3184   24521162.4434   24521159.753
        43.0004         38.0004
 -23018795.29949 -17877732.25749  20569770.1934   20569772.3994   20569770.184
        60.0004         56.0004
 -21337838.89649 -16581827.21848  21058509.2164   21058510.2904   21058509.862
        56.0004         51.0004
  -4208342.65747  -3242058.46646  24163433.2264   24163437.9174   24163432.701
        44.0004         40.0004
 -11197209.00249  -8670999.19648  22825889.9924   22825892.6454   22825890.560
        54.0004         50.0004
  -3379633.03847  -2610456.69346  24554326.0404   24554329.3854   24554325.727
        43.0004         39.0004
  -5860876.01947  -4505413.16147  22855630.1534   22855632.7884   22855630.532
        46.0004         42.0004
 20 11  5  0 49 30.0000000  0  8G06G30G05G02G09G29G07G13
  -9745181.39747  -7537952.99347  23110424.7014   23110430.5824   23110424.252
        47.0004         43.0004
  -3896501.53747  -2995577.25846  24507690.7514   24507698.6484   24507691.608
        43.0004         39.0004
 -23041531.08649 -17895448.44449  20565443.7624   20565445.8404   20565443.644
        60.0004         56.0004
 -21328199.61849 -16574316.10548  21060343.7434   21060344.0384   21060344.658
        56.0004         51.0004
  -4110768.50247  -3166026.67246  24182000.7754   24182006.2884   24182001.217
        44.0004         40.0004
 -11257708.60949  -8718141.73948  22814377.4544   22814380.0814   22814377.184
        54.0004         50.0004
  -3414961.96747  -2637985.67446  24547602.8324   24547606.6364   24547603.111
        44.0004         39.0004
  -5967411.06747  -4588427.47447  22835357.1314   22835358.8284   22835356.997
        46.0004         42.0004
 20 11  5  0 50  0.0000000  0  8G06G30G05G02G09G29G07G13
  -9659235.99147  -7470982.57447  23126779.6504   23126785.8884   23126778.783
        47.0004         43.0004
  -3967027.17747  -3050532.20846  24494270.6594   24494276.5864   24494271.310
        44.0004         39.0004
 -23063913.90749 -17912889.59049  20561184.4884   20561186.4144   20561184.585
        60.0004         56.0004
 -21318176.84849 -16566506.15848  21062250.9914   21062251.3284   21062251.569
        56.0004         51.0004
  -4012959.17147  -3089811.63546  24200614.2964   24200619.4584   24200615.220
        44.0004         40.0004
 -11317692.14649  -8764882.14048  22802963.3544   22802965.2974   22802963.644
        54.0004         50.0004
  -3449877.20847  -2665192.28546  24540959.3124   24540962.9104   24540958.461
        44.0004         40.0004
  -6073690.01447  -4671242.23347  22815133.3624   22815136.8084   22815132.283
        46.0004         42.0004
 20 11  5  0 50 30.0000000  0  8G06G30G05G02G09G29G07G13
  -9573049.02047  -7403823.92947  23143180.9304   23143186.6454   23143181.509
        47.0004         43.0004
  -4037309.93247  -3105297.91946  24480895.3384   24480902.5114   24480894.940
        44.0004         39.0004
 -23085943.81749 -17930055.74349  20556992.2824   20556994.2274   20556992.066
        60.0004         56.0004
 -21307769.57149 -16558396.60148  21064231.5124   21064232.0444   21064232.591
        56.0004         51.0004
  -3914917.26947  -3013415.37546  24219270.4704   24219275.2414   24219272.010
        44.0004         40.0004
 -11377157.91949  -8811219.10148  22791647.3404   22791649.0104   22791647.800
        54.0004         50.0004
  -3484376.98647  -2692075.18846  24534395.1264   24534397.7344   24534394.394
        45.0004         40.0004
  -6179709.98647  -4753855.17347  22794958.8414   22794961.1564   22794957.670
        47.0004         42.0004
 20 11  5  0 51  0.0000000  0  8G06G30G05G02G09G29G07G13
  -9486621.38447  -7336477.75447  23159626.9834   23159634.0914   23159626.158
        47.0004         43.0004
  -4107346.95447  -3159872.12446  24467568.4374   24467574.3154   24467569.849
        44.0004         39.0004
 -23107621.15249 -17946947.16349  20552866.9884   20552869.2804   20552866.754
        60.0004         56.0004
 -21296977.40049 -16549987.12448  21066285.0504   21066285.6354   21066286.363
        55.0004         51.0004
  -3816645.40447  -2936839.92346  24237972.1384   24237976.4634   24237971.191
        44.0004         40.0004
 -11436103.57849  -8857150.76848  22780430.0644   22780432.2974   22780430.042
        54.0004         50.0004
  -3518459.63147  -2718633.02846  24527908.6914   24527911.5124   24527908.530
        45.0004         40.0004
  -6285468.59447  -4836264.46947  22774832.2614   22774834.2214   22774832.299
        47.0004         42.0004
 20 11  5  0 51 30.0000000  0  8G06G30G05G02G09G29G07G13
  -9399953.96147  -7268944.73047  23176119.6434   23176125.9934   23176119.474
        47.0004         42.0004
  -4177135.41147  -3214252.64846  24454287.2344   24454294.3864   24454288.204
        44.0004         39.0004
 -23128945.84449 -17963563.79049  20548808.9994   20548811.3494   20548808.881
        60.0004         56.0004
 -21285799.35049 -16541276.96548  21068412.2614   21068412.9214   21068412.986
        55.0004         51.0004
  -3718146.11047  -2860087.24246  24256714.9154   24256719.3394   24256715.666
        44.0004         40.0004
 -11494527.34549  -8902675.77548  22769312.2304   22769314.5624   22769312.370
        55.0004         50.0004
  -3552123.56147  -2744864.58646  24521502.9634   24521505.5964   24521504.304
        45.0004         40.0004
  -6390962.87347  -4918467.77447  22754757.6804   22754760.8234   22754757.902
        47.0004         42.0004
 20 11  5  0 52  0.0000000  0  9G06G30G05G02G15G09G29G07G13
  -9313047.68547  -7201225.60247  23192656.6854   23192662.6774   23192656.795
        47.0004         42.0004
  -4246672.50847  -3268437.30746  24441055.4404   24441063.0024   24441056.186
        44.0004         40.0004
 -23149918.26549 -17979905.93149  20544818.3354   20544820.1624   20544818.286
        60.0004         56.0004
 -21274234.78849 -16532265.62648  21070612.8284   21070613.5874   21070613.585
        55.0004         51.0004
   -277254.78348   -159793.45847  25324853.3854   25324856.0234   25324853.911
        51.0004         42.0004
  -3619421.99747  -2783159.38046  24275501.4654   24275507.7494   24275502.205
        45.0004         40.0004
 -11552427.14049  -8947792.50048  22758294.0574   22758296.8714   22758293.310
        55.0004         50.0004
  -3585366.89947  -2770768.42046  24515176.9194   24515179.4914   24515177.043
        45.0004         40.0004
  -6496190.29747  -5000463.16147  22734734.1314   22734735.5894   22734734.335
        47.0004         42.0004
 20 11  5  0 52 30.0000000  0  9G06G30G05G02G15G09G29G07G13
  -9225903.54647  -7133321.12347  23209240.5124   23209246.3024   23209239.984
        47.0004         42.0004
  -4315955.39947  -3322423.88246  24427871.5734   24427877.7354   24427872.659
        44.0004         40.0004
 -23170538.69149 -17995973.78949  20540894.5044   20540896.3614   20540894.312
        60.0004         56.0004
 -21262283.18149 -16522952.69248  21072887.2214   21072887.9934   21072888.178
        55.0004         51.0004
   -397489.07648   -253482.43447  25301972.4854   25301975.8214   25301972.833
        48.0004         42.0004
  -3520475.66947  -2706058.36146  24294330.1974   24294336.0624   24294330.212
        44.0004         40.0004
 -11609800.51349  -8992499.03048  22747376.6444   22747379.0744   22747376.482
        55.0004         50.0004
  -3618187.85647  -2796343.12346  24508930.1754   24508932.5324   24508930.145
        45.0004         40.0004
  -6601148.42747  -5082248.70147  22714760.9324   22714762.3454   22714760.701
        47.0004         42.0004
 20 11  5  0 53  0.0000000  0  9G06G30G05G02G15G09G29G07G13
  -9138522.36047  -7065231.91047  23225867.2314   23225874.2904   23225866.700
        47.0004         42.0004
  -4384981.16347  -3376210.10846  24414736.4684   24414742.1394   24414737.286
        45.0004         40.0004
 -23190806.83749 -18011767.14249  20537037.5314   20537039.4204   20537037.502
        60.0004         56.0004
 -21249943.61949 -16513337.45648  21075235.2884   21075235.9474   21075235.954
        55.0004         51.0004
   -517689.40347   -347144.95347  25279099.3694   25279101.9774   25279099.466
        47.0004         42.0004
  -3421309.55247  -2628786.09246  24313200.9914   24313206.3254   24313200.855
        44.0004         40.0004
 -11666645.20049  -9036793.58348  22736559.8884   22736561.8124   22736559.431
        55.0004         50.0004
  -3650584.24247  -2821587.00546  24502765.5274   24502767.9094   24502765.345
        44.0004         40.0004
  -6705834.39747  -5163822.15047  22694838.8284   22694842.7904   22694840.490
        47.0004         42.0004
 20 11  5  0 53 30.0000000  0  9G06G30G05G02G15G09G29G07G13
  -9050905.04747  -6996958.73647  23242541.4794   23242547.0524   23242542.332
        47.0004         43.0004
  -4453746.99947  -3429793.78946  24401649.9814   24401656.5304   24401650.692
        45.0004         40.0004
 -23210723.18049 -18027286.36249  20533247.5454   20533249.4084   20533247.278
        60.0004         56.0004
 -21237215.24249 -16503419.25048  21077657.4294   21077658.1194   21077658.273
        55.0004         51.0004
   -637853.81648   -440779.50047  25256233.3234   25256235.7064   25256233.332
        48.0004         43.0004
  -3321926.30547  -2551344.61646  24332112.7234   24332118.4774   24332112.974
        44.0004         40.0004
 -11722959.10749  -9080674.53448  22725844.1374   22725845.6964   22725844.052
        55.0004         50.0004
  -3682555.05147  -2846499.22646  24496682.0444   24496685.0814   24496681.375
        44.0004         40.0004
  -6810245.73047  -5245181.61247  22674970.6334   22674973.0104   22674970.127
        47.0004         42.0004
 20 11  5  0 54  0.0000000  0  9G06G30G05G02G15G09G29G07G13
  -8963052.62947  -6928502.33947  23259259.5524   23259265.9904   23259258.868
        47.0004         43.0004
  -4522250.12747  -3483172.78346  24388613.4224   24388620.6284   24388613.201
        45.0004         40.0004
 -23230287.93749 -18042531.61949  20529524.3694   20529526.2954   20529524.529
        60.0004         56.0004
 -21224097.40149 -16493197.56248  21080153.5224   21080154.4364   21080154.265
        55.0004         51.0004
   -757980.06948   -534384.32447  25233373.5594   25233376.7484   25233373.668
        48.0004         43.0004
  -3222328.53047  -2473735.97446  24351065.8584   24351071.3084   24351064.429
        44.0004         39.0004
 -11778740.58249  -9124140.61348  22715229.0714   22715230.3274   22715229.745
        55.0004         50.0004
  -3714098.53647  -2871078.50246  24490679.3804   24490681.9744   24490678.666
        44.0004         40.0004
  -6914379.51447  -5326324.78947  22655155.2254   22655157.4234   22655155.753
        47.0004         43.0004
 20 11  5  0 54 30.0000000  0  9G06G30G05G02G15G09G29G07G13
  -8874965.98947  -6859863.45147  23276022.0034   23276027.6074   23276021.441
        47.0004         42.0004
  -4590487.78947  -3536344.91546  24375629.0154   24375636.2994   24375628.593
        45.0004         40.0004
 -23249501.39749 -18057503.14249  20525868.2594   20525870.0004   20525868.299
        60.0004         56.0004
 -21210589.63149 -16482672.03348  21082724.0534   21082724.7324   21082724.644
        55.0004         51.0004
   -878066.00348   -627957.73947  25210521.3294   25210525.3474   25210521.766
        48.0004         43.0004
  -3122518.73347  -2395962.11146  24370059.1084   24370064.9894   24370058.389
        44.0004         39.0004
 -11833987.19049  -9167189.90848  22704715.6524   22704717.9294   22704715.514
        55.0004         50.0004
  -3745212.71347  -2895323.21946  24484758.3904   24484760.9354   24484758.378
        44.0004         40.0004
  -7018233.45947  -5407249.92247  22635392.2324   22635394.3744   22635392.413
        47.0004         43.0004
 20 11  5  0 55  0.0000000  0  9G06G30G05G02G15G09G29G07G13
  -8786646.10247  -6791042.79947  23292828.1624   23292835.0844   23292829.440
        47.0004         43.0004
  -4658457.13047  -3589307.96446  24362695.3054   24362701.6964   24362694.910
        45.0004         40.0004
 -23268363.66249 -18072201.00849  20522278.6924   20522280.8074   20522278.267
        60.0004         56.0004
 -21196691.24349 -16471842.12848  21085369.1184   21085369.4044   21085369.269
        55.0004         51.0004
   -998109.74847   -721498.31047  25187678.7384   25187681.9934   25187678.731
        47.0004         43.0004
  -3022499.47947  -2318025.02546  24389092.5614   24389097.3894   24389092.833
        44.0004         39.0004
 -11888697.19149  -9209821.06748  22694304.5064   22694306.6204   22694304.322
        55.0004         50.0004
  -3775896.08247  -2919232.28446  24478918.6994   24478922.4654   24478918.930
        44.0004         40.0004
  -7121804.79748  -5487954.83647  22615683.0564   22615686.1344   22615683.219
        48.0004         43.0004
 20 11  5  0 55 30.0000000  0  9G06G30G05G02G15G09G29G07G13
  -8698093.85947  -6722041.12247  23309679.9864   23309685.5494   23309679.206
        47.0004         42.0004
  -4726155.25347  -3642059.67746  24349811.9594   24349818.8514   24349811.708
        45.0004         40.0004
 -23286874.83649 -18086625.29449  20518756.3234   20518758.4314   20518755.844
        60.0004         56.0004
 -21182401.53149 -16460707.29148  21088088.0974   21088088.8794   21088088.896
        55.0004         51.0004
  -1118109.12348   -815004.32947  25164843.2064   25164846.1784   25164843.667
        48.0004         43.0004
  -2922273.25747  -2239926.69246  24408165.9784   24408169.9834   24408165.735
        44.0004         39.0004
 -11942868.61049  -9252032.56648  22683996.2034   22683998.1884   22683996.229
        55.0004         50.0004
  -3806146.94747  -2942804.31346  24473163.7004   24473164.6914   24473162.093
        45.0004         40.0004
  -7225090.71348  -5568437.36547  22596028.4504   22596031.3454   22596028.748
        48.0004         43.0004
 20 11  5  0 56  0.0000000  0  9G06G30G05G02G15G09G29G07G13
  -8609310.26547  -6652859.14847  23326575.0734   23326580.3474   23326574.799
        47.0004         42.0004
  -4793579.41247  -3694597.95146  24336982.2064   24336988.1454   24336982.483
        44.0004         40.0004
 -23305035.11749 -18100776.16249  20515300.4164   20515302.4134   20515299.882
        60.0004         56.0004
 -21167719.58649 -16449266.81848  21090881.8524   21090882.5744   21090882.588
        55.0004         51.0004
  -1238062.24248   -908474.30047  25142017.1904   25142020.1994   25142017.651
        48.0004         43.0004
  -2821842.64547  -2161669.08446  24427277.8474   24427281.1024   24427279.458
        44.0004         40.0004
 -11996499.13649  -9293822.57448  22673790.0454   22673792.3454   22673791.018
        55.0004         50.0004
  -3835963.82047  -2966038.19346  24467488.9194   24467491.5754   24467487.894
        45.0004         40.0004
  -7328088.78148  -5648695.58647  22576429.1654   22576431.8504   22576429.114
        48.0004         43.0004
 20 11  5  0 56 30.0000000  0  9G06G30G05G02G15G09G29G07G13
  -8520296.26147  -6583497.63147  23343513.2674   23343519.7244   23343513.636
        47.0004         42.0004
  -4860726.83747  -3746920.56446  24324204.4354   24324210.6524   24324205.190
        45.0004         40.0004
 -23322844.77649 -18114653.80949  20511911.3844   20511913.2964   20511911.219
        60.0004         56.0004
 -21152644.72849 -16437520.18148  21093750.7294   21093751.3084   21093750.987
        55.0004         51.0004
  -1357966.59947  -1001906.27047  25119200.4414   25119202.7864   25119200.243
        47.0004         43.0004
  -2721210.20847  -2083254.20746  24446427.2094   24446431.3924   24446427.215
        44.0004         39.0004
 -12049586.81949  -9335189.59048  22663688.0174   22663690.2254   22663688.561
        55.0004         50.0004
  -3865344.92747  -2988932.49046  24461898.4954   24461900.9964   24461897.353
        45.0004         41.0004
  -7430796.36447  -5728727.45047  22556883.7874   22556886.2694   22556883.380
        47.0004         43.0004
 20 11  5  0 57  0.0000000  0  9G06G30G05G02G15G09G29G07G13
  -8431052.92747  -6513957.43047  23360495.7164   23360501.5164   23360496.658
        47.0004         42.0004
  -4927594.80447  -3799025.44246  24311479.9084   24311486.2514   24311477.912
        44.0004         39.0004
 -23340304.16249 -18128258.52349  20508588.9834   20508590.8994   20508588.984
        60.0004         56.0004
 -21137176.67849 -16425467.15748  21096694.1644   21096694.6564   21096694.947
        55.0004         51.0004
  -1477820.66547  -1095299.03247  25096392.0414   25096396.0694   25096394.021
        47.0004         42.0004
  -2620378.47847  -2004684.05246  24465614.7914   24465618.2934   24465614.719
        44.0004         39.0004
 -12102130.12649  -9376132.41348  22653689.5684   22653691.0354   22653689.307
        55.0004         50.0004
  -3894288.68347  -3011486.00146  24456389.5664   24456392.9194   24456389.707
        45.0004         40.0004
  -7533211.10748  -5808531.13447  22537395.2774   22537397.3484   22537395.731
        48.0004         43.0004
 20 11  5  0 57 30.0000000  0  9G06G30G05G02G15G09G29G07G13
  -8341581.02147  -6444239.09447  23377521.9164   23377527.2804   23377520.207
        46.0004         42.0004
  -4994180.33847  -3850910.23646  24298808.0194   24298814.8494   24298809.546
        44.0004         39.0004
 -23357413.23149 -18141590.25949  20505333.2124   20505335.0424   20505332.743
        60.0004         56.0004
 -21121314.50549 -16413107.02648  21099712.3754   21099713.1724   21099713.356
        55.0004         51.0004
  -1597621.76747  -1188650.48247  25073594.9374   25073598.5974   25073594.614
        47.0004         42.0004
  -2519349.88747  -1925960.47846  24484839.5094   24484844.5934   24484839.525
        44.0004         39.0004
 -12154126.69149  -9416649.21448  22643794.6744   22643797.5434   22643794.929
        55.0004         50.0004
  -3922793.38447  -3033697.38346  24450965.2254   24450969.4674   24450964.538
        45.0004         40.0004
  -7635329.88348  -5888104.20847  22517962.5174   22517964.8324   22517962.627
        48.0004         43.0004
 20 11  5  0 58  0.0000000  0  9G06G30G05G02G15G09G29G07G13
  -8251881.68847  -6374343.57447  23394590.8394   23394596.9074   23394591.081
        47.0004         42.0004
  -5060480.76847  -3902572.86846  24286192.0304   24286196.9714   24286192.957
        44.0004         39.0004
 -23374172.28749 -18154649.25949  20502144.2254   20502145.9234   20502144.153
        60.0004         56.0004
 -21105057.67549 -16400439.37248  21102806.2334   21102806.6974   21102807.203
        55.0004         51.0004
  -1717368.08247  -1281959.24947  25050808.3464   25050812.4184   25050808.150
        47.0004         42.0004
  -2418127.04747  -1847085.54546  24504101.1384   24504107.4404   24504101.956
        44.0004         39.0004
 -12205574.93249  -9456738.73848  22634004.5174   22634007.3444   22634005.323
        55.0004         50.0004
  -3950857.56647  -3055565.52146  24445624.5114   24445628.2254   24445624.721
        45.0004         40.0004
  -7737150.37148  -5967444.84347  22498587.0844   22498588.6494   22498586.412
        48.0004         43.0004
 20 11  5  0 58 30.0000000  0  9G06G30G05G02G15G09G29G07G13
  -8161955.89647  -6304271.57547  23411702.7114   23411709.9924   23411702.746
        47.0004         42.0004
  -5126493.36047  -3954011.22746  24273631.3504   24273638.6404   24273629.206
        44.0004         39.0004
 -23390581.45249 -18167435.61549  20499021.5684   20499023.5484   20499021.780
        60.0004         56.0004
 -21088405.68149 -16387463.79348  21105974.9184   21105975.8474   21105975.794
        55.0004         51.0004
  -1837057.53447  -1375223.68447  25028030.5734   25028034.8254   25028031.089
        47.0004         42.0004
  -2316712.52747  -1768061.24346  24523400.0604   24523406.3624   24523399.235
        44.0004         39.0004
 -12256472.50549  -9496399.18448  22624319.3114   22624321.6174   22624319.280
        55.0004         50.0004
  -3978480.09047  -3077089.52146  24440368.6704   24440371.4634   24440367.142
        45.0004         40.0004
  -7838670.09248  -6046551.10847  22479268.3864   22479271.1664   22479268.550
        48.0004         43.0004
 20 11  5  0 59  0.0000000  0  9G06G30G05G02G15G09G29G07G13
  -8071804.68347  -6234023.92547  23428858.2734   23428864.7694   23428857.857
        47.0004         42.0004
  -5192215.33947  -4005223.13946  24261122.5824   24261128.9424   24261124.256
        44.0004         39.0004
 -23406641.09749 -18179949.62449  20495965.4934   20495967.5214   20495965.630
        60.0004         56.0004
 -21071357.67549 -16374179.63848  21109219.1684   21109219.5984   21109219.636
        55.0004         50.0004
  -1956688.09547  -1468442.22947  25005266.6214   25005270.8914   25005265.680
        47.0004         42.0004
  -2215108.81047  -1688889.54346  24542733.1944   24542739.8964   24542733.355
        44.0004         40.0004
 -12306817.71149  -9535629.19948  22614738.8834   22614741.4364   22614738.614
        55.0004         51.0004
  -4005658.99247  -3098267.82846  24435195.3504   24435199.1034   24435195.669
        45.0004         40.0004
  -7939886.40048  -6125420.96847  22460007.3034   22460010.0584   22460007.234
        48.0004         43.0004
 20 11  5  0 59 30.0000000  0  9G06G30G05G02G15G09G29G07G13
  -7981428.96247  -6163601.33647  23446056.4514   23446062.9624   23446053.951
        46.0004         42.0004
  -5257643.83147  -4056206.35546  24248673.4644   24248678.3074   24248674.862
        44.0004         39.0004
 -23422351.29349 -18192191.32449  20492975.8714   20492978.0614   20492975.692
        60.0004         56.0004
 -21053913.18949 -16360586.53148  21112538.6814   21112539.0994   21112539.372
        55.0004         50.0004
  -2076257.59247  -1561613.21747  24982513.3774   24982516.5544   24982512.100
        47.0004         42.0004
  -2113318.34047  -1609572.33346  24562103.6814   24562111.8504   24562102.194
        44.0004         39.0004
 -12356608.67649  -9574427.34748  22605263.8314   22605266.1304   22605263.684
        55.0004         50.0004
  -4032392.82647  -3119099.35646  24430108.9174   24430110.2434   24430110.398
        44.0004         40.0004
  -8040796.60648  -6204052.27747  22440804.3404   22440806.6834   22440804.770
        48.0004         43.0004
 20 11  5  1  0  0.0000000  0  9G06G30G05G02G15G09G29G07G13
  -7890829.78447  -6093004.62147  23463296.6614   23463303.5194   23463296.418
        46.0004         42.0004
  -5322776.21447  -4106958.82746  24236278.0594   24236284.9674   24236277.844
        44.0004         39.0004
 -23437712.29849 -18204160.93449  20490052.7854   20490054.8534   20490052.725
        60.0004         56.0004
 -21036071.65949 -16346684.04548  21115933.9354   21115934.4394   21115934.661
        55.0004         50.0004
  -2195763.94247  -1654735.00347  24959771.3694   24959775.5084   24959770.780
        47.0004         43.0004
  -2011343.67647  -1530111.58846  24581507.5904   24581515.3594   24581509.394
        44.0004         39.0004
 -12405843.82149  -9612792.40248  22595894.7584   22595897.0324   22595895.504
        55.0004         50.0004
  -4058679.74747  -3139582.64446  24425107.0134   24425109.2314   24425107.312
        44.0004         40.0004
  -8141398.21848  -6282443.14847  22421661.3954   22421663.4214   22421660.950
        48.0004         43.0004
 20 11  5  1  0 30.0000000  0  9G06G30G05G02G15G09G29G07G13
  -7800008.17547  -6022234.58646  23480580.0874   23480585.0424   23480579.339
        46.0004         41.0004
  -5387609.65447  -4157478.36546  24223941.2354   24223947.8604   24223940.576
        44.0004         39.0004
 -23452724.63149 -18215858.85249  20487195.9724   20487197.9974   20487196.071
        60.0004         56.0004
 -21017832.63049 -16332471.81348  21119404.7154   21119405.1454   21119405.226
        55.0004         50.0004
  -2315205.00447  -1747805.93547  24937042.7504   24937046.8964   24937043.638
        47.0004         42.0004
  -1909187.25947  -1450509.20346  24600948.7624   24600955.8484   24600949.031
        44.0004         39.0004
 -12454521.23649  -9650722.84748  22586631.6434   22586633.6854   22586630.947
        55.0004         50.0004
  -4084519.07247  -3159717.15546  24420190.1414   24420193.1994   24420190.162
        45.0004         40.0004
  -8241688.56548  -6360591.48647  22402576.2474   22402579.4344   22402575.907
        48.0004         43.0004
 20 11  5  1  1  0.0000000  0  9G06G30G05G02G15G09G29G07G13
  -7708965.18447  -5951292.04146  23497905.3754   23497910.7024   23497904.004
        46.0004         41.0004
  -5452141.51947  -4207762.92746  24211660.7764   24211667.9624   24211661.658
        44.0004         39.0004
 -23467388.29649 -18227285.08349  20484405.5294   20484407.5964   20484405.497
        60.0004         56.0004
 -20999195.47349 -16317949.35548  21122951.0394   21122951.5334   21122951.738
        55.0004         50.0004
  -2434578.84747  -1840824.49447  24914326.4424   24914330.1504   24914327.829
        47.0004         42.0004
  -1806851.72447  -1370767.27046  24620422.2724   24620429.0984   24620421.384
        43.0004         39.0004
 -12502638.62049  -9688216.91748  22577475.4194   22577477.5864   22577475.657
        55.0004         50.0004
  -4109908.86647  -3179501.38646  24415358.7294   24415361.7894   24415357.986
        45.0004         41.0004
  -8341665.14348  -6438495.30147  22383551.9684   22383554.5044   22383551.004
        48.0004         43.0004
 20 11  5  1  1 30.0000000  0  9G06G30G05G02G15G09G29G07G13
  -7617701.75147  -5880177.71546  23515271.8804   23515277.1614   23515271.726
        46.0004         41.0004
  -5516368.87447  -4257810.19046  24199439.4984   24199444.7524   24199438.517
        44.0004         39.0004
 -23481703.50049 -18238439.78149  20481681.5414   20481683.6224   20481681.347
        60.0004         56.0004
 -20980159.55949 -16303116.17448  21126573.4194   21126574.2004   21126574.150
        55.0004         50.0004
  -2553883.12947  -1933788.86447  24891623.5074   24891626.5194   24891623.816
        47.0004         42.0004
  -1704339.32847  -1290887.50646  24639930.9144   24639936.5574   24639930.142
        43.0004         38.0004
 -12550194.59049  -9725273.50948  22568425.7194   22568427.7684   22568426.025
        55.0004         50.0004
  -4134847.69847  -3198934.21046  24410612.2734   24410616.1994   24410612.405
        46.0004         41.0004
  -8441325.50948  -6516152.73247  22364586.2264   22364588.7754   22364586.555
        48.0004         43.0004
 20 11  5  1  2  0.0000000  0  9G06G30G05G02G15G09G29G07G13
  -7526219.01147  -5808892.51746  23532680.2714   23532685.4444   23532680.778
        46.0004         41.0004
  -5580289.20447  -4307618.21346  24187276.2514   24187282.3044   24187275.191
        44.0004         39.0004
 -23495670.54549 -18249323.18849  20479023.9054   20479025.5554   20479023.766
        60.0004         56.0004
 -20960724.21649 -16287971.75248  21130271.9004   21130272.7954   21130272.506
        55.0004         50.0004
  -2673116.08347  -2026697.63047  24868934.1894   24868937.9564   24868933.657
        47.0004         42.0004
  -1601652.82147  -1210872.08446  24659471.9864   24659476.8854   24659473.726
        43.0004         38.0004
 -12597187.37949  -9761891.26348  22559483.5714   22559485.5564   22559483.593
        55.0004         51.0004
  -4159334.18547  -3218014.55246  24405953.2684   24405957.3054   24405952.941
        46.0004         41.0004
  -8540666.99248  -6593561.66847  22345681.7694   22345684.6704   22345681.860
        48.0004         43.0004
 20 11  5  1  2 30.0000000  0  9G06G30G05G02G15G09G29G07G13
  -7434517.93547  -5737437.18946  23550131.0074   23550136.0734   23550130.196
        46.0004         41.0004
  -5643899.63447  -4357184.78746  24175171.3124   24175177.5284   24175171.255
        44.0004         40.0004
 -23509289.56149 -18259935.40249  20476432.1414   20476434.0254   20476431.842
        60.0004         56.0004
 -20940888.99149 -16272515.73148  21134046.1884   21134047.1904   21134047.006
        55.0004         50.0004
  -2792275.45347  -2119549.03747  24846258.6574   24846262.5854   24846259.382
        47.0004         43.0004
  -1498794.47347  -1130722.75546  24679045.7814   24679049.4614   24679045.788
        43.0004         39.0004
 -12643615.23849  -9798068.80448  22550648.7044   22550650.5594   22550648.602
        55.0004         51.0004
  -4183367.12647  -3236741.49146  24401379.4484   24401383.2574   24401378.679
        46.0004         41.0004
  -8639687.10048  -6670720.18447  22326840.0204   22326841.1764   22326840.526
        48.0004         44.0004
 20 11  5  1  3  0.0000000  0  9G06G30G05G02G15G09G29G07G13
  -7342599.67547  -5665812.62146  23567621.9124   23567627.1844   23567620.500
        46.0004         41.0004
  -5707197.58747  -4406507.83846  24163126.2604   24163131.2864   24163128.519
        44.0004         40.0004
 -23522561.04649 -18270276.81049  20473906.5704   20473908.6624   20473906.035
        60.0004         56.0004
 -20920653.57249 -16256747.87748  21137897.0724   21137897.7234   21137897.917
        55.0004         50.0004
  -2911359.05648  -2212341.42347  24823598.5754   24823602.0174   24823599.028
        48.0004         43.0004
  -1395766.93247  -1050441.60546  24698650.6514   24698655.5244   24698650.835
        43.0004         38.0004
 -12689476.43449  -9833804.79348  22541921.7944   22541923.5874   22541921.613
        55.0004         51.0004
  -4206944.83947  -3255113.71646  24396893.3664   24396896.1294   24396892.591
        46.0004         41.0004
  -8738383.22348  -6747626.24047  22308058.1654   22308060.5014   22308058.168
        48.0004         44.0004
 20 11  5  1  3 30.0000000  0  9G06G30G05G02G15G09G29G07G13
  -7250465.13647  -5594019.51546  23585154.5004   23585160.5074   23585154.385
        46.0004         41.0004
  -5770180.18947  -4455585.15846  24151140.1014   24151146.0704   24151140.661
        45.0004         40.0004
 -23535484.91949 -18280347.35549  20471447.2564   20471449.2594   20471447.221
        60.0004         56.0004
 -20900017.20949 -16240667.59848  21141823.9794   21141824.8864   21141824.766
        55.0004         50.0004
  -3030364.84948  -2305073.15547  24800951.5334   24800955.3724   24800952.371
        48.0004         43.0004
  -1292572.52147   -970030.42546  24718286.8904   24718292.3614   24718288.457
        43.0004         38.0004
 -12734768.92549  -9869097.64748  22533302.8434   22533304.3414   22533302.858
        55.0004         51.0004
  -4230065.94147  -3273130.15546  24392493.7684   24392494.8444   24392493.990
        45.0004         40.0004
  -8836752.56548  -6824277.65247  22289339.8924   22289342.4424   22289339.096
        48.0004         44.0004
 20 11  5  1  4  0.0000000  0  9G06G30G05G02G15G09G29G07G13
  -7158115.46447  -5522058.78646  23602727.5154   23602735.0294   23602727.046
        46.0004         41.0004
  -5832844.85047  -4504414.71246  24139216.0264   24139220.9874   24139217.349
        45.0004         40.0004
 -23548061.59349 -18290147.34949  20469053.9294   20469055.8404   20469053.698
        60.0004         56.0004
 -20878979.50849 -16224274.58648  21145827.5654   21145828.0844   21145828.467
        55.0004         50.0004
  -3149290.89548  -2397742.75347  24778321.5734   24778324.8214   24778320.990
        48.0004         43.0004
  -1189213.75247   -889491.18046  24737955.2074   24737961.5884   24737957.091
        43.0004         38.0004
 -12779491.49649  -9903946.40248  22524791.8914   22524793.9384   22524791.627
        55.0004         51.0004
  -4252729.12847  -3290789.77446  24388181.3494   24388182.6864   24388180.875
        45.0004         40.0004
  -8934793.42448  -6900673.09947  22270682.9024   22270685.8014   22270682.871
        49.0004         44.0004
 20 11  5  1  4 30.0000000  0  9G06G30G05G02G15G09G29G07G13
  -7065551.71247  -5449931.22346  23620341.2154   23620349.0314   23620341.004
        45.0004         41.0004
  -5895188.84447  -4552994.40746  24127352.1004   24127358.9184   24127353.394
        45.0004         40.0004
 -23560291.30649 -18299676.98949  20466726.7214   20466728.5404   20466726.550
        60.0004         56.0004
 -20857540.05349 -16207568.51448  21149907.3064   21149908.0264   21149908.142
        55.0004         50.0004
  -3268134.72148  -2490348.27547  24755705.0714   24755709.7724   24755702.887
        48.0004         43.0004
  -1085693.10947   -808825.78846  24757654.6284   24757660.5804   24757656.120
        43.0004         38.0004
 -12823642.26349  -9938349.58548  22516390.0294   22516392.1974   22516390.480
        55.0004         50.0004
  -4274933.05047  -3308091.54546  24383956.4274   24383957.8644   24383956.815
        45.0004         40.0004
  -9032502.49448  -6976810.00947  22252089.1694   22252092.4784   22252089.565
        49.0004         44.0004
 20 11  5  1  5  0.0000000  0  9G06G30G05G02G15G09G29G07G13
  -6972774.94447  -5377637.68646  23637997.1914   23638004.2664   23637996.218
        46.0004         41.0004
  -5957209.46647  -4601322.14546  24115550.0674   24115556.4634   24115549.147
        45.0004         40.0004
 -23572174.43549 -18308936.56049  20464465.2834   20464467.4374   20464465.069
        60.0004         56.0004
 -20835698.21849 -16190548.90648  21154063.6154   21154064.2334   21154063.900
        55.0004         50.0004
  -3386894.56848  -2582888.36947  24733105.8874   24733109.8954   24733107.233
        48.0004         43.0004
   -982013.06747   -728036.19446  24777384.0794   24777390.2884   24777387.387
        43.0004         38.0004
 -12867219.51849  -9972305.89148  22508097.7684   22508099.7264   22508097.733
        55.0004         51.0004
  -4296676.59847  -3325034.56546  24379817.7834   24379819.6304   24379816.646
        45.0004         40.0004
  -9129877.55048  -7052686.65547  22233559.0734   22233561.6164   22233558.602
        49.0004         44.0004
 20 11  5  1  5 30.0000000  0  9G06G30G05G02G15G09G29G07G13
  -6879786.30447  -5305179.05246  23655691.5824   23655698.6754   23655691.369
        46.0004         41.0004
  -6018904.11047  -4649395.83646  24103809.3434   24103815.6614   24103809.662
        45.0004         40.0004
 -23583710.91049 -18317926.01049  20462269.9554   20462272.2424   20462269.864
        60.0004         56.0004
 -20813453.67449 -16173215.50248  21158296.5024   21158297.3774   21158297.318
        55.0004         50.0004
  -3505568.33648  -2675361.39847  24710523.1654   24710527.3264   24710523.657
        48.0004         43.0004
   -878175.96647   -647124.19546  24797143.6294   24797149.6324   24797144.744
        43.0004         38.0004
 -12910221.48649 -10005813.91848  22499914.4554   22499916.3814   22499913.880
        55.0004         50.0004
  -4317958.23447  -3341617.66446  24375767.8544   24375770.5034   24375768.088
        44.0004         39.0004
  -9226916.03148  -7128301.02447  22215094.3074   22215096.6274   22215094.087
        49.0004         44.0004
 20 11  5  1  6  0.0000000  0  9G06G30G05G02G15G09G29G07G13
  -6786586.79347  -5232556.11746  23673427.5984   23673433.6964   23673426.851
        46.0004         41.0004
  -6080270.06947  -4697213.40046  24092133.1704   24092138.4254   24092134.241
        45.0004         41.0004
 -23594901.10949 -18326645.63549  20460140.8234   20460142.5354   20460140.454
        60.0004         56.0004
 -20790805.78949 -16155567.80648  21162606.5774   21162607.1144   21162607.004
        55.0004         50.0004
  -3624154.00947  -2767765.79947  24687957.7194   24687960.9324   24687960.377
        47.0004         43.0004
   -774184.32647   -566091.77946  24816931.5584   24816939.6574   24816932.222
        43.0004         38.0004
 -12952646.64349 -10038872.47648  22491841.3744   22491843.5444   22491840.771
        55.0004         51.0004
  -4338776.82847  -3357839.92846  24371806.3264   24371809.3364   24371805.798
        44.0004         40.0004
  -9323615.50048  -7203651.21647  22196692.4304   22196695.2624   22196692.167
        49.0004         44.0004
 20 11  5  1  6 30.0000000  0  9G06G30G05G02G15G09G29G07G13
  -6693177.55147  -5159769.75546  23691204.0644   23691209.4684   23691204.252
        46.0004         41.0004
  -6141304.70647  -4744772.77846  24080517.6684   24080523.7574   24080519.604
        45.0004         41.0004
 -23605745.32849 -18335095.66649  20458077.2724   20458078.9304   20458077.061
        60.0004         56.0004
 -20767754.26249 -16137605.58348  21166993.0114   21166993.6554   21166993.654
        55.0004         50.0004
  -3742649.27948  -2860099.77047  24665409.2724   24665412.4524   24665410.202
        48.0004         43.0004
   -670040.49047   -484940.77146  24836750.8894   24836757.7094   24836749.331
        42.0004         37.0004
 -12994493.65949 -10071480.53848  22483878.4584   22483880.2954   22483878.397
        55.0004         51.0004
  -4359131.02547  -3373700.35446  24367932.9414   24367936.4374   24367932.903
        45.0004         40.0004
  -9419973.45148  -7278735.29447  22178355.9134   22178359.4694   22178356.137
        49.0004         44.0004
 20 11  5  1  7  0.0000000  0  9G06G30G05G02G15G09G29G07G13
  -6599559.64347  -5086820.80046  23709018.4754   23709024.6424   23709018.006
        46.0004         41.0004
  -6202005.40047  -4792071.96846  24068967.3384   24068973.2744   24068967.351
        45.0004         40.0004
 -23616243.92349 -18343276.38149  20456079.3974   20456081.4174   20456078.974
        60.0004         56.0004
 -20744298.66749 -16119328.50548  21171456.2074   21171457.1944   21171456.624
        55.0004         50.0004
  -3861052.03847  -2952361.64347  24642877.2834   24642881.0744   24642878.334
        47.0004         42.0004
   -565747.08447   -403673.20546  24856596.7034   24856604.0874   24856596.641
        42.0004         37.0004
 -13035760.81949 -10103636.75548  22476025.3524   22476026.9654   22476025.279
        55.0004         50.0004
  -4379019.55047  -3389197.92846  24364147.7694   24364151.1934   24364147.369
        45.0004         40.0004
  -9515987.51748  -7353551.41447  22160084.7824   22160087.5424   22160084.906
        49.0004         45.0004
 20 11  5  1  7 30.0000000  0  9G06G30G05G02G15G09G29G07G13
  -6505734.17347  -5013710.11146  23726872.9664   23726879.3924   23726873.307
        46.0004         41.0004
  -6262369.42447  -4839108.80446  24057480.5394   24057486.0754   24057479.579
        45.0004         40.0004
 -23626397.26349 -18351188.06349  20454147.3214   20454149.2094   20454147.282
        60.0004         56.0004
 -20720438.55749 -16100736.21748  21175996.6864   21175997.4384   21175997.393
        55.0004         50.0004
  -3979360.14447  -3044549.71146  24620362.9254   24620367.1564   24620364.313
        46.0004         41.0004
   -461306.29847   -322290.81946  24876470.9324   24876478.1584   24876471.103
        42.0004         37.0004
 -13076446.36949 -10135339.77348  22468282.7184   22468285.0974   22468282.189
        55.0004         50.0004
  -4398441.28947  -3404331.78446  24360452.0024   24360455.0054   24360452.645
        45.0004         40.0004
  -9611654.93448  -7428097.41047  22141879.6814   22141883.0514   22141879.682
        49.0004         45.0004
 20 11  5  1  8  0.0000000  0  9G06G30G05G02G15G09G29G07G13
  -6411702.31147  -4940438.58346  23744766.3924   23744772.7924   23744766.338
        46.0004         41.0004
  -6322394.25647  -4885881.31046  24046056.7954   24046063.1504   24046057.160
        45.0004         40.0004
 -23636205.75049 -18358831.03649  20452280.8414   20452282.4414   20452280.658
        60.0004         56.0004
 -20696173.31249 -16081828.24248  21180614.2444   21180614.9294   21180614.704
        55.0004         50.0004
  -4097571.87247  -3136662.67247  24597869.1084   24597873.2164   24597868.022
        46.0004         42.0004
   -356720.68247   -240795.54946  24896372.7774   24896380.9514   24896373.420
        42.0004         37.0004
 -13116549.33949 -10166588.84448  22460651.6444   22460653.7364   22460651.645
        55.0004         50.0004
  -4417394.95247  -3419100.91046  24356846.3774   24356848.4854   24356846.284
        45.0004         41.0004
  -9706973.54248  -7502371.61747  22123741.4654   22123743.5724   22123741.486
        49.0004         45.0004
 20 11  5  1  8 30.0000000  0  9G06G30G05G02G15G09G29G07G13
  -6317465.08147  -4867007.04846  23762699.2814   23762704.9014   23762700.046
        46.0004         41.0004
  -6382077.15447  -4932387.39746  24034699.5714   24034706.4974   24034699.986
        45.0004         40.0004
 -23645669.59449 -18366205.45449  20450479.7294   20450481.6824   20450479.546
        60.0004         56.0004
 -20671502.77549 -16062604.45648  21185309.1194   21185309.6534   21185309.514
        55.0004         50.0004
  -4215684.66347  -3228698.61247  24575391.9634   24575396.9104   24575393.026
        47.0004         43.0004
   -251992.65147   -159189.36046  24916302.7614   24916309.5514   24916302.506
        42.0004         38.0004
 -13156067.53849 -10197382.25748  22453131.8044   22453133.9284   22453131.733
        55.0004         51.0004
  -4435879.29247  -3433504.32846  24353329.4334   24353331.1324   24353328.890
        45.0004         41.0004
  -9801940.85048  -7576372.08847  22105669.4724   22105672.8944   22105670.483
        49.0004         45.0004
 20 11  5  1  9  0.0000000  0  9G06G30G05G02G15G09G29G07G13
  -6223023.67347  -4793416.40546  23780671.1314   23780676.6084   23780670.715
        46.0004         41.0004
  -6441415.59747  -4978625.06546  24023407.8574   24023414.1944   24023409.311
        45.0004         40.0004
 -23654788.44649 -18373311.04649  20448744.5624   20448746.4254   20448744.390
        60.0004         56.0004
 -20646426.44949 -16043064.46948  21190080.5364   21190081.2344   21190081.539
        55.0004         50.0004
  -4333696.37748  -3320655.75247  24552936.6404   24552939.9104   24552937.197
        48.0004         44.0004
   -147124.52047    -77473.97946  24936257.8454   24936263.5764   24936258.470
        42.0004         37.0004
 -13194999.78049 -10227719.06048  22445723.0724   22445725.1634   22445724.018
        55.0004         51.0004
  -4453893.11347  -3447541.08946  24349901.2764   24349903.4254   24349901.731
        45.0004         41.0004
  -9896554.31848  -7650096.83647  22087665.7954   22087667.4124   22087665.184
        49.0004         45.0004
 20 11  5  1  9 30.0000000  0  9G06G30G05G02G15G09G29G07G13
  -6128379.25347  -4719667.55446  23798681.0644   23798687.5084   23798680.549
        46.0004         41.0004
  -6500406.97947  -5024592.29146  24012183.2584   24012186.7664   24012182.937
        45.0004         40.0004
 -23663562.93149 -18380148.30149  20447074.5244   20447076.7544   20447074.180
        60.0004         56.0004
 -20620944.13549 -16023208.12548  21194930.2144   21194930.5924   21194930.604
        55.0004         50.0004
  -4451605.23748  -3412532.73847  24530499.1144   24530502.8204   24530497.325
        49.0004         45.0004
    -42118.82747      4348.58246  24956241.6324   24956245.9424   24956241.480
        42.0004         38.0004
 -13233344.53749 -10257598.09148  22438426.6054   22438428.4014   22438427.250
        55.0004         51.0004
  -4471435.33347  -3461210.36546  24346562.7114   24346566.0194   24346563.353
        45.0004         41.0004
  -9990811.55148  -7723543.99247  22069729.1924   22069730.9334   22069728.884
        49.0004         45.0004
 20 11  5  1 10  0.0000000  0  9G06G30G05G02G15G09G29G07G13
  -6033532.80847  -4645761.29646  23816729.5484   23816736.3624   23816729.485
        46.0004         41.0004
  -6559048.62947  -5070286.99846  24001023.4184   24001028.5374   24001024.262
        45.0004         40.0004
 -23671993.24849 -18386717.37149  20445470.3464   20445472.3224   20445469.986
        60.0004         56.0004
 -20595055.15749 -16003034.90348  21199856.5244   21199857.2874   21199857.451
        55.0004         50.0004
  -4569408.94448  -3504327.80047  24508081.3684   24508084.7764   24508079.240
        50.0004         45.0004
     63022.16447     86276.56746  24976248.1704   24976253.3654   24976248.464
        42.0004         38.0004
 -13271100.98849 -10287018.69348  22431241.3664   22431243.4824   22431241.719
        55.0004         50.0004
  -4488504.88647  -3474511.33046  24343313.6304   24343317.5254   24343312.067
        45.0004         40.0004
 -10084710.15048  -7796711.70547  22051861.1174   22051862.1984   22051860.731
        49.0004         45.0004
 20 11  5  1 10 30.0000000  0  9G06G30G05G02G15G09G29G07G13
  -5938485.65547  -4571698.62146  23834816.6904   23834822.8944   23834816.086
        45.0004         41.0004
  -6617338.00947  -5115707.21046  23989930.6424   23989937.1194   23989929.988
        45.0004         40.0004
 -23680079.90349 -18393018.65049  20443931.5714   20443933.4434   20443931.087
        60.0004         56.0004
 -20568759.30449 -15982544.63648  21204860.5234   21204861.4844   21204861.246
        55.0004         50.0004
  -4687105.62848  -3596039.46647  24485685.0604   24485688.1484   24485684.558
        50.0004         46.0004
    168295.98847    168308.05746  24996282.3904   24996284.5744   24996281.470
        42.0004         38.0004
 -13308267.07349 -10315979.27648  22424168.5534   22424170.9394   22424168.825
        55.0004         50.0004
  -4505100.43147  -3487442.92746  24340155.4504   24340159.4824   24340155.497
        45.0004         40.0004
 -10178247.43048  -7869597.87147  22034061.1574   22034063.1574   22034060.349
        49.0004         45.0004
 20 11  5  1 11  0.0000000  0  9G06G30G05G02G15G09G29G07G13
  -5843238.83147  -4497480.36346  23852941.9904   23852948.5064   23852940.305
        45.0004         41.0004
  -6675272.57847  -5160850.94946  23978905.9984   23978912.8094   23978906.636
        45.0004         40.0004
 -23687823.28149 -18399052.44749  20442458.0314   20442460.0884   20442457.690
        60.0004         56.0004
 -20542056.33249 -15961737.13548  21209941.7234   21209942.7114   21209942.413
        54.0004         50.0004
  -4804693.16048  -3687666.07647  24463308.2774   24463312.3734   24463307.532
        50.0004         45.0004
    273700.35647    250441.24046  25016340.7444   25016344.4904   25016340.344
        42.0004         37.0004
 -13344841.25949 -10344478.63348  22417208.6124   22417211.2404   22417208.457
        55.0004         50.0004
  -4521221.10447  -3500004.47846  24337088.3444   24337091.5954   24337087.333
        45.0004         41.0004
 -10271421.32948  -7942200.88047  22016330.9784   22016333.2024   22016331.170
        49.0004         45.0004
 20 11  5  1 11 30.0000000  0  9G06G30G05G02G15G09G29G07G13
  -5747793.52447  -4423107.44746  23871104.1154   23871111.6664   23871103.774
        45.0004         41.0004
  -6732849.83247  -5205716.24046  23967949.6104   23967955.9814   23967949.163
        44.0004         40.0004
 -23695223.41549 -18404818.78249  20441050.0254   20441051.8834   20441049.767
        60.0004         56.0004
 -20514945.94549 -15940612.17048  21215100.6074   21215101.5924   21215101.511
        54.0004         50.0004
  -4922169.39248  -3779205.94047  24440954.1654   24440957.3414   24440953.971
        50.0004         45.0004
    379232.76347    332674.22846  25036422.3754   25036426.3274   25036423.219
        42.0004         37.0004
 -13380822.56949 -10372516.01048  22410362.1234   22410364.1414   22410362.346
        55.0004         51.0004
  -4536865.26347  -3512194.73046  24334112.4324   24334114.1854   24334112.068
        45.0004         41.0004
 -10364229.42948  -8014518.86347  21998669.3974   21998672.6764   21998669.733
        49.0004         45.0004
 20 11  5  1 12  0.0000000  0  9G06G30G05G02G15G09G29G07G13
  -5652150.84247  -4348580.74446  23889305.2274   23889310.8354   23889303.923
        45.0004         40.0004
  -6790067.00947  -5250300.98546  23957062.0844   23957066.6234   23957062.681
        44.0004         40.0004
 -23702280.53849 -18410317.83649  20439707.0754   20439708.9664   20439706.480
        60.0004         56.0004
 -20487427.72749 -15919169.41748  21220337.2894   21220338.0624   21220337.545
        54.0004         50.0004
  -5039532.21048  -3870657.44447  24418619.7074   24418623.5814   24418619.434
        49.0004         45.0004
    484891.03447    415005.29546  25056528.3674   25056530.5614   25056528.590
        42.0004         37.0004
 -13416209.26549 -10400090.05748  22403628.2794   22403630.2054   22403628.416
        55.0004         51.0004
  -4552032.72847  -3524013.51246  24331226.1564   24331228.0594   24331225.607
        45.0004         41.0004
 -10456668.99648  -8086549.67147  21981078.9684   21981081.9624   21981079.040
        50.0004         45.0004
 20 11  5  1 12 30.0000000  0  9G06G30G05G02G15G09G29G07G13
  -5556311.98647  -4273901.15846  23907542.6144   23907548.8484   23907542.062
        45.0004         40.0004
  -6846921.72947  -5294603.27646  23946243.1124   23946248.2954   23946243.152
        45.0004         40.0004
 -23708995.11549 -18415549.96949  20438429.3184   20438431.3724   20438428.788
        60.0004         56.0004
 -20459501.35349 -15897408.61148  21225651.8384   21225652.4624   21225652.372
        54.0004         50.0004
  -5156779.45648  -3962018.89247  24396309.2244   24396312.0464   24396307.653
        49.0004         44.0004
    590672.70847    497432.53046  25076657.9074   25076660.0534   25076658.937
        42.0004         37.0004
 -13451000.17749 -10427199.85948  22397008.1524   22397009.7374   22397008.420
        55.0004         51.0004
  -4566721.98747  -3535459.66746  24328430.8164   24328431.8014   24328430.285
        45.0004         41.0004
 -10548737.81848  -8158291.58647  21963559.4144   21963561.1964   21963558.752
        50.0004         45.0004
 20 11  5  1 13  0.0000000  0  9G06G30G05G02G15G09G29G07G13
  -5460278.34947  -4199069.79246  23925815.9494   23925823.9254   23925816.486
        45.0004         40.0004
  -6903411.49047  -5338621.19346  23935493.2124   23935499.0644   23935493.615
        45.0004         41.0004
 -23715367.76349 -18420515.66949  20437216.5904   20437218.6384   20437216.341
        60.0004         56.0004
 -20431166.48849 -15875329.50848  21231043.7034   21231043.9904   21231043.755
        54.0004         50.0004
  -5273909.26048  -4053288.87347  24374019.2464   24374022.2304   24374020.014
        49.0004         44.0004
    696575.33747    579954.01646  25096808.8744   25096813.3914   25096810.746
        42.0004         37.0004
 -13485194.59149 -10453844.85148  22390500.7264   22390503.0304   22390500.579
        55.0004         51.0004
  -4580931.96047  -3546532.33346  24325727.0434   24325729.1154   24325725.112
        45.0004         41.0004
 -10640433.62048  -8229742.84047  21946109.7294   21946111.3534   21946109.961
        50.0004         45.0004
 20 11  5  1 13 30.0000000  0  9G06G30G05G02G15G09G29G07G13
  -5364050.65547  -4124087.22446  23944128.0634   23944135.2044   23944127.860
        45.0004         40.0004
  -6959533.57347  -5382352.64346  23924812.4564   23924819.1124   23924813.913
        45.0004         40.0004
 -23721398.15649 -18425214.67649  20436069.1464   20436070.9554   20436069.145
        60.0004         56.0004
 -20402422.90549 -15852931.91948  21236513.3594   21236513.9364   21236513.901
        54.0004         50.0004
  -5390919.14248  -4144465.40747  24351753.6404   24351755.4594   24351754.050
        48.0004         43.0004
    802596.76347    662568.05046  25116984.9994   25116990.4254   25116985.260
        42.0004         37.0004
 -13518790.53449 -10480023.51448  22384107.7634   22384109.9904   22384107.959
        55.0004         51.0004
  -4594661.99047  -3557231.00246  24323112.9134   24323115.6854   24323113.946
        45.0004         41.0004
 -10731753.89648  -8300901.47447  21928731.9474   21928734.3584   21928732.942
        50.0004         45.0004
 20 11  5  1 14  0.0000000  0  9G06G30G05G02G15G09G29G07G13
  -5267630.40147  -4048954.61846  23962477.5064   23962482.4374   23962477.175
        44.0004         40.0004
  -7015285.70147  -5425795.80446  23914204.3444   23914208.7074   23914204.029
        45.0004         40.0004
 -23727086.86649 -18429647.43349  20434986.5664   20434988.6074   20434986.507
        60.0004         56.0004
 -20373270.33549 -15830215.63848  21242061.0104   21242061.5804   21242061.385
        54.0004         50.0004
  -5507807.54848  -4235547.29347  24329509.9004   24329513.4634   24329510.655
        48.0004         43.0004
    908734.49146    745272.70946  25137184.6414   25137186.9694   25137183.211
        41.0004         37.0004
 -13551787.08849 -10505735.11048  22377829.1124   22377831.0034   22377829.335
        55.0004         51.0004
  -4607911.02147  -3567554.85246  24320592.0724   24320595.1374   24320591.691
        45.0004         41.0004
 -10822696.39248  -8371765.73647  21911426.6584   21911428.6804   21911426.440
        50.0004         45.0004
 20 11  5  1 14 30.0000000  0  9G06G30G05G02G15G09G29G07G13
  -5171018.56547  -3973672.71646  23980861.2134   23980866.7614   23980861.113
        44.0004         39.0004
  -7070665.18647  -5468948.56546  23903665.2834   23903670.4134   23903665.082
        45.0004         40.0004
 -23732434.12949 -18433814.12649  20433969.0084   20433970.8964   20433968.922
        60.0004         56.0004
 -20343708.48949 -15807180.44748  21247686.2184   21247686.8284   21247686.667
        54.0004         50.0004
  -5624571.84248  -4326532.42347  24307291.1184   24307294.5234   24307289.797
        48.0004         43.0004
   1014986.35546    828066.34046  25157401.1314   25157405.7704   25157402.906
        41.0004         37.0004
 -13584182.77749 -10530978.49948  22371664.2624   22371666.5084   22371663.998
        56.0004         51.0004
  -4620677.60647  -3577502.76746  24318162.2124   24318165.7574   24318161.939
        45.0004         41.0004
 -10913258.49948  -8442333.59247  21894192.9624   21894195.8464   21894192.911
        50.0004         45.0004
 20 11  5  1 15  0.0000000  0  9G06G30G05G02G15G09G29G07G13
  -5074216.50247  -3898242.58746  23999282.7374   23999288.2904   23999283.201
        44.0004         39.0004
  -7125669.64547  -5511809.13746  23893198.5634   23893204.3004   23893198.690
        45.0004         40.0004
 -23737440.47049 -18437715.16749  20433016.2494   20433018.3554   20433016.059
        60.0004         56.0004
 -20313737.30149 -15783826.28448  21253389.7124   21253390.1434   21253390.677
        54.0004         50.0004
  -5741210.48047  -4417419.68447  24285094.9354   24285097.7554   24285093.102
        47.0004         42.0004
   1121349.85546    910946.93746  25177641.9344   25177644.6374   25177643.172
        41.0004         37.0004
 -13615976.92449 -10555753.15648  22365613.7314   22365616.3494   22365613.464
        56.0004         51.0004
  -4632961.18447  -3587074.32746  24315825.4884   24315827.5094   24315824.632
        45.0004         41.0004
 -11003438.22248  -8512603.49047  21877032.4054   21877034.4444   21877032.156
        50.0004         45.0004
 20 11  5  1 15 30.0000000  0  9G06G30G05G02G15G09G29G07G13
  -4977225.42447  -3822665.19146  24017739.2634   24017746.2154   24017738.843
        44.0004         40.0004
  -7180296.54047  -5554375.52446  23882803.4534   23882808.8704   23882803.324
        45.0004         40.0004
 -23742105.79049 -18441350.47749  20432128.6314   20432130.6964   20432128.329
        60.0004         56.0004
 -20283356.36049 -15760152.83648  21259170.7914   21259171.6184   21259171.776
        54.0004         50.0004
  -5857720.99247  -4508207.09947  24262923.0944   24262927.0944   24262923.146
        47.0004         42.0004
   1227822.80746    993912.82546  25197904.6904   25197908.6564   25197904.988
        41.0004         37.0004
 -13647167.81749 -10580057.74148  22359677.8034   22359680.7084   22359677.798
        56.0004         51.0004
  -4644760.86247  -3596268.80546  24313579.2824   24313582.4144   24313579.439
        45.0004         41.0004
 -11093232.90648  -8582573.34547  21859945.1754   21859947.0194   21859944.881
        50.0004         45.0004
 20 11  5  1 16  0.0000000  0  9G06G30G05G02G15G09G29G07G13
  -4880046.46847  -3746941.38046  24036231.5654   24036237.0264   24036232.469
        44.0004         40.0004
  -7234543.46947  -5596645.82046  23872481.1804   23872486.1564   23872481.776
        45.0004         41.0004
 -23746430.48649 -18444720.36049  20431305.5174   20431307.6334   20431305.138
        60.0004         56.0004
 -20252565.56649 -15736160.01648  21265030.0984   21265031.4164   21265030.174
        54.0004         50.0004
  -5974101.36847  -4598893.04647  24240776.7444   24240781.4984   24240776.064
        47.0004         42.0004
   1334402.86046   1076962.15846  25218183.8844   25218193.0774   25218185.193
        41.0004         36.0004
 -13677754.10049 -10603891.21248  22353857.6474   22353860.2874   22353857.762
        56.0004         51.0004
  -4656075.65647  -3605085.46446  24311426.5304   24311429.5604   24311427.038
        45.0004         41.0004
 -11182640.46648  -8652241.54847  21842931.0314   21842933.0714   21842932.031
        50.0004         45.0004
 20 11  5  1 16 30.0000000  0  9G06G30G05G02G15G09G29G07G13
  -4782680.82447  -3671072.09446  24054760.6554   24054766.1334   24054759.940
        44.0004         40.0004
  -7288407.93147  -5638618.08346  23862231.0574   23862235.0424   23862230.279
        45.0004         41.0004
 -23750415.05649 -18447825.21149  20430547.1764   20430549.3664   20430547.164
        60.0004         56.0004
 -20221364.58749 -15711847.58048  21270967.4684   21270968.4404   21270967.921
        54.0004         50.0004
  -6090349.48447  -4689475.97447  24218654.6734   24218659.2304   24218653.407
        47.0004         43.0004
   1441087.78546   1160093.18546  25238486.1164   25238493.6264   25238487.388
        40.0004         36.0004
 -13707735.01949 -10627252.96648  22348152.8684   22348155.1004   22348153.102
        56.0004         51.0004
  -4666904.46947  -3613523.46846  24309366.3094   24309369.0424   24309366.272
        45.0004         41.0004
 -11271658.75948  -8721606.43047  21825991.5864   21825994.3554   21825991.905
        50.0004         45.0004
 20 11  5  1 17  0.0000000  0  9G06G30G05G02G15G09G29G07G13
  -4685129.76347  -3595058.34246  24073322.6504   24073329.6294   24073322.234
        44.0004         40.0004
  -7341887.45547  -5680290.41846  23852053.0804   23852059.4604   23852053.097
        45.0004         41.0004
 -23754059.82449 -18450665.28249  20429853.5544   20429855.7214   20429852.961
        60.0004         56.0004
 -20189753.08649 -15687215.24548  21276982.7994   21276984.0064   21276983.681
        54.0004         50.0004
  -6206463.25848  -4779954.21147  24196560.5894   24196563.8604   24196559.740
        49.0004         44.0004
   1547875.24146   1243304.11245  25258808.5274   25258813.3964   25258808.414
        40.0004         35.0004
 -13737109.36849 -10650142.07248  22342563.5184   22342565.0274   22342563.469
        56.0004         51.0004
  -4677246.53647  -3621582.18346  24307397.7054   24307400.4304   24307397.647
        45.0004         41.0004
 -11360285.37448  -8790666.10547  21809126.8694   21809128.7674   21809126.194
        50.0004         46.0004
 20 11  5  1 17 30.0000000  0  9G06G30G05G02G15G09G29G07G13
  -4587394.46447  -3518901.03446  24091921.4934   24091927.9044   24091919.412
        44.0004         40.0004
  -7394979.63947  -5721660.94446  23841950.3664   23841955.9374   23841951.220
        46.0004         41.0004
 -23757364.85449 -18453240.62049  20429224.5794   20429226.8744   20429224.296
        60.0004         56.0004
 -20157731.06949 -15662263.02948  21283076.5834   21283077.3894   21283077.309
        54.0004         50.0004
  -6322440.64848  -4870326.17047  24174490.0114   24174493.9734   24174489.513
        49.0004         45.0004
   1654762.82546   1326593.09745  25279148.8024   25279151.1634   25279148.097
        40.0004         35.0004
 -13765876.16649 -10672557.76048  22337089.1744   22337091.5964   22337088.857
        56.0004         51.0004
  -4687101.22647  -3629261.10946  24305521.5684   24305525.1524   24305522.837
        45.0004         40.0004
 -11448517.68948  -8859418.53147  21792336.3194   21792339.1984   21792336.564
        50.0004         46.0004
 20 11  5  1 18  0.0000000  0  9G06G30G05G02G15G09G29G07G13
  -4489476.29047  -3442601.20946  24110554.8724   24110561.2684   24110554.109
        45.0004         40.0004
  -7447682.09947  -5762727.79246  23831922.4794   23831927.5174   23831922.135
        46.0004         41.0004
 -23760330.82149 -18455551.76049  20428660.5324   20428662.2654   20428660.279
        60.0004         56.0004
 -20125298.48949 -15636990.89648  21289248.6714   21289249.0094   21289249.118
        54.0004         50.0004
  -6438279.40948  -4960590.08447  24152447.1324   24152450.5284   24152446.242
        50.0004         45.0004
   1761748.37346   1409958.41645  25299505.1204   25299514.8104   25299506.450
        40.0004         35.0004
 -13794034.67149 -10694499.45248  22331731.1804   22331733.2154   22331731.948
        56.0004         51.0004
  -4696467.77047  -3636559.66646  24303739.8164   24303743.3714   24303739.082
        45.0004         40.0004
 -11536353.53248  -8927862.02847  21775621.4494   21775624.4594   21775621.342
        50.0004         46.0004
 20 11  5  1 18 30.0000000  0  9G06G30G05G02G15G09G29G07G13
  -4391376.23947  -3366159.67646  24129222.1354   24129228.1494   24129221.685
        44.0004         40.0004
  -7499992.29047  -5803488.94746  23821967.1424   23821972.6124   23821967.526
        46.0004         41.0004
 -23762957.93749 -18457598.85549  20428160.3554   20428162.3044   20428159.926
        60.0004         56.0004
 -20092455.05149 -15611398.61148  21295498.7224   21295499.2504   21295499.484
        54.0004         50.0004
  -6553977.34048  -5050744.26247  24130430.6594   24130433.7584   24130430.910
        51.0004         46.0004
   1868829.70346   1493398.35245  25319883.0334   25319887.7614   25319883.207
        39.0004         35.0004
 -13821583.04549 -10715965.72448  22326488.4254   22326490.8174   22326488.938
        56.0004         51.0004
  -4705345.03547  -3643476.96946  24302050.8334   24302053.4324   24302049.951
        45.0004         41.0004
 -11623790.55848  -8995994.74947  21758983.0984   21758985.7194   21758983.051
        50.0004         46.0004
 20 11  5  1 19  0.0000000  0  8G06G30G05G02G15G29G07G13
  -4293095.73447  -3289577.53646  24147925.7314   24147931.8724   24147926.049
        45.0004         40.0004
  -7551908.00247  -5843942.74246  23812087.4454   23812093.0624   23812086.837
        45.0004         41.0004
 -23765246.41549 -18459382.07949  20427725.0894   20427726.8604   20427724.823
        60.0004         56.0004
 -20059200.70049 -15585486.14448  21301826.4954   21301827.3724   21301826.975
        54.0004         50.0004
  -6669532.88248  -5140787.46247  24108441.0924   24108443.8664   24108442.578
        51.0004         47.0004
 -13848520.73549 -10736956.13448  22321362.4484   22321364.7824   22321363.131
        56.0004         51.0004
  -4713732.34047  -3650012.47746  24300453.7074   24300456.6004   24300451.841
        45.0004         40.0004
 -11710827.03348  -9063815.36147  21742420.6234   21742422.9884   21742421.156
        51.0004         46.0004
 20 11  5  1 19 30.0000000  0  8G06G30G05G02G15G29G07G13
  -4194635.93647  -3212855.65046  24166661.0344   24166666.8604   24166660.838
        45.0004         40.0004
  -7603426.65947  -5884087.15046  23802284.6004   23802290.0974   23802284.223
        46.0004         41.0004
 -23767196.44449 -18460901.57949  20427353.9724   20427355.5414   20427353.602
        60.0004         56.0004
 -20025535.10049 -15559253.22348  21308232.6724   21308233.8104   21308233.409
        54.0004         49.0004
  -6784943.58448  -5230717.76947  24086479.3134   24086482.6234   24086480.247
        51.0004         47.0004
 -13874846.62949 -10757469.82348  22316352.5034   22316354.8734   22316352.415
        56.0004         51.0004
  -4721628.78147  -3656165.49846  24298951.4414   24298952.4854   24298951.078
        45.0004         40.0004
 -11797460.30648  -9131321.78847  21725934.0754   21725936.9504   21725935.044
        51.0004         46.0004
 20 11  5  1 20  0.0000000  0  8G06G30G05G02G15G29G07G13
  -4095998.14647  -3135995.09546  24185430.7094   24185438.0294   24185430.647
        45.0004         40.0004
  -7654545.98047  -5923920.39346  23792557.0834   23792561.4114   23792557.907
        46.0004         41.0004
 -23768808.38349 -18462157.62749  20427047.2794   20427049.0444   20427047.128
        60.0004         56.0004
 -19991458.22549 -15532699.82448  21314717.1854   21314718.1664   21314718.240
        54.0004         49.0004
  -6900207.47848  -5320533.65247  24064544.6134   24064548.0624   24064546.094
        51.0004         46.0004
 -13900559.92349 -10777506.15148  22311459.0234   22311461.2314   22311458.880
        56.0004         51.0004
  -4729033.95347  -3661935.73646  24297542.6064   24297544.6014   24297543.267
        45.0004         41.0004
 -11883688.19948  -9198512.34247  21709526.2124   21709528.6364   21709526.282
        51.0004         46.0004
 20 11  5  1 20 30.0000000  0  8G06G30G05G02G15G29G07G13
  -3997183.58747  -3058996.80346  24204236.0004   24204242.2834   24204234.568
        45.0004         40.0004
  -7705263.63547  -5963440.65446  23782905.2674   23782910.7104   23782905.459
        45.0004         41.0004
 -23770082.63449 -18463150.54249  20426804.4724   20426806.5814   20426804.056
        60.0004         56.0004
 -19956970.10349 -15505825.97448  21321280.3214   21321280.8314   21321281.134
        54.0004         49.0004
  -7015322.56248  -5410233.59647  24042639.3864   24042642.5624   24042639.095
        51.0004         46.0004
 -13925659.93349 -10797064.60048  22306683.3944   22306684.8554   22306683.702
        56.0004         51.0004
  -4735946.63647  -3667322.19946  24296227.5754   24296229.4444   24296227.981
        45.0004         40.0004
 -11969508.55348  -9265385.32147  21693195.0494   21693198.1464   21693195.202
        51.0004         46.0004
 20 11  5  1 21  0.0000000  0  8G06G30G05G02G15G29G07G13
  -3898193.56247  -2981861.78146  24223072.9614   24223077.5174   24223071.357
        45.0004         40.0004
  -7755577.27147  -6002646.07846  23773331.3614   23773336.4744   23773331.155
        46.0004         41.0004
 -23771019.64349 -18463880.67849  20426626.2164   20426628.3134   20426626.227
        60.0004         56.0004
 -19922070.67249 -15478631.62448  21327921.4584   21327922.1114   21327922.094
        54.0004         49.0004
  -7130286.68448  -5499815.91447  24020762.0894   24020765.1484   24020761.526
        51.0004         46.0004
 -13950145.22049 -10816144.04848  22302023.5124   22302026.1604   22302022.880
        56.0004         51.0004
  -4742366.61147  -3672324.74746  24295005.3354   24295008.2564   24295004.981
        45.0004         40.0004
 -12054919.16148  -9331939.01847  21676941.1514   21676944.2624   21676941.231
        51.0004         46.0004
 20 11  5  1 21 30.0000000  0  8G06G30G05G02G15G29G07G13
  -3799029.15647  -2904590.85646  24241942.0534   24241948.1454   24241941.657
        44.0004         39.0004
  -7805484.40447  -6041534.74046  23763833.9084   23763839.2264   23763834.320
        46.0004         41.0004
 -23771619.57549 -18464348.14949  20426511.9184   20426514.2024   20426511.644
        60.0004         56.0004
 -19886759.49349 -15451116.42148  21334640.5754   21334641.4854   21334641.532
        54.0004         49.0004
  -7245097.69848  -5589278.91447  23998914.4234   23998917.7684   23998914.307
        50.0004         45.0004
 -13974015.18649 -10834744.02048  22297481.4984   22297483.9994   22297481.212
        56.0004         51.0004
  -4748293.01647  -3676942.69746  24293877.1754   24293880.0624   24293876.284
        45.0004         40.0004
 -12139917.59448  -9398171.54347  21660767.2724   21660769.3624   21660766.835
        51.0004         46.0004
 20 11  5  1 22  0.0000000  0  8G06G30G05G02G15G29G07G13
  -3699691.89947  -2827185.26346  24260846.3454   24260853.7954   24260846.915
        44.0004         40.0004
  -7854982.88047  -6080104.98746  23754414.2414   23754421.3224   23754413.141
        46.0004         41.0004
 -23771882.87549 -18464553.31849  20426461.9064   20426464.0244   20426461.847
        60.0004         56.0004
 -19851036.33949 -15423280.20448  21341438.8754   21341439.3004   21341439.247
        54.0004         49.0004
  -7359753.68848  -5678621.08847  23977096.4704   23977099.6864   23977096.388
        50.0004         45.0004
 -13997268.85549 -10852863.76448  22293056.2734   22293059.0024   22293056.163
        56.0004         51.0004
  -4753724.98747  -3681175.36546  24292844.1364   24292846.7954   24292843.494
        45.0004         40.0004
 -12224501.96548  -9464081.42147  21644671.8814   21644674.0314   21644671.572
        51.0004         46.0004
 20 11  5  1 22 30.0000000  0  8G06G30G05G02G15G29G07G13
  -3600182.91147  -2749645.86946  24279782.1194   24279789.1834   24279782.226
        44.0004         39.0004
  -7904070.33747  -6118354.94846  23745074.0114   23745078.9344   23745074.641
        46.0004         41.0004
 -23771809.78349 -18464496.35549  20426475.6564   20426477.8924   20426475.598
        60.0004         56.0004
 -19814901.73049 -15395123.37448  21348314.9904   21348315.6174   21348315.693
        54.0004         49.0004
  -7474252.60148  -5767840.92147  23955307.7894   23955310.7764   23955307.905
        50.0004         45.0004
 -14019905.42849 -10870502.65848  22288748.5234   22288750.9874   22288748.561
        56.0004         51.0004
  -4758662.22047  -3685022.53346  24291904.0524   24291907.1794   24291903.650
        45.0004         41.0004
 -12308669.85548  -9529666.76647  21628654.6124   21628657.6834   21628654.869
        51.0004         46.0004
 20 11  5  1 23  0.0000000  0  8G06G30G05G02G15G29G07G13
  -3500503.49247  -2671973.65346  24298749.7134   24298756.6794   24298749.584
        44.0004         39.0004
  -7952744.47447  -6156282.81846  23735811.7014   23735817.4954   23735810.302
        45.0004         41.0004
 -23771400.45649 -18464177.39949  20426553.5864   20426555.8254   20426553.699
        60.0004         56.0004
 -19778355.61449 -15366645.88848  21355269.5344   21355270.3334   21355270.065
        54.0004         49.0004
  -7588592.45248  -5856936.82147  23933548.5154   23933551.2324   23933548.310
        49.0004         43.0004
 -14041923.96849 -10887659.96848  22284558.8604   22284561.1264   22284559.178
        56.0004         51.0004
  -4763103.91447  -3688483.57646  24291059.0644   24291062.0664   24291059.286
        45.0004         41.0004
 -12392419.27348  -9594926.04347  21612718.0914   21612719.9974   21612717.957
        51.0004         46.0004
 20 11  5  1 23 30.0000000  0  8G06G30G05G02G15G29G07G13
  -3400654.93047  -2594169.62746  24317751.5274   24317757.4694   24317750.482
        43.0004         38.0004
  -8001002.99847  -6193886.85246  23726627.1694   23726633.6244   23726627.060
        45.0004         41.0004
 -23770655.42849 -18463596.85249  20426695.4974   20426697.6734   20426695.413
        60.0004         56.0004
 -19741397.57549 -15337847.42448  21362302.4844   21362303.5334   21362303.030
        54.0004         49.0004
  -7702770.98048  -5945907.03447  23911821.3744   23911823.6464   23911821.978
        48.0004         43.0004
 -14063323.83749 -10904335.19148  22280486.7144   22280488.6924   22280486.981
        56.0004         51.0004
  -4767049.35347  -3691557.93246  24290307.9744   24290310.9604   24290307.589
        46.0004         41.0004
 -12475747.94948  -9659857.45547  21596860.5564   21596862.8394   21596861.173
        51.0004         46.0004
 20 11  5  1 24  0.0000000  0  8G06G30G05G02G15G29G07G13
  -3300638.59647  -2516234.90646  24336784.1004   24336789.7214   24336782.246
        43.0004         38.0004
  -8048843.69047  -6231165.33546  23717523.3354   23717529.8774   23717524.457
        45.0004         41.0004
 -23769575.23349 -18462755.14149  20426901.1434   20426903.2034   20426900.682
        60.0004         56.0004
 -19704027.96749 -15308728.26148  21369413.4664   21369414.5494   21369414.329
        54.0004         49.0004
  -7816785.85248  -6034749.71847  23890125.3104   23890128.1864   23890124.537
        49.0004         44.0004
 -14084104.39749 -10920527.83348  22276532.4534   22276534.2654   22276532.798
        56.0004         51.0004
  -4770498.31147  -3694245.42746  24289651.7984   24289654.2864   24289650.889
        45.0004         41.0004
 -12558653.78548  -9724459.38647  21581084.3294   21581086.0564   21581084.409
        51.0004         46.0004
 20 11  5  1 24 30.0000000  0  8G06G30G05G02G15G29G07G13
  -3200455.74847  -2438170.41946  24355847.8664   24355855.0104   24355846.249
        43.0004         38.0004
  -8096264.21847  -6268116.39746  23708500.6124   23708506.5594   23708501.051
        46.0004         41.0004
 -23768160.09249 -18461652.43849  20427170.5824   20427172.4674   20427170.502
        60.0004         56.0004
 -19666246.73449 -15279288.34748  21376603.1554   21376604.0484   21376603.843
        54.0004         49.0004
  -7930635.55148  -6123463.71147  23868460.6054   23868462.8294   23868460.599
        49.0004         45.0004
 -14104264.76949 -10936237.21448  22272695.9444   22272698.2144   22272695.964
        56.0004         51.0004
  -4773449.88647  -3696545.34246  24289090.4064   24289092.3864   24289090.405
        45.0004         41.0004
 -12641134.50348  -9788730.05447  21565388.9584   21565391.8314   21565388.516
        51.0004         46.0004
 20 11  5  1 25  0.0000000  0  8G06G30G05G02G15G29G07G13
  -3100107.57247  -2359977.09846  24374942.4944   24374949.6474   24374942.185
        43.0004         38.0004
  -8143262.36247  -6304738.30946  23699557.2264   23699562.1844   23699556.800
        46.0004         41.0004
 -23766409.87349 -18460288.62449  20427503.5484   20427505.5174   20427503.290
        60.0004         56.0004
 -19628053.45149 -15249527.35548  21383870.9084   21383871.7354   21383871.617
        54.0004         49.0004
  -8044317.75448  -6212047.19347  23846827.4034   23846829.9364   23846826.993
        50.0004         45.0004
 -14123804.53649 -10951463.01048  22268977.4794   22268979.8224   22268978.168
        56.0004         51.0004
  -4775903.67547  -3698457.37346  24288623.4334   24288625.2894   24288623.761
        45.0004         40.0004
 -12723188.21748  -9852667.98847  21549774.6024   21549777.1574   21549774.453
        51.0004         47.0004
 20 11  5  1 25 30.0000000  0  8G06G30G05G02G15G29G07G13
  -2999595.52247  -2281656.07846  24394070.5294   24394076.9954   24394069.049
        42.0004         38.0004
  -8189835.92647  -6341029.38646  23690693.6704   23690700.5034   23690694.927
        46.0004         41.0004
 -23764325.27549 -18458664.26349  20427900.4394   20427902.3344   20427900.573
        60.0004         56.0004
 -19589448.31849 -15219445.44548  21391217.1384   21391218.2934   21391217.852
        54.0004         49.0004
  -8157830.31448  -6300498.51247  23825226.5474   23825228.9444   23825227.243
        50.0004         45.0004
 -14142722.56149 -10966204.33248  22265377.6124   22265380.1904   22265377.896
        56.0004         51.0004
  -4777858.72047  -3699980.77746  24288251.2564   24288254.0204   24288250.783
        45.0004         40.0004
 -12804812.68048  -9916271.44647  21534241.7154   21534244.0094   21534241.574
        51.0004         47.0004
 20 11  5  1 26  0.0000000  0  8G06G30G05G02G15G29G07G13
  -2898920.89547  -2203208.37746  24413228.3904   24413234.2444   24413227.066
        42.0004         37.0004
  -8235982.67247  -6376987.87546  23681912.3374   23681918.7344   23681912.409
        46.0004         41.0004
 -23761906.75649 -18456779.69949  20428360.4074   20428362.3084   20428360.385
        60.0004         56.0004
 -19550431.61549 -15189042.83348  21398642.0934   21398642.8734   21398643.013
        54.0004         49.0004
  -8271171.50248  -6388816.27247  23803658.8544   23803661.4884   23803658.741
        50.0004         46.0004
 -14161018.29649 -10980460.75348  22261896.2534   22261898.2784   22261895.895
        56.0004         51.0004
  -4779315.05447  -3701115.57246  24287972.9434   24287975.5534   24287973.728
        45.0004         40.0004
 -12886005.79248  -9979538.78847  21518791.7264   21518793.5554   21518791.145
        51.0004         47.0004
 20 11  5  1 26 30.0000000  0  8G06G30G05G02G15G29G07G13
  -2798084.84946  -2124634.87846  24432416.0434   24432421.8644   24432417.037
        41.0004         36.0004
  -8281700.31547  -6412611.99447  23673212.9384   23673218.8354   23673214.305
        46.0004         42.0004
 -23759154.50149 -18454635.08149  20428884.3894   20428886.0704   20428884.335
        60.0004         56.0004
 -19511003.58449 -15158319.70048  21406145.0144   21406145.7894   21406145.887
        54.0004         49.0004
  -8384338.90348  -6476998.63647  23782123.1314   23782125.7764   23782124.107
        51.0004         46.0004
 -14178691.03849 -10994231.72548  22258532.9284   22258534.9094   22258532.831
        56.0004         51.0004
  -4780272.11647  -3701861.31446  24287791.6714   24287793.9244   24287791.414
        45.0004         40.0004
 -12966765.56548 -10042468.45847  21503422.4154   21503425.5114   21503423.407
        52.0004         47.0004
 20 11  5  1 27  0.0000000  0  8G06G30G05G02G15G29G07G13
  -2697089.00346  -2045936.86946  24451634.3304   24451641.1954   24451634.339
        41.0004         37.0004
  -8326986.88747  -6447900.19247  23664595.2044   23664601.9194   23664595.268
        46.0004         42.0004
 -23756068.85549 -18452230.68249  20429471.6124   20429473.1754   20429471.403
        60.0004         56.0004
 -19471163.68249 -15127275.63348  21413726.0994   21413726.9884   21413727.157
        54.0004         49.0004
  -8497330.77948  -6565044.22047  23760621.5504   23760624.3794   23760621.385
        51.0004         46.0004
 -14195740.56849 -11007517.07448  22255288.8614   22255290.2914   22255288.643
        56.0004         51.0004
  -4780729.46147  -3702217.67046  24287704.9094   24287706.7094   24287705.839
        45.0004         40.0004
 -13047090.05848 -10105058.95847  21488137.8044   21488140.1964   21488137.623
        52.0004         47.0004
 20 11  5  1 27 30.0000000  0  8G06G30G05G02G15G29G07G13
  -2595934.42846  -1967115.19846  24470885.2704   24470893.3154   24470883.653
        41.0004         37.0004
  -8371840.02547  -6482850.64946  23656059.8484   23656065.6694   23656059.717
        46.0004         41.0004
 -23752650.27249 -18449566.84349  20430122.0744   20430123.8614   20430122.072
        60.0004         56.0004
 -19430912.28649 -15095910.92048  21421386.1204   21421386.6504   21421386.706
        54.0004         49.0004
  -8610144.81948  -6652951.23347  23739153.7194   23739156.5964   23739151.749
        51.0004         46.0004
 -14212166.15349 -11020316.22648  22252163.1724   22252165.1004   22252163.282
        56.0004         51.0004
  -4780686.28447  -3702183.99846  24287713.3004   24287715.0324   24287712.858
        45.0004         41.0004
 -13126976.91948 -10167308.42447  21472935.9914   21472938.4254   21472935.736
        51.0004         47.0004
 20 11  5  1 28  0.0000000  0  8G06G30G05G02G15G29G07G13
  -2494622.57847  -1888170.95946  24490163.6474   24490171.1914   24490162.410
        42.0004         38.0004
  -8416257.64947  -6517461.73847  23647607.2724   23647612.2154   23647608.049
        46.0004         42.0004
 -23748898.77649 -18446643.59949  20430835.8954   20430837.6074   20430835.745
        60.0004         56.0004
 -19390249.25249 -15064225.45548  21429123.5844   21429124.5124   21429124.284
        54.0004         49.0004
  -8722779.02548  -6740718.11847  23717720.1764   23717723.2294   23717718.795
        51.0004         46.0004
 -14227967.20449 -11032628.73648  22249155.9734   22249158.1664   22249155.821
        56.0004         51.0004
  -4780141.99847  -3701759.84946  24287817.3264   24287818.6884   24287817.197
        46.0004         41.0004
 -13206424.38248 -10229215.51747  21457817.5674   21457819.6864   21457817.439
        52.0004         47.0004
 20 11  5  1 28 30.0000000  0  8G06G30G05G02G15G29G07G13
  -2393154.81847  -1809105.24546  24509473.1394   24509480.2334   24509472.405
        43.0004         38.0004
  -8460237.64247  -6551731.81246  23639237.4774   23639243.5134   23639236.953
        46.0004         41.0004
 -23744815.12649 -18443461.53149  20431612.9294   20431614.5844   20431612.578
        60.0004         56.0004
 -19349175.06349 -15032219.60448  21436939.6644   21436940.6894   21436940.560
        54.0004         49.0004
  -8835231.29248  -6828343.22747  23696320.5554   23696323.9954   23696319.147
        51.0004         46.0004
 -14243143.26049 -11044454.24248  22246268.6744   22246270.5284   22246269.454
        56.0004         52.0004
  -4779096.75847  -3700945.34546  24288016.1684   24288017.8984   24288016.741
        46.0004         41.0004
 -13285430.25248 -10290778.51747  21442783.5944   21442785.6044   21442783.536
        52.0004         47.0004
 20 11  5  1 29  0.0000000  0  8G06G30G05G02G15G29G07G13
  -2291532.44147  -1729919.03846  24528810.5524   24528817.6484   24528810.171
        43.0004         39.0004
  -8503777.83747  -6585659.18546  23630952.3654   23630958.0074   23630952.104
        46.0004         41.0004
 -23740399.36249 -18440020.67649  20432453.0124   20432454.9334   20432452.984
        60.0004         56.0004
 -19307689.85349 -14999893.48048  21444834.6304   21444835.4434   21444834.930
        54.0004         49.0004
  -8947499.96848  -6915825.27047  23674956.0734   23674959.8174   23674957.274
        51.0004         46.0004
 -14257693.49549 -11055792.09148  22243499.9284   22243501.3654   22243500.142
        56.0004         52.0004
  -4777550.05447  -3699740.05846  24288309.7784   24288313.2474   24288309.471
        46.0004         41.0004
 -13363992.46048 -10351995.80247  21427833.4644   21427835.8644   21427833.112
        52.0004         47.0004
 20 11  5  1 29 30.0000000  0  8G06G30G05G02G15G29G07G13
  -2189756.63147  -1650613.30446  24548178.2464   24548184.9564   24548176.905
        44.0004         39.0004
  -8546876.02547  -6619242.11046  23622751.9304   23622757.3944   23622751.580
        46.0004         41.0004
 -23735651.88649 -18436321.33849  20433356.4874   20433358.4544   20433356.001
        60.0004         56.0004
 -19265793.42349 -14967246.93048  21452807.1524   21452808.0444   21452807.450
        54.0004         49.0004
  -9059582.72248  -7003162.44747  23653627.9244   23653631.3014   23653627.910
        51.0004         46.0004
 -14271617.81749 -11066642.20648  22240850.1524   22240851.7934   22240850.073
        56.0004         51.0004
  -4775501.28747  -3698143.56446  24288699.5004   24288702.6234   24288700.086
        46.0004         41.0004
 -13442108.91548 -10412865.74047  21412968.2674   21412970.1574   21412967.920
        52.0004         47.0004
 20 11  5  1 30  0.0000000  0  8G06G30G05G02G15G29G07G13
  -2087829.09347  -1571189.30246  24567573.6294   24567580.9124   24567573.986
        44.0004         39.0004
  -8589530.40047  -6652479.21547  23614635.0454   23614640.4294   23614635.803
        46.0004         42.0004
 -23730573.19449 -18432363.91149  20434322.8874   20434324.7084   20434322.480
        60.0004         56.0004
 -19223486.13848 -14934280.22648  21460857.7844   21460858.6264   21460858.581
        53.0004         49.0004
  -9171477.55848  -7090353.19147  23632335.0684   23632338.4154   23632334.577
        51.0004         46.0004
 -14284915.88249 -11077004.33648  22238319.3454   22238321.2934   22238319.061
        56.0004         51.0004
  -4772950.27947  -3696155.72146  24289184.3094   24289188.8044   24289184.492
        46.0004         41.0004
 -13519777.73548 -10473386.88947  21398188.1214   21398190.9314   21398188.218
        52.0004         47.0004
 20 11  5  1 30 30.0000000  0  8G06G30G05G02G15G29G07G13
  -1985750.93747  -1491647.96346  24586999.1594   24587005.7924   24586998.117
        44.0004         39.0004
  -8631738.68747  -6685368.71347  23606602.1664   23606608.2074   23606602.583
        47.0004         42.0004
 -23725163.27349 -18428148.38449  20435352.2404   20435354.2834   20435351.825
        60.0004         56.0004
 -19180768.01548 -14900993.39348  21468986.6244   21468987.3634   21468987.604
        53.0004         49.0004
  -9283182.44948  -7177395.94647  23611079.0584   23611081.8604   23611078.468
        51.0004         46.0004
 -14297586.90049 -11086877.86448  22235908.2024   22235910.1294   22235908.252
        56.0004         51.0004
  -4769896.61047  -3693776.21846  24289765.6274   24289770.0774   24289765.359
        46.0004         41.0004
 -13596997.00048 -10533557.72647  21383494.0254   21383496.8194   21383494.334
        52.0004         47.0004
 20 11  5  1 31  0.0000000  0  8G06G30G05G02G15G29G07G13
  -1883523.56047  -1411990.37346  24606452.5294   24606460.1214   24606451.777
        44.0004         40.0004
  -8673498.87847  -6717909.07247  23598655.5034   23598661.4314   23598655.574
        47.0004         42.0004
 -23719422.80049 -18423675.28049  20436444.7164   20436446.7774   20436444.706
        60.0004         56.0004
 -19137639.26748 -14867386.58748  21477193.9124   21477194.6124   21477194.549
        53.0004         49.0004
  -9394695.24848  -7264288.99947  23589857.7434   23589861.3414   23589857.064
        51.0004         46.0004
 -14309630.86449 -11096262.77348  22233616.0344   22233618.1324   22233616.207
        56.0004         51.0004
  -4766340.40647  -3691005.11946  24290442.3804   24290445.5254   24290442.512
        46.0004         41.0004
 -13673764.99748 -10593376.92947  21368885.4994   21368887.6614   21368884.913
        52.0004         47.0004
 20 11  5  1 31 30.0000000  0  8G06G30G05G02G15G29G07G13
  -1781148.41747  -1332217.61846  24625933.8854   24625940.7314   24625933.254
        44.0004         40.0004
  -8714808.91747  -6750098.64947  23590794.9824   23590800.3714   23590794.818
        47.0004         42.0004
 -23713352.11349 -18418944.86449  20437600.0904   20437601.9254   20437599.967
        60.0004         56.0004
 -19094100.21748 -14833460.07148  21485479.1004   21485480.0964   21485479.706
        53.0004         49.0004
  -9506013.86648  -7351030.74047  23568675.1574   23568678.0874   23568674.323
        51.0004         46.0004
 -14321047.09549 -11105158.53648  22231443.9144   22231445.9194   22231443.970
        56.0004         52.0004
  -4762281.06747  -3687841.98046  24291215.4064   24291217.0954   24291216.237
        45.0004         41.0004
 -13750079.36048 -10652842.65447  21354363.7104   21354366.1954   21354363.939
        52.0004         47.0004
 20 11  5  1 32  0.0000000  0  8G06G30G05G02G15G29G07G13
  -1678626.79347  -1252330.74546  24645443.3364   24645450.0334   24645442.656
        44.0004         39.0004
  -8755666.79247  -6781935.89547  23583019.4674   23583024.3794   23583020.621
        46.0004         42.0004
 -23706951.40049 -18413957.28949  20438818.1954   20438819.9344   20438818.051
        60.0004         56.0004
 -19050150.76548 -14799213.75948  21493842.3244   21493843.3274   21493842.597
        53.0004         49.0004
  -9617136.37448  -7437619.68347  23547529.2154   23547532.2464   23547527.604
        51.0004         46.0004
 -14331835.43849 -11113565.04548  22229390.5434   22229392.6944   22229390.987
        56.0004         52.0004
  -4757718.31647  -3684286.56646  24292084.0604   24292086.7684   24292082.724
        45.0004         40.0004
 -13825938.35348 -10711953.53647  21339927.5984   21339929.9354   21339927.608
        52.0004         47.0004
 20 11  5  1 32 30.0000000  0  8G06G30G05G02G15G29G07G13
  -1575960.06347  -1172330.80046  24664980.4224   24664986.8984   24664980.052
        43.0004         38.0004
  -8796070.42647  -6813419.19746  23575331.0374   23575336.2054   23575331.824
        46.0004         41.0004
 -23700221.15449 -18408712.93649  20440098.8694   20440100.7404   20440098.698
        60.0004         56.0004
 -19005791.16848 -14764647.84948  21502283.6334   21502284.8694   21502284.228
        53.0004         49.0004
  -9728060.41348  -7524053.95447  23526421.2104   23526424.0524   23526421.232
        51.0004         47.0004
 -14341995.58149 -11121482.04348  22227457.4564   22227459.6094   22227457.640
        56.0004         52.0004
  -4752651.86547  -3680338.65846  24293047.6774   24293049.4664   24293047.813
        45.0004         41.0004
 -13901339.93748 -10770708.00447  21325579.8084   21325581.3634   21325579.599
        52.0004         47.0004
 20 11  5  1 33  0.0000000  0  8G06G30G05G02G15G29G07G13
  -1473149.58347  -1092218.84646  24684545.4384   24684550.6314   24684542.770
        43.0004         38.0004
  -8836017.86647  -6844547.02746  23567727.9734   23567734.6614   23567728.888
        46.0004         41.0004
 -23693161.72649 -18403212.07649  20441442.0154   20441444.1254   20441441.923
        60.0004         56.0004
 -18961021.88948 -14729762.71348  21510803.0504   21510803.7034   21510803.543
        53.0004         49.0004
  -9838784.99448  -7610332.80847  23505350.8004   23505353.7974   23505350.841
        51.0004         47.0004
 -14351527.24549 -11128909.31548  22225643.5454   22225646.0224   22225643.181
        56.0004         52.0004
  -4747081.59047  -3675998.15346  24294107.6004   24294110.8884   24294107.246
        46.0004         41.0004
 -13976282.36648 -10829104.68447  21311318.3894   21311320.3004   21311318.615
        52.0004         47.0004
 20 11  5  1 33 30.0000000  0  8G06G30G05G02G15G29G07G13
  -1370196.93547  -1011996.13846  24704136.6014   24704140.7514   24704134.438
        43.0004         38.0004
  -8875507.21647  -6875317.90047  23560214.5324   23560219.1654   23560214.417
        46.0004         42.0004
 -23685773.65349 -18397455.12949  20442848.1334   20442850.1774   20442848.096
        60.0004         56.0004
 -18915842.99648 -14694558.39348  21519400.3584   21519401.1394   21519401.318
        53.0004         49.0004
  -9949307.31348  -7696454.05447  23484319.7144   23484322.3714   23484319.259
        51.0004         47.0004
 -14360429.93049 -11135846.47848  22223949.4314   22223951.8564   22223949.161
        56.0004         52.0004
  -4741006.89147  -3671264.60546  24295263.3684   24295265.6324   24295264.062
        46.0004         41.0004
 -14050763.87548 -10887142.20747  21297145.4264   21297147.0114   21297144.731
        52.0004         47.0004
 20 11  5  1 34  0.0000000  0  8G06G30G05G02G15G29G07G13
  -1267103.29547   -931663.54846  24723754.4794   24723759.6364   24723753.779
        42.0004         37.0004
  -8914536.40947  -6905730.19747  23552787.8554   23552793.4904   23552787.819
        46.0004         42.0004
 -23678056.85749 -18391442.03949  20444316.3764   20444318.7234   20444316.268
        60.0004         56.0004
 -18870254.79348 -14659035.13248  21528075.2644   21528076.3274   21528076.033
        53.0004         49.0004
 -10059625.48848  -7782416.21347  23463326.8104   23463329.6154   23463326.588
        51.0004         47.0004
 -14368703.83049 -11142293.68548  22222374.9314   22222377.1374   22222374.840
        56.0004         52.0004
  -4734427.60447  -3666137.87146  24296514.9954   24296518.5564   24296515.570
        46.0004         41.0004
 -14124782.41048 -10944818.96748  21283059.7674   21283062.3274   21283059.824
        52.0004         48.0004
 20 11  5  1 34 30.0000000  0  8G06G30G05G02G15G29G07G13
  -1163870.09047   -851222.26946  24743397.8344   24743405.7944   24743397.642
        42.0004         37.0004
  -8953103.50147  -6935782.42746  23545447.5544   23545454.5294   23545448.025
        46.0004         41.0004
 -23670011.78549 -18385173.14849  20445847.4634   20445849.5434   20445847.295
        60.0004         56.0004
 -18824257.41548 -14623193.02648  21536828.2944   21536829.7014   21536829.129
        53.0004         49.0004
 -10169737.49448  -7868217.73847  23442372.5964   23442375.6444   23442372.242
        52.0004         47.0004
 -14376348.62549 -11148250.67748  22220919.9974   22220922.7594   22220920.003
        56.0004         52.0004
  -4727344.19747  -3660618.32646  24297863.8734   24297865.0344   24297863.274
        46.0004         41.0004
 -14198335.88448 -11002133.34748  21269062.8684   21269065.4074   21269063.175
        52.0004         48.0004
 20 11  5  1 35  0.0000000  0  8G06G30G05G02G15G29G07G13
  -1060498.84847   -770673.36446  24763070.3344   24763078.3174   24763067.103
        42.0004         37.0004
  -8991206.56447  -6965473.08646  23538196.5604   23538202.4734   23538197.538
        46.0004         41.0004
 -23661638.96149 -18378648.86749  20447440.5024   20447442.7974   20447440.226
        60.0004         56.0004
 -18777851.29348 -14587032.42148  21545659.2184   21545660.2764   21545659.703
        53.0004         49.0004
 -10279641.20248  -7953856.94347  23421459.0564   23421461.5364   23421458.150
        52.0004         47.0004
 -14383363.90549 -11153717.13248  22219585.0224   22219587.8834   22219585.149
        56.0004         52.0004
  -4719756.46047  -3654705.81546  24299307.3904   24299310.1844   24299305.909
        46.0004         41.0004
 -14271422.64948 -11059084.05848  21255154.5584   21255157.2864   21255155.261
        52.0004         48.0004
 20 11  5  1 35 30.0000000  0  8G06G30G05G02G15G29G07G13
   -956990.94947   -690017.98146  24782766.6174   24782773.6314   24782765.144
        42.0004         37.0004
  -9028843.75247  -6994800.72047  23531035.6824   23531041.6344   23531036.174
        46.0004         42.0004
 -23652938.63649 -18371869.38949  20449096.1654   20449098.4944   20449095.945
        60.0004         56.0004
 -18731036.62448 -14550553.47048  21554567.8624   21554568.6004   21554568.690
        53.0004         49.0004
 -10389334.93048  -8039332.53648  23400584.9144   23400587.7734   23400584.391
        52.0004         48.0004
 -14389749.81649 -11158693.17848  22218369.6244   22218372.3884   22218369.730
        56.0004         52.0004
  -4711663.95447  -3648399.97746  24300846.5474   24300849.3644   24300846.344
        46.0004         41.0004
 -14344040.65948 -11115669.50648  21241335.9194   21241338.4304   21241336.147
        52.0004         48.0004
 20 11  5  1 36  0.0000000  0  8G06G30G05G02G15G29G07G13
   -853347.70947   -609257.18646  24802490.1854   24802496.3724   24802488.127
        42.0004         37.0004
  -9066013.10547  -7023763.81047  23523962.1224   23523967.9164   23523962.539
        46.0004         42.0004
 -23643911.14749 -18364834.98049  20450813.9464   20450816.1814   20450813.450
        60.0004         56.0004
 -18683813.65148 -14513756.36348  21563554.0094   21563555.0764   21563554.856
        53.0004         49.0004
 -10498816.46248  -8124642.77148  23379750.9994   23379754.4144   23379750.049
        52.0004         48.0004
 -14395506.10649 -11163178.60648  22217273.9174   22217276.9434   22217273.910
        56.0004         52.0004
  -4703066.72047  -3641700.84046  24302483.3594   24302485.9184   24302481.935
        46.0004         41.0004
 -14416188.64048 -11171888.70048  21227606.6264   21227608.9074   21227606.565
        52.0004         48.0004
 20 11  5  1 36 30.0000000  0  8G06G30G05G02G15G29G07G13
   -749570.60147   -528392.08546  24822236.7474   24822243.9734   24822237.516
        42.0004         37.0004
  -9102712.73747  -7052360.88546  23516979.0044   23516983.3844   23516978.666
        46.0004         41.0004
 -23634556.88449 -18357545.93949  20452594.0294   20452596.2284   20452593.989
        60.0004         56.0004
 -18636183.05548 -14476641.62248  21572617.6164   21572618.8464   21572618.405
        53.0004         48.0004
 -10608083.67048  -8209786.01348  23358958.1354   23358961.0104   23358958.581
        53.0004         48.0004
 -14400632.44749 -11167173.16848  22216298.6104   22216301.0964   22216298.064
        56.0004         51.0004
  -4693964.58547  -3634608.30447  24304214.2144   24304216.8014   24304214.783
        46.0004         42.0004
 -14487864.37848 -11227739.90848  21213967.1304   21213969.2244   21213967.895
        52.0004         48.0004
 20 11  5  1 37  0.0000000  0  8G06G30G05G02G15G29G07G13
   -645661.02647   -447423.72646  24842008.5534   24842017.4554   24842010.514
        42.0004         37.0004
  -9138940.83347  -7080590.51846  23510084.8094   23510089.9924   23510085.114
        46.0004         41.0004
 -23624876.28349 -18350002.61149  20454436.1984   20454438.4584   20454436.213
        60.0004         56.0004
 -18588144.85848 -14439209.26448  21581759.0974   21581759.7594   21581759.861
        53.0004         48.0004
 -10717134.74948  -8294760.84347  23338206.5444   23338209.2784   23338206.166
        52.0004         47.0004
 -14405129.13749 -11170677.09848  22215442.9924   22215445.7994   22215443.382
        56.0004         52.0004
                  -3627122.16746                  24306040.4604   24306043.927
                        40.0004
 -14559066.28648 -11283221.89548  21200417.6894   21200420.0544   21200417.931
        52.0004         48.0004
 20 11  5  1 37 30.0000000  0  8G06G30G05G02G15G29G07G13
   -541620.41846   -366353.27946  24861809.0834   24861815.3334   24861809.418
        41.0004         36.0004
  -9174695.52847  -7108451.26846  23503280.3594   23503285.8784   23503280.578
        46.0004         41.0004
 -23614869.84749 -18342205.38449  20456340.3604   20456342.4434   20456340.146
        60.0004         56.0004
 -18539699.36848 -14401459.54648  21590978.1184   21590979.4914   21590978.479
        53.0004         48.0004
 -10825967.59848  -8379565.62947  23317496.2494   23317499.1244   23317495.359
        52.0004         47.0004
 -14408996.30249 -11173690.47648  22214707.5364   22214709.8634   22214707.406
        56.0004         52.0004
  -4674244.92647  -3619242.40647  24307968.4914   24307970.6784   24307968.984
        46.0004         42.0004
 -14629792.56548 -11338333.26348  21186959.2214   21186961.2424   21186959.364
        52.0004         48.0004
 20 11  5  1 38  0.0000000  0  8G06G30G05G02G15G29G07G13
   -437450.19646   -285181.82646  24881631.6804   24881639.2244   24881631.489
        41.0004         36.0004
  -9209974.98447  -7135941.70147  23496566.7524   23496572.5584   23496567.014
        46.0004         42.0004
 -23604537.41549 -18334154.13249  20458306.6834   20458308.7004   20458306.248
        60.0004         56.0004
 -18490846.95048 -14363392.73248  21600274.7154   21600275.1734   21600275.392
        53.0004         48.0004
 -10934580.40548  -8464198.92847  23296827.9614   23296830.3724   23296828.522
        52.0004         47.0004
 -14412233.54249 -11176213.01048  22214091.8244   22214093.3974   22214092.164
        56.0004         52.0004
  -4663627.82847  -3610969.37947  24309988.8564   24309991.0714   24309988.612
        46.0004         42.0004
 -14700041.41448 -11393072.60448  21173591.5364   21173593.4344   21173591.601
        52.0004         48.0004
 20 11  5  1 38 30.0000000  0  8G06G30G05G02G15G29G07G13
   -333151.83346   -203910.55946  24901480.1644   24901486.9694   24901480.124
        41.0004         37.0004
  -9244777.43047  -7163060.46747  23489944.3574   23489949.9674   23489944.562
        46.0004         42.0004
 -23593879.75749 -18325849.46249  20460334.6564   20460336.8424   20460334.389
        60.0004         56.0004
 -18441588.18948 -14325009.29448  21609647.9764   21609649.1694   21609648.451
        53.0004         48.0004
 -11042971.24648  -8548659.30247  23276201.2704   23276204.0134   23276200.946
        52.0004         47.0004
 -14414841.21749 -11178244.96848  22213595.4644   22213597.1544   22213595.484
        56.0004         52.0004
  -4652505.14247  -3602302.38447  24312105.7224   24312107.3154   24312105.840
        46.0004         42.0004
 -14769811.14548 -11447438.60748  21160314.3594   21160316.9574   21160314.799
        53.0004         48.0004
 20 11  5  1 39  0.0000000  0  9G06G30G05G02G15G29G07G18G13
   -228726.70947   -122540.53446  24921352.5774   24921358.9794   24921352.027
        42.0004         37.0004
  -9279101.03447  -7189806.10447  23483412.9174   23483417.6214   23483412.497
        46.0004         42.0004
 -23582897.32549 -18317291.72249  20462424.6954   20462426.5554   20462424.149
        60.0004         56.0004
 -18391923.39748 -14286309.46648  21619098.5704   21619099.9394   21619099.135
        53.0004         48.0004
 -11151138.06048  -8632945.10747  23255618.0654   23255620.6964   23255617.455
        52.0004         47.0004
 -14416819.67149 -11179786.62548  22213218.5204   22213221.2074   22213218.446
        56.0004         51.0004
  -4640878.19047  -3593242.44147  24314318.3184   24314320.6574   24314317.932
        46.0004         42.0004
   -308659.54447   -185718.68646  25093443.6684   25093446.6954   25093444.680
        47.0004         36.0004
 -14839099.99048 -11501429.89148  21147129.5794   21147131.5584   21147129.606
        53.0004         48.0004
 20 11  5  1 39 30.0000000  0  9G06G30G05G02G15G29G07G18G13
   -124176.27446    -41072.85146  24941246.8424   24941254.3284   24941246.028
        41.0004         37.0004
  -9312944.03947  -7216177.24347  23476972.9894   23476977.4944   23476972.371
        47.0004         42.0004
 -23571589.85449 -18308480.70149  20464576.1774   20464578.3734   20464576.071
        60.0004         56.0004
 -18341852.78948 -14247293.42448  21628626.9374   21628628.0694   21628627.450
        53.0004         48.0004
 -11259078.96048  -8717054.86448  23235077.6214   23235080.2964   23235077.639
        52.0004         48.0004
 -14418168.28049 -11180837.51248  22212962.2874   22212964.3294   22212962.595
        56.0004         52.0004
  -4628746.49447  -3583789.18346  24316626.2534   24316629.4084   24316626.156
        46.0004         41.0004
   -414019.02047   -267816.93546  25073394.5234   25073397.1834   25073393.667
        43.0004         36.0004
 -14907905.99448 -11555044.93548  21134036.1764   21134038.4544   21134036.648
        53.0004         48.0004
 20 11  5  1 40  0.0000000  0  9G06G30G05G02G15G29G07G18G13
    -19501.97146     40491.33846  24961165.8174   24961174.0774   24961165.211
        41.0004         37.0004
  -9346304.66447  -7242172.50847  23470624.2664   23470630.0644   23470623.536
        47.0004         42.0004
 -23559958.24649 -18299417.11049  20466789.8784   20466791.7584   20466789.512
        60.0004         56.0004
 -18291377.02848 -14207961.67448  21638231.9804   21638233.3654   21638232.957
        53.0004         48.0004
 -11366792.14148  -8800987.16047  23214580.3444   23214583.4394   23214579.994
        52.0004         47.0004
 -14418887.34449 -11181397.83048  22212825.0934   22212827.2594   22212825.728
        56.0004         52.0004
  -4616109.83747  -3573942.44346  24319030.9664   24319033.3094   24319031.266
        46.0004         41.0004
   -519361.48147   -349901.90846  25053346.7034   25053351.9244   25053346.486
        42.0004         36.0004
 -14976227.68048 -11608282.59048  21121035.0654   21121037.2464   21121034.946
        53.0004         48.0004
 20 11  5  1 40 30.0000000  0  9G06G30G05G02G15G29G07G18G13
     85294.68047    122150.85146  24981107.6524   24981115.2644   24981107.324
        42.0004         37.0004
  -9379181.26147  -7267790.61647  23464368.3744   23464373.8724   23464368.192
        47.0004         42.0004
 -23548003.04949 -18290101.36949  20469064.7654   20469066.6274   20469064.740
        60.0004         56.0004
 -18240496.35548 -14168314.41348  21647914.5344   21647915.0824   21647915.648
        53.0004         48.0004
 -11474274.71448  -8884739.78848  23194127.2584   23194129.6374   23194126.704
        52.0004         48.0004
 -14418977.23949 -11181467.88448  22212808.3324   22212810.3224   22212808.242
        56.0004         52.0004
  -4602968.16947  -3563702.21446  24321531.5834   24321533.7874   24321530.807
        46.0004         41.0004
   -624685.27546   -431972.35246  25033304.9714   25033307.7184   25033304.380
        41.0004         36.0004
 -15044063.65748 -11661141.76648  21108126.0544   21108127.9714   21108126.023
        53.0004         48.0004
 20 11  5  1 41  0.0000000  0  9G06G30G05G02G15G29G07G18G13
    190212.39346    203904.69246  25001074.6634   25001081.6154   25001074.558
        41.0004         37.0004
  -9411571.99447  -7293030.13747  23458205.2164   23458210.7994   23458204.948
        47.0004         43.0004
 -23535724.42649 -18280533.60649  20471401.5444   20471403.2634   20471401.623
        60.0004         56.0004
 -18189211.12348 -14128351.90348  21657674.2554   21657674.9874   21657674.705
        53.0004         48.0004
 -11581525.34748  -8968311.66748  23173718.1644   23173721.2944   23173717.870
        52.0004         48.0004
 -14418437.99649 -11181047.70348  22212911.0594   22212912.9364   22212911.526
        56.0004         52.0004
  -4589321.70347  -3553068.62046  24324127.7534   24324130.8774   24324128.469
        45.0004         41.0004
   -729988.59046   -514026.85046  25013267.0034   25013270.2954   25013266.511
        41.0004         36.0004
 -15111411.85648 -11713620.85748  21095310.5264   21095312.2834   21095310.395
        53.0004         48.0004
 20 11  5  1 41 30.0000000  0  9G06G30G05G02G15G29G07G18G13
    295249.57247    285751.63846  25021061.7874   25021069.8184   25021062.266
        42.0004         37.0004
  -9443475.24747  -7317889.78447  23452133.7974   23452138.1984   23452134.224
        47.0004         42.0004
 -23523122.38349 -18270713.83049  20473799.5814   20473801.5224   20473799.466
        60.0004         56.0004
 -18137522.04748 -14088074.71148  21667509.8324   21667511.1874   21667510.381
        53.0004         48.0004
 -11688542.42148  -9051701.55948  23153353.2874   23153356.8624   23153352.320
        53.0004         48.0004
 -14417269.77449 -11180137.40748  22213132.9674   22213135.8254   22213132.796
        56.0004         52.0004
  -4575170.84047  -3542041.99046  24326821.4824   24326823.6804   24326820.035
        45.0004         40.0004
   -835269.79746   -596064.10346  24993232.0164   24993235.3314   24993232.070
        41.0004         36.0004
 -15178270.78648 -11765718.70648  21082587.3784   21082589.2014   21082587.543
        53.0004         48.0004
 20 11  5  1 42  0.0000000  0  9G06G30G05G02G15G29G07G18G13
    400404.77147    367690.53746  25041071.4204   25041079.1584   25041072.277
        42.0004         37.0004
  -9474889.32647  -7342368.26547  23446155.8234   23446161.5794   23446155.262
        47.0004         42.0004
 -23510197.60249 -18260642.57049  20476258.9914   20476261.1074   20476258.631
        60.0004         56.0004
 -18085429.41148 -14047483.06148  21677423.0324   21677424.1264   21677423.517
        53.0004         48.0004
 -11795323.51148  -9134907.58048  23133033.5044   23133036.6524   23133033.024
        53.0004         48.0004
 -14415472.90849 -11178737.25948  22213474.8914   22213477.4724   22213475.077
        56.0004         52.0004
  -4560515.53047  -3530622.26846  24329608.7154   24329612.3724   24329609.624
        45.0004         41.0004
   -940527.21646   -678082.85246  24973203.7614   24973203.3844   24973201.866
        41.0004         36.0004
 -15244638.95748 -11817434.14548  21069957.8294   21069959.9094   21069957.740
        53.0004         48.0004
 20 11  5  1 42 30.0000000  0  9G06G30G05G02G15G29G07G18G13
    505676.62546    449720.33346  25061103.4784   25061112.5414   25061102.942
        41.0004         37.0004
  -9505812.50847  -7366464.23247  23440270.7414   23440276.1934   23440270.948
        47.0004         42.0004
 -23496950.22449 -18250319.93249  20478780.1744   20478781.9844   20478779.963
        60.0004         56.0004
 -18032933.74048 -14006577.35748  21687412.4904   21687413.5584   21687412.589
        53.0004         48.0004
 -11901866.73348  -9217928.23848  23112759.0734   23112762.2274   23112758.872
        53.0004         48.0004
 -14413047.41049 -11176847.27648  22213936.6534   22213938.9284   22213936.209
        56.0004         51.0004
  -4545355.74647  -3518809.46546  24332494.1294   24332496.8464   24332493.497
        45.0004         40.0004
  -1045758.96946   -760081.57546  24953178.3124   24953179.4394   24953175.549
        41.0004         36.0004
 -15310514.47148 -11868765.69648  21057422.7504   21057424.4494   21057422.262
        53.0004         48.0004
 20 11  5  1 43  0.0000000  0  9G06G30G05G02G15G29G07G18G13
    611063.61546    531839.83246  25081159.8834   25081167.5954   25081157.535
        41.0004         37.0004
  -9536243.22847  -7390176.46547  23434480.1684   23434485.4624   23434479.634
        47.0004         42.0004
 -23483380.86949 -18239746.40549  20481362.2054   20481364.0454   20481362.058
        60.0004         56.0004
 -17980035.51548 -13965357.97148  21697479.0084   21697479.4524   21697479.911
        53.0004         48.0004
 -12008170.12848  -9300762.01548  23092529.8764   23092533.0304   23092529.478
        53.0004         48.0004
 -14409993.58149 -11174467.68148  22214517.9864   22214519.8954   22214518.277
        56.0004         52.0004
  -4529691.81747  -3506603.79246  24335473.8984   24335478.0904   24335475.629
        45.0004         40.0004
  -1150963.33446   -842058.94846  24933156.6424   24933158.1294   24933155.787
        41.0004         36.0004
 -15375896.01548 -11919712.33148  21044980.4994   21044982.1884   21044980.288
        53.0004         48.0004
 20 11  5  1 43 30.0000000  0  9G06G30G05G02G15G29G07G18G13
    716564.21446    614047.86446  25101234.8884   25101242.6654   25101234.822
        41.0004         36.0004
  -9566179.85447  -7413503.68847  23428783.8394   23428788.2304   23428784.061
        47.0004         42.0004
 -23469489.80549 -18228922.20149  20484005.5484   20484007.4274   20484005.695
        60.0004         56.0004
 -17926735.16448 -13923825.23348  21707621.5544   21707622.4034   21707622.298
        53.0004         48.0004
 -12114231.85748  -9383407.50048  23072347.3854   23072349.9714   23072347.549
        53.0004         48.0004
 -14406311.86149 -11171598.81348  22215218.3464   22215220.9654   22215218.896
        56.0004         52.0004
  -4513524.02247  -3494005.53446  24338552.4024   24338553.6784   24338553.618
        45.0004         40.0004
  -1256138.57246   -924013.65445  24913141.2684   24913145.2994   24913142.077
        40.0004         35.0004
 -15440782.00048 -11970272.82248  21032633.0724   21032635.0954   21032633.314
        53.0004         48.0004
 20 11  5  1 44  0.0000000  0  9G06G30G05G02G15G29G07G18G13
    822177.08246    696343.41446  25121335.4814   25121339.1264   25121333.603
        41.0004         36.0004
  -9595620.73147  -7436444.61147  23423181.3084   23423186.7994   23423181.405
        47.0004         42.0004
 -23455277.60749 -18217847.75549  20486709.8714   20486711.9874   20486709.687
        60.0004         56.0004
 -17873033.56448 -13881979.83948  21717840.8414   21717841.5074   21717841.473
        53.0004         48.0004
 -12220049.80948  -9465863.00248  23052210.1454   23052212.7764   23052209.908
        53.0004         48.0004
 -14402002.53049 -11168240.90448  22216038.4184   22216040.9594   22216038.026
        56.0004         52.0004
  -4496852.86347  -3481015.00746  24341725.2274   24341727.5404   24341724.861
        45.0004         40.0004
  -1361282.94446  -1005944.27945  24893131.3214   24893136.7704   24893132.859
        40.0004         35.0004
 -15505170.56348 -12020445.70548  21020379.9734   21020382.1284   21020379.922
        53.0004         48.0004
 20 11  5  1 44 30.0000000  0  8G30G05G02G15G29G07G18G13
  -9624564.27347  -7458998.00447  23417672.8914   23417678.2264   23417673.111
        47.0004         42.0004
 -23440744.40749 -18206523.18449  20489475.4694   20489477.5884   20489475.511
        60.0004         56.0004
 -17818930.81848 -13839821.86348  21728135.5874   21728136.5994   21728136.808
        53.0004         48.0004
 -12325622.34048  -9548127.30848  23032120.9554   23032123.2684   23032121.395
        53.0004         48.0004
 -14397066.30549 -11164394.51548  22216978.0654   22216980.0264   22216977.869
        56.0004         52.0004
  -4479678.26347  -3467632.19746  24344992.7074   24344995.4384   24344992.350
        45.0004         41.0004
  -1466394.54746  -1087849.40145  24873131.2124   24873135.1104   24873131.280
        40.0004         35.0004
 -15569060.28148 -12070229.88948  21008222.6604   21008224.6584   21008222.403
        53.0004         48.0004
 20 11  5  1 45  0.0000000  0  9G06G30G05G02G15G29G07G18G13
   1033733.58246    861192.26045  25161592.1604   25161600.4904   25161593.192
        40.0004         35.0004
  -9653008.95247  -7481162.65347  23412260.6054   23412266.4184   23412261.189
        47.0004         43.0004
 -23425890.51249 -18194948.72249  20492302.0904   20492303.9774   20492302.136
        60.0004         56.0004
 -17764427.76948 -13797351.96948  21738507.7204   21738508.0544   21738507.843
        53.0004         48.0004
 -12430947.44748  -9630198.78548  23012078.4644   23012081.0574   23012077.726
        53.0004         48.0004
 -14391503.13449 -11160059.58948  22218036.8044   22218038.8664   22218036.582
        56.0004         52.0004
  -4462000.37747  -3453857.20846  24348356.8114   24348359.1714   24348356.699
        45.0004         41.0004
  -1571471.62746  -1169727.62945  24853135.9084   24853139.2304   24853135.139
        40.0004         35.0004
 -15632449.79248 -12119624.29048  20996159.8004   20996162.0804   20996160.178
        53.0004         48.0004
 20 11  5  1 45 30.0000000  0  8G30G05G02G15G29G07G18G13
  -9680953.17147  -7502937.34247  23406943.0964   23406947.9544   23406942.485
        47.0004         43.0004
 -23410716.25649 -18183124.62749  20495189.7724   20495191.6824   20495189.801
        60.0004         56.0004
 -17709524.83048 -13754570.46648  21748955.0204   21748956.5004   21748956.265
        53.0004         48.0004
 -12536023.34548  -9712076.06948  22992082.9564   22992085.3614   22992082.751
        53.0004         48.0004
 -14385313.54449 -11155236.53448  22219214.8154   22219216.8514   22219214.785
        56.0004         52.0004
  -4443819.38947  -3439690.17946  24351816.5324   24351820.5204   24351816.185
        45.0004         41.0004
  -1676512.41646  -1251577.58046  24833144.9424   24833152.7074   24833147.062
        40.0004         36.0004
 -15695337.65148 -12168627.80748  20984192.8014   20984194.6634   20984192.262
        53.0004         48.0004
 20 11  5  1 46  0.0000000  0  8G30G05G02G15G29G07G18G13
  -9708395.43648  -7524320.90047  23401720.5534   23401726.7244   23401721.078
        48.0004         43.0004
 -23395222.34649 -18171051.45049  20498138.0954   20498140.1444   20498138.064
        60.0004         56.0004
 -17654222.51148 -13711477.76348  21759479.1964   21759480.4274   21759479.250
        53.0004         48.0004
 -12640847.57948  -9793757.25648  22972135.3474   22972138.2964   22972135.200
        53.0004         48.0004
 -14378498.06449 -11149925.78148  22220511.6514   22220513.5924   22220512.537
        56.0004         52.0004
  -4425136.16347  -3425131.81246  24355372.0024   24355374.1104   24355370.380
        45.0004         41.0004
  -1781515.10046  -1333397.85846  24813164.6594   24813167.9194   24813166.661
        41.0004         36.0004
 -15757722.24048 -12217239.15348  20972321.1744   20972323.4144   20972321.298
        53.0004         49.0004
 20 11  5  1 46 30.0000000  0  8G30G05G02G15G29G07G18G13
  -9735334.29547  -7545312.19447  23396594.5454   23396599.9134   23396595.204
        47.0004         43.0004
 -23379408.85749 -18158729.24449  20501147.3734   20501149.0064   20501147.564
        60.0004         56.0004
 -17598521.58948 -13668074.46148  21770077.9664   21770079.3924   21770078.922
        53.0004         48.0004
 -12745418.74348  -9875241.23448  22952236.1934   22952239.0834   22952236.322
        53.0004         49.0004
 -14371057.17549 -11144127.70448  22221927.2994   22221929.2124   22221926.554
        56.0004         51.0004
  -4405950.71447  -3410182.07246  24359022.8164   24359025.7064   24359022.571
        45.0004         40.0004
  -1886477.86046  -1415186.99346  24793190.7754   24793194.3884   24793191.273
        41.0004         36.0004
 -15819602.08248 -12265457.19948  20960546.1064   20960547.8174   20960545.954
        53.0004         49.0004
 20 11  5  1 47  0.0000000  0  8G30G05G02G15G29G07G18G13
  -9761768.20047  -7565910.01547  23391564.2554   23391569.3194   23391564.309
        47.0004         43.0004
 -23363276.18349 -18146158.32949  20504217.4374   20504219.0274   20504217.431
        60.0004         56.0004
 -17542422.62248 -13624360.99648  21780753.7164   21780754.6264   21780754.122
        53.0004         48.0004
 -12849734.68348  -9956526.34948  22932385.7054   22932388.3254   22932385.860
        53.0004         49.0004
 -14362991.28549 -11137842.60248  22223462.3354   22223464.3454   22223462.369
        56.0004         51.0004
  -4386263.33147  -3394841.27546  24362768.6384   24362770.8674   24362769.472
        45.0004         40.0004
  -1991398.89446  -1496943.60846  24773225.6604   24773228.2804   24773224.894
        41.0004         36.0004
 -15880975.78348 -12313280.84448  20948867.2744   20948869.1444   20948866.851
        53.0004         49.0004
 20 11  5  1 47 30.0000000  0  8G30G05G02G15G29G07G18G13
  -9787695.69447  -7586113.21547  23386630.7204   23386636.4104   23386630.586
        47.0004         43.0004
 -23346825.06949 -18133339.27549  20507347.7234   20507349.5634   20507347.389
        60.0004         56.0004
 -17485926.06648 -13580337.71548  21791504.6534   21791505.2264   21791504.940
        52.0004         48.0004
 -12953793.62348 -10037611.20748  22912583.4124   22912586.1504   22912583.008
        53.0004         49.0004
 -14354300.88049 -11131070.86448  22225116.2054   22225118.0354   22225116.688
        56.0004         52.0004
  -4366074.62347  -3379109.81646  24366609.6554   24366613.5534   24366610.085
        45.0004         40.0004
  -2096276.23846  -1578666.18946  24753267.7104   24753272.2864   24753265.283
        41.0004         37.0004
 -15941841.73148 -12360708.83748  20937284.1404   20937286.4844   20937284.601
        53.0004         49.0004
 20 11  5  1 48  0.0000000  0  8G30G05G02G15G29G07G18G13
  -9813115.34847  -7605920.71347  23381793.3914   23381798.8364   23381793.185
        47.0004         43.0004
 -23330055.37649 -18120271.98549  20510538.9634   20510540.8184   20510538.814
        60.0004         56.0004
 -17429032.63748 -13536005.17648  21802331.1324   21802332.3624   21802331.358
        52.0004         48.0004
 -13057593.71348 -10118494.36548  22892831.2404   22892833.6834   22892830.911
        53.0004         48.0004
 -14344986.52949 -11123812.94548  22226888.0544   22226890.5374   22226887.722
        56.0004         51.0004
  -4345384.91447  -3362987.96846  24370548.2284   24370551.2884   24370548.095
        45.0004         40.0004
  -2201108.17646  -1660353.36746  24733317.9864   24733322.4174   24733315.419
        41.0004         36.0004
 -16002198.82248 -12407740.31848  20925798.9624   20925801.2274   20925798.787
        53.0004         49.0004
 20 11  5  1 48 30.0000000  0  8G30G05G02G15G29G07G18G13
  -9838025.69047  -7625331.35547  23377053.1074   23377058.8054   23377052.286
        47.0004         43.0004
 -23312967.40349 -18106956.68149  20513790.5334   20513792.6814   20513790.145
        60.0004         56.0004
 -17371742.96448 -13491363.89048  21813233.1274   21813234.3014   21813233.526
        53.0004         48.0004
 -13161132.93948 -10199174.23148  22873128.1944   22873131.1054   22873128.360
        53.0004         49.0004
 -14335049.13149 -11116069.53048  22228779.1574   22228781.7134   22228779.079
        56.0004         52.0004
  -4324194.54347  -3346475.99846  24374580.5964   24374582.5994   24374581.368
        45.0004         41.0004
  -2305892.75146  -1742003.64246  24713379.1194   24713383.0384   24713378.634
        41.0004         37.0004
 -16062045.47548 -12454374.05348  20914410.6024   20914412.0684   20914410.668
        53.0004         49.0004
 20 11  5  1 49  0.0000000  0  8G30G05G02G15G29G07G18G13
  -9862425.39047  -7644344.08747  23372409.2954   23372415.1884   23372410.092
        47.0004         43.0004
 -23295561.86249 -18093393.92649  20517102.8784   20517104.8704   20517102.675
        60.0004         56.0004
 -17314057.86848 -13446414.47548  21824210.2824   21824211.2114   21824210.921
        52.0004         48.0004
 -13264409.33848 -10279649.30148  22853475.3624   22853478.2514   22853475.831
        53.0004         49.0004
 -14324489.09149 -11107840.94748  22230788.6144   22230791.3634   22230788.033
        56.0004         52.0004
  -4302503.71047  -3329574.06746  24378707.2304   24378711.1934   24378708.964
        45.0004         41.0004
  -2410628.17847  -1823615.63346  24693449.1154   24693452.3864   24693449.068
        42.0004         37.0004
 -16121380.23448 -12500608.90848  20903119.4434   20903121.8314   20903119.218
        53.0004         49.0004
 20 11  5  1 49 30.0000000  0  8G30G05G02G15G29G07G18G13
  -9886313.00047  -7662957.78147  23367864.3334   23367869.2024   23367864.229
        47.0004         43.0004
 -23277838.88849 -18079583.82149  20520475.6054   20520477.2314   20520475.697
        60.0004         56.0004
 -17255977.92948 -13401157.39448  21835262.3624   21835263.1524   21835263.073
        52.0004         48.0004
 -13367421.09048 -10359918.13948  22833872.5714   22833875.6684   22833872.431
        53.0004         49.0004
 -14313307.06649 -11099127.69448  22232916.4584   22232918.8124   22232915.935
        56.0004         52.0004
  -4280312.85247  -3312282.51846  24382931.6154   24382934.4774   24382931.504
        45.0004         41.0004
  -2515312.52947  -1905187.82846  24673528.2154   24673533.6304   24673529.137
        42.0004         38.0004
 -16180201.76648 -12546443.85048  20891926.0294   20891927.7164   20891925.918
        53.0004         49.0004
 20 11  5  1 50  0.0000000  0  8G30G05G02G15G29G07G18G13
  -9909687.19147  -7681171.41847  23363415.8514   23363421.7994   23363416.686
        47.0004         43.0004
 -23259799.36249 -18065527.04949  20523908.4414   20523909.9724   20523908.399
        60.0004         56.0004
 -17197503.54748 -13355592.94347  21846389.5204   21846390.3904   21846389.977
        52.0004         47.0004
 -13470166.45348 -10439979.42548  22814320.7084   22814323.9564   22814320.828
        53.0004         49.0004
 -14301503.50049 -11089930.12948  22235162.8654   22235165.2924   22235163.139
        56.0004         52.0004
  -4257622.72447  -3294601.94146  24387249.0944   24387251.3074   24387248.761
        45.0004         41.0004
  -2619943.90847  -1986718.77246  24653617.9514   24653621.1174   24653618.237
        42.0004         38.0004
 -16238508.78948 -12591877.87848  20880830.4914   20880832.2974   20880830.782
        53.0004         49.0004
 20 11  5  1 50 30.0000000  0  8G30G05G02G15G29G07G18G13
  -9932546.51547  -7698983.86747  23359066.4074   23359072.0404   23359067.463
        47.0004         43.0004
 -23241443.44249 -18051223.73849  20527401.3804   20527403.0614   20527401.483
        60.0004         56.0004
 -17138635.80248 -13309721.98748  21857591.9674   21857592.9294   21857592.318
        52.0004         48.0004
 -13572643.58849 -10519831.69548  22794820.2454   22794823.7814   22794820.281
        54.0004         49.0004
 -14289079.23849 -11080248.90448  22237527.2494   22237529.1234   22237527.690
        56.0004         52.0004
  -4234433.87347  -3276532.75246  24391661.6424   24391663.0394   24391660.521
        45.0004         41.0004
  -2724520.43447  -2068206.94546  24633715.8624   24633720.1494   24633716.557
        42.0004         38.0004
 -16296299.92548 -12636909.91448  20869833.1124   20869835.3994   20869833.039
        53.0004         49.0004
 20 11  5  1 51  0.0000000  0  8G30G05G02G15G29G07G18G13
  -9954889.78548  -7716394.19247  23354814.4094   23354820.1284   23354814.424
        48.0004         43.0004
 -23222770.96349 -18036673.76149  20530954.6034   20530956.4604   20530954.211
        60.0004         56.0004
 -17079375.36248 -13263545.03448  21868869.0354   21868869.7524   21868869.263
        52.0004         48.0004
 -13674850.57949 -10599473.46748  22775371.2024   22775373.6324   22775370.951
        54.0004         49.0004
 -14276035.25049 -11070084.77448  22240009.5124   22240011.7424   22240010.015
        56.0004         52.0004
  -4210746.70247  -3258075.25046  24396168.3864   24396171.2674   24396167.236
        45.0004         40.0004
  -2829040.35547  -2149650.99646  24613827.0314   24613830.8924   24613827.129
        42.0004         38.0004
 -16353573.92248 -12681538.98848  20858934.4664   20858936.1594   20858933.850
        53.0004         49.0004
 20 11  5  1 51 30.0000000  0  8G30G05G02G15G29G07G18G13
  -9976715.67248  -7733401.35747  23350661.0354   23350666.8734   23350662.304
        48.0004         43.0004
 -23203782.40149 -18021877.48449  20534568.1944   20534569.8064   20534567.948
        60.0004         56.0004
 -17019722.83548 -13217062.55548  21880220.2194   21880221.2134   21880221.030
        52.0004         48.0004
 -13776785.42049 -10678903.17648  22755973.3394   22755975.8384   22755972.586
        54.0004         49.0004
 -14262371.70849 -11059437.86548  22242609.9424   22242611.9704   22242609.847
        56.0004         52.0004
  -4186561.62447  -3239229.76946  24400769.9594   24400773.7054   24400768.619
        45.0004         40.0004
  -2933501.54847  -2231049.29746  24593948.8504   24593953.4724   24593949.133
        42.0004         38.0004
 -16410329.56148 -12725764.14748  20848134.1834   20848135.7804   20848134.368
        53.0004         49.0004
 20 11  5  1 52  0.0000000  0  8G30G05G02G15G29G07G18G13
  -9998022.78047  -7750004.28947  23346605.9094   23346611.6374   23346606.460
        47.0004         43.0004
 -23184478.33749 -18006835.35949  20538241.6234   20538243.1214   20538241.406
        60.0004         56.0004
 -16959678.99548 -13170275.16548  21891646.0614   21891647.3324   21891646.798
        52.0004         48.0004
 -13878446.20349 -10758119.33848  22736628.0424   22736630.8154   22736627.386
        54.0004         49.0004
 -14248089.73049 -11048309.06748  22245327.4514   22245330.0084   22245327.314
        56.0004         52.0004
  -4161879.10447  -3219996.66146  24405467.6224   24405469.4794   24405467.814
        45.0004         40.0004
  -3037902.16347  -2312400.40046  24574083.5554   24574083.9204   24574082.966
        42.0004         38.0004
 -16466565.41948 -12769584.28048  20837432.6914   20837434.6204   20837432.901
        53.0004         49.0004
 20 11  5  1 52 30.0000000  0  8G30G05G02G15G29G07G18G13
 -10018809.98847  -7766202.08547  23342650.2774   23342655.4164   23342650.084
        47.0004         42.0004
 -23164859.65749 -17991548.08149  20541974.9134   20541976.4364   20541974.767
        60.0004         56.0004
 -16899244.68148 -13123183.50548  21903146.3484   21903147.6784   21903147.141
        52.0004         48.0004
 -13979831.15049 -10837120.56848  22717334.7844   22717337.8504   22717335.273
        54.0004         49.0004
 -14233190.22749 -11036699.08048  22248162.9734   22248165.3464   22248162.740
        56.0004         52.0004
  -4136699.48247  -3200376.24646  24410260.2954   24410262.3014   24410259.831
        45.0004         40.0004
  -3142240.28147  -2393702.78846  24554228.0734   24554230.8034   24554227.846
        42.0004         38.0004
 -16522280.40449 -12812998.53648  20826830.6304   20826832.3764   20826830.711
        54.0004         49.0004
 20 11  5  1 53  0.0000000  0  8G30G05G02G15G29G07G18G13
 -10039075.97647  -7781993.73947  23338793.2294   23338799.2054   23338793.684
        47.0004         42.0004
 -23144926.12149 -17976015.46449  20545768.2084   20545769.8864   20545768.030
        60.0004         56.0004
 -16838420.13148 -13075787.76948  21914721.1034   21914722.1114   21914721.758
        52.0004         48.0004
 -14080938.51249 -10915905.48948  22698095.1144   22698097.4154   22698095.032
        54.0004         49.0004
 -14217674.03149 -11024608.54348  22251115.2124   22251117.7594   22251114.755
        56.0004         52.0004
  -4111024.09247  -3180369.47246  24415146.1034   24415148.4144   24415145.184
        45.0004         40.0004
  -3246513.94647  -2474954.94146  24534383.6514   24534388.5364   24534384.307
        42.0004         37.0004
 -16577472.66149 -12856005.47248  20816327.8804   20816329.7044   20816327.640
        54.0004         49.0004
 20 11  5  1 53 30.0000000  0  8G30G05G02G15G29G07G18G13
 -10058819.53147  -7797378.31647  23335036.7184   23335042.8374   23335036.667
        47.0004         42.0004
 -23124678.24949 -17960237.90849  20549621.1434   20549622.8284   20549620.990
        60.0004         56.0004
 -16777206.90948 -13028089.16648  21926369.4214   21926370.3414   21926370.144
        52.0004         48.0004
 -14181766.53649 -10994472.75948  22678907.8434   22678910.5714   22678906.771
        54.0004         49.0004
 -14201541.86549 -11012038.04348  22254185.4574   22254187.5884   22254185.745
        56.0004         52.0004
  -4084853.14347  -3159976.55446  24420126.5674   24420128.2464   24420127.900
        45.0004         41.0004
  -3350721.25547  -2556155.39646  24514554.8594   24514559.6014   24514552.548
        42.0004         38.0004
 -16632141.80249 -12898604.78648  20805924.7164   20805926.5224   20805924.955
        54.0004         49.0004
 20 11  5  1 54  0.0000000  0  8G30G05G02G15G29G07G18G13
 -10078039.42247  -7812354.83347  23331379.9644   23331385.0614   23331380.200
        47.0004         42.0004
 -23104116.30249 -17944215.62049  20553533.8534   20553535.7984   20553533.530
        60.0004         56.0004
 -16715605.35948 -12980087.96847  21938091.5504   21938093.3674   21938092.555
        52.0004         47.0004
 -14282313.14149 -11072820.73248  22659774.1514   22659777.2904   22659774.193
        54.0004         49.0004
 -14184794.67349 -10998988.29648  22257371.7824   22257374.6284   22257371.759
        56.0004         52.0004
  -4058187.21547  -3139197.93246  24425200.6814   24425202.2764   24425201.806
        45.0004         40.0004
  -3454860.19447  -2637302.57446  24494736.8314   24494740.8034   24494736.890
        42.0004         38.0004
 -16686286.60749 -12940795.52948  20795621.5904   20795622.5594   20795621.438
        54.0004         49.0004
 20 11  5  1 54 30.0000000  0  8G30G05G02G15G29G07G18G13
 -10096734.55347  -7826922.45547  23327821.8144   23327826.7004   23327822.647
        47.0004         42.0004
 -23083240.77649 -17927948.98149  20557506.2204   20557508.1954   20557505.715
        60.0004         56.0004
 -16653616.44348 -12931784.92347  21949888.0754   21949889.0564   21949888.233
        52.0004         47.0004
 -14382576.71349 -11150948.16348  22640694.5764   22640697.6664   22640694.738
        54.0004         49.0004
 -14167433.33649 -10985459.98948  22260675.5224   22260678.4024   22260674.939
        56.0004         52.0004
  -4031026.98347  -3118034.11146  24430369.0134   24430372.0804   24430368.792
        45.0004         41.0004
  -3558928.82747  -2718394.97646  24474934.2924   24474937.2644   24474934.292
        43.0004         38.0004
 -16739905.58949 -12982576.54048  20785417.7954   20785419.6294   20785417.516
        54.0004         49.0004
 20 11  5  1 55  0.0000000  0  8G30G05G02G15G29G07G18G13
 -10114903.70247  -7841080.22047  23324363.8224   23324369.4324   23324363.423
        47.0004         42.0004
 -23062052.04949 -17911438.29749  20561538.4154   20561540.3794   20561538.206
        60.0004         56.0004
 -16591240.80448 -12883180.55047  21961757.5144   21961758.9504   21961758.645
        52.0004         47.0004
 -14482555.38049 -11228853.58348  22621669.5204   22621671.9214   22621668.773
        54.0004         49.0004
 -14149458.86049 -10971453.92448  22264096.6294   22264098.6954   22264096.140
        56.0004         52.0004
  -4003373.08347  -3096485.65046  24435630.6734   24435634.5254   24435631.118
        46.0004         41.0004
  -3662925.18047  -2799431.04346  24455145.7164   24455147.8174   24455144.820
        42.0004         38.0004
 -16792997.55649 -13023946.89348  20775314.6304   20775316.8514   20775314.460
        54.0004         49.0004
 20 11  5  1 55 30.0000000  0  8G30G05G02G15G29G07G18G13
 -10132545.77547  -7854827.26547  23321006.5254   23321012.8824   23321006.766
        47.0004         42.0004
 -23040550.41649 -17894683.78549  20565629.9874   20565631.8914   20565629.832
        60.0004         56.0004
 -16528479.48948 -12834275.64647  21973700.3584   21973701.1704   21973700.904
        52.0004         47.0004
 -14582247.34249 -11306535.60448  22602698.9084   22602701.7744   22602698.973
        54.0004         49.0004
 -14130872.04149 -10956970.69748  22267632.9554   22267635.5154   22267632.703
        56.0004         52.0004
  -3975226.19547  -3074553.01246  24440986.3324   24440991.5264   24440985.696
        45.0004         40.0004
  -3766847.29947  -2880409.26146  24435370.1594   24435372.4234   24435369.768
        43.0004         38.0004
 -16845561.24149 -13064905.59148  20765311.8674   20765314.1804   20765311.679
        54.0004         49.0004
 20 11  5  1 56  0.0000000  0  8G30G05G02G15G29G07G18G13
 -10149659.65647  -7868162.73947  23317750.8254   23317755.9914   23317750.761
        47.0004         43.0004
 -23018736.44849 -17877685.89349  20569780.9374   20569783.0034   20569780.571
        60.0004         56.0004
 -16465333.21148 -12785070.76647  21985717.2014   21985717.9844   21985718.620
        52.0004         47.0004
 -14681650.68649 -11383992.72548  22583782.7044   22583785.8944   22583782.666
        54.0004         49.0004
 -14111673.97849 -10942011.16548  22271286.3364   22271288.5634   22271285.829
        56.0004         51.0004
  -3946586.69647  -3052236.53846  24446435.9604   24446441.3104   24446436.103
        45.0004         40.0004
  -3870693.18247  -2961328.08046  24415608.6034   24415610.3844   24415607.409
        43.0004         38.0004
 -16897595.72649 -13105451.92848  20755409.8944   20755412.5544   20755410.146
        54.0004         49.0004
 20 11  5  1 56 30.0000000  0  8G30G05G02G15G29G07G18G13
 -10166244.20947  -7881085.77347  23314594.8464   23314599.4334   23314595.121
        47.0004         43.0004
 -22996610.28349 -17860444.73349  20573991.5984   20573993.7404   20573991.474
        60.0004         56.0004
 -16401802.92848 -12735566.66647  21997806.5814   21997807.6184   21997807.001
        52.0004         47.0004
 -14780763.65049 -11461223.56948  22564922.2864   22564925.2064   22564921.217
        54.0004         50.0004
 -14091865.88949 -10926576.30348  22275055.9404   22275057.9864   22275055.446
        56.0004         51.0004
  -3917455.75147  -3029537.12446  24451979.7014   24451983.4584   24451979.069
        45.0004         40.0004
  -3974460.89447  -3042185.97146  24395861.4504   24395862.7994   24395861.365
        42.0004         38.0004
 -16949100.21249 -13145585.28548  20745609.6594   20745611.4324   20745609.592
        54.0004         49.0004
 20 11  5  1 57  0.0000000  0  8G30G05G02G15G29G07G18G13
 -10182298.37848  -7893595.52347  23311539.9644   23311544.9274   23311540.199
        48.0004         43.0004
 -22974172.31449 -17842960.60549  20578261.2804   20578263.3644   20578261.356
        60.0004         56.0004
 -16337889.21048 -12685763.77347  22009968.9784   22009969.7264   22009969.778
        52.0004         47.0004
 -14879584.31349 -11538226.66648  22546117.2734   22546119.6424   22546117.179
        54.0004         50.0004
 -14071448.57949 -10910666.71648  22278940.5854   22278943.6054   22278940.422
        56.0004         51.0004
  -3887833.92347  -3006455.17746  24457616.8334   24457621.2514   24457615.339
        45.0004         40.0004
  -4078148.23947  -3122981.27246  24376130.7894   24376132.9114   24376131.444
        43.0004         38.0004
 -17000073.13749 -13185304.43648  20735909.6494   20735911.5254   20735909.419
        54.0004         49.0004
 20 11  5  1 57 30.0000000  0  8G30G05G02G15G29G07G18G13
 -10197821.20448  -7905691.23547  23308586.2564   23308590.8424   23308586.181
        48.0004         43.0004
 -22951422.88349 -17825233.78249  20582590.4344   20582592.5344   20582590.039
        60.0004         56.0004
 -16273593.41948 -12635663.17247  22022204.5044   22022204.7124   22022204.185
        52.0004         47.0004
 -14978111.24849 -11615000.87648  22527368.8024   22527370.6104   22527369.081
        55.0004         50.0004
 -14050423.09049 -10894283.23248  22282942.2724   22282944.6764   22282941.911
        56.0004         51.0004
  -3857721.79647  -2982991.20146  24463348.3174   24463350.6684   24463349.034
        45.0004         40.0004
  -4181753.38947  -3203712.49646  24356414.7374   24356417.6814   24356415.781
        43.0004         39.0004
 -17050513.69349 -13224608.75748  20726311.0084   20726312.8114   20726310.832
        54.0004         49.0004
 20 11  5  1 58  0.0000000  0  8G30G05G02G15G29G07G18G13
 -10212811.50248  -7917371.98547  23305733.4854   23305738.5044   23305733.959
        48.0004         43.0004
 -22928362.37049 -17807264.55549  20586978.5564   20586980.7804   20586978.311
        60.0004         56.0004
 -16208916.04348 -12585265.23847  22034511.9564   22034512.3274   22034512.747
        52.0004         47.0004
 -15076342.34249 -11691544.55948  22508675.9854   22508678.2214   22508675.221
        54.0004         50.0004
 -14028790.56649 -10877426.73448  22287058.9114   22287060.9874   22287059.157
        56.0004         52.0004
  -3827120.65147  -2959146.16846  24469171.8604   24469173.8014   24469172.140
        45.0004         41.0004
  -4285274.25147  -3284378.01546  24336715.9374   24336719.9644   24336716.983
        44.0004         39.0004
 -17100420.72649 -13263497.34048  20716813.9784   20716815.9874   20716813.793
        54.0004         49.0004
 20 11  5  1 58 30.0000000  0  8G30G05G02G15G29G07G18G13
 -10227268.40348  -7928637.10347  23302982.4284   23302987.2254   23302983.437
        48.0004         43.0004
 -22904991.45549 -17789053.46149  20591425.8424   20591428.1034   20591425.690
        60.0004         56.0004
 -16143858.16748 -12534570.80447  22046892.0384   22046893.4184   22046892.717
        52.0004         47.0004
 -15174275.98049 -11767856.45748  22490039.1754   22490042.0244   22490038.558
        55.0004         50.0004
 -14006552.39949 -10860098.30348  22291290.6074   22291292.7674   22291290.544
        56.0004         51.0004
  -3796031.07547  -2934920.57346  24475088.6204   24475089.7314   24475088.724
        45.0004         40.0004
  -4388708.77447  -3364976.28846  24317033.6284   24317035.9604   24317033.664
        44.0004         39.0004
 -17149793.26449 -13301969.43148  20707418.8394   20707420.5344   20707418.820
        54.0004         49.0004
 20 11  5  1 59  0.0000000  0  8G30G05G02G15G29G07G18G13
 -10241190.85048  -7939485.76847  23300333.2144   23300339.5304   23300332.999
        48.0004         43.0004
 -22881310.10149 -17770600.46349  20595932.3054   20595934.4794   20595931.872
        60.0004         56.0004
 -16078420.36048 -12483580.32847  22059344.3344   22059345.5454   22059345.308
        52.0004         47.0004
 -15271910.38249 -11843935.17748  22471459.8684   22471462.6804   22471460.046
        55.0004         50.0004
 -13983709.32749 -10842298.51348  22295637.5644   22295639.3874   22295637.581
        56.0004         51.0004
  -3764453.75247  -2910314.90346  24481097.7084   24481097.3134   24481098.006
        45.0004         40.0004
  -4492054.93847  -3445505.71646  24297366.8094   24297369.7294   24297367.014
        44.0004         39.0004
 -17198630.07749 -13340024.08448  20698125.4624   20698127.2714   20698125.302
        54.0004         49.0004
 20 11  5  1 59 30.0000000  0  8G30G05G02G15G29G07G18G13
 -10254577.86148  -7949917.22147  23297785.5024   23297790.9184   23297785.916
        48.0004         43.0004
 -22857319.05649 -17751906.14949  20600497.7724   20600499.7384   20600497.465
        60.0004         56.0004
 -16012604.11248 -12432294.95447  22071868.7254   22071869.9724   22071869.468
        52.0004         47.0004
 -15369243.70749 -11919779.29548  22452938.3554   22452940.5354   22452937.966
        55.0004         50.0004
 -13960262.75649 -10824028.46948  22300099.3394   22300101.3024   22300099.307
        56.0004         51.0004
  -3732389.56647  -2885329.85146  24487197.9254   24487199.4544   24487197.986
        45.0004         40.0004
  -4595310.63847  -3525964.65746  24277717.5154   24277721.1344   24277718.526
        44.0004         39.0004
 -17246930.59849 -13377660.84848  20688934.0484   20688935.7404   20688934.181
        54.0004         49.0004
 20 11  5  2  0  0.0000000  0  8G30G05G02G15G29G07G18G13
 -10267428.62848  -7959930.79947  23295340.6114   23295346.5624   23295340.457
        48.0004         43.0004
 -22833018.26149 -17732970.47449  20605121.9344   20605124.1554   20605121.771
        60.0004         56.0004
 -15946410.18548 -12380715.28447  22084464.9004   22084466.0974   22084465.731
        51.0004         47.0004
 -15466274.27549 -11995387.50148  22434473.2874   22434476.6084   22434472.946
        55.0004         50.0004
 -13936213.90649 -10805289.12048  22304675.6874   22304677.7494   22304675.998
        56.0004         51.0004
  -3699839.22247  -2859965.98346  24493390.6734   24493393.4874   24493391.003
        45.0004         40.0004
  -4698473.98647  -3606351.63846  24258085.4934   24258089.0894   24258086.634
        44.0004         39.0004
 -17294693.81749 -13414878.93848  20679845.1854   20679846.7354   20679845.053
        54.0004         49.0004
 20 11  5  2  0 30.0000000  0  8G30G05G02G15G29G07G18G13
 -10279742.05948  -7969525.69247  23292997.2004   23293002.5794   23292997.654
        48.0004         43.0004
 -22808408.20349 -17713793.81149  20609805.0074   20609807.2794   20609804.489
        60.0004         56.0004
 -15879839.32848 -12328841.91247  22097133.2964   22097134.2044   22097133.949
        51.0004         47.0004
 -15563000.23449 -12070758.35748  22416067.3364   22416070.0934   22416068.041
        55.0004         50.0004
 -13911563.82849 -10786081.28448  22309365.8964   22309368.5664   22309366.065
        56.0004         51.0004
  -3666803.11447  -2834223.60146  24499676.9134   24499680.6114   24499677.376
        45.0004         40.0004
  -4801542.74347  -3686664.90846  24238473.2704   24238475.5514   24238472.741
        44.0004         39.0004
 -17341918.49049 -13451677.37348  20670858.6564   20670860.4084   20670858.414
        54.0004         49.0004
 20 11  5  2  1  0.0000000  0  8G30G05G02G15G29G07G18G13
 -10291517.42248  -7978701.30247  23290756.8424   23290761.8234   23290757.000
        48.0004         43.0004
 -22783489.72249 -17694376.82349  20614546.8904   20614549.0714   20614546.543
        60.0004         56.0004
 -15812892.82848 -12276675.82847  22109872.3394   22109873.9364   22109873.276
        51.0004         47.0004
 -15659420.00849 -12145890.62048  22397719.4934   22397721.7364   22397719.036
        55.0004         50.0004
 -13886313.79849 -10766405.95748  22314170.7564   22314173.6564   22314170.846
        56.0004         51.0004
  -3633282.96447  -2808104.03746  24506055.7954   24506059.3764   24506055.405
        45.0004         40.0004
  -4904514.90247  -3766902.93746  24218876.9644   24218880.7794   24218877.123
        44.0004         39.0004
 -17388603.67649 -13488055.42748  20661974.7124   20661976.4064   20661974.676
        54.0004         49.0004
 20 11  5  2  1 30.0000000  0  8G30G05G02G15G29G07G18G13
 -10302753.71948  -7987456.85947  23288618.2854   23288622.9824   23288618.528
        48.0004         43.0004
 -22758262.58649 -17674719.32449  20619347.4524   20619349.7914   20619347.522
        60.0004         56.0004
 -15745571.56248 -12224217.71647  22122683.4244   22122684.8424   22122684.342
        51.0004         47.0004
 -15755531.36749 -12220782.57148  22379430.3474   22379433.0054   22379429.281
        55.0004         50.0004
 -13860465.26149 -10746264.25048  22319089.9584   22319092.4804   22319089.586
        56.0004         51.0004
  -3599279.77347  -2781608.08246  24512527.1854   24512530.6214   24512527.385
        45.0004         40.0004
  -5007388.37847  -3847064.05346  24199300.7814   24199305.4044   24199300.262
        44.0004         39.0004
 -17434748.73149 -13524012.60648  20653193.3314   20653195.3884   20653193.163
        54.0004         49.0004
 20 11  5  2  2  0.0000000  0  8G30G05G02G15G29G07G18G13
 -10313450.12448  -7995791.73547  23286582.5334   23286587.7254   23286583.269
        48.0004         43.0004
 -22732727.40549 -17654821.78849  20624206.7544   20624208.8874   20624206.522
        60.0004         56.0004
 -15677876.59948 -12171468.40747  22135565.1434   22135566.7734   22135565.517
        51.0004         47.0004
 -15851333.24149 -12295433.35948  22361199.4914   22361202.0294   22361198.926
        55.0004         50.0004
 -13834019.37349 -10725657.08748  22324122.3904   22324124.6624   22324122.694
        56.0004         51.0004
  -3564793.94447  -2754736.06646  24519091.1864   24519092.6314   24519091.274
        45.0004         40.0004
  -5110161.10947  -3927146.64746  24179743.6584   24179746.5934   24179742.318
        44.0004         39.0004
 -17480352.84749 -13559548.27048  20644515.1364   20644516.7434   20644515.318
        54.0004         49.0004
 20 11  5  2  2 30.0000000  0  8G30G05G02G15G29G07G18G13
 -10323605.81948  -8003705.27447  23284650.7194   23284654.7904   23284651.643
        48.0004         43.0004
 -22706884.67749 -17634684.60549  20629124.4934   20629126.6734   20629124.682
        60.0004         56.0004
 -15609808.72448 -12118428.53247  22148517.9124   22148519.6804   22148519.189
        51.0004         47.0004
 -15946823.78349 -12369841.55148  22343028.4054   22343030.7624   22343028.212
        55.0004         51.0004
 -13806977.62549 -10704585.60848  22329268.5314   22329270.3454   22329268.884
        56.0004         51.0004
  -3529826.45447  -2727488.69546  24525743.8104   24525748.2644   24525743.751
        44.0004         40.0004
  -5212830.91247  -4007149.05046  24160207.0054   24160210.1464   24160206.367
        44.0004         39.0004
 -17525414.86949 -13594661.53048  20635940.2214   20635941.8184   20635940.183
        54.0004         49.0004
 20 11  5  2  3  0.0000000  0  8G30G05G02G15G29G07G18G13
 -10333220.02248  -8011196.84947  23282821.1244   23282826.6024   23282821.364
        48.0004         43.0004
 -22680734.70049 -17614308.00949  20634100.6024   20634103.0494   20634100.197
        60.0004         56.0004
 -15541369.12948 -12065098.99647  22161542.0184   22161542.7024   22161542.203
        51.0004         46.0004
 -16042001.17649 -12444005.72348  22324916.3044   22324919.1934   22324916.281
        55.0004         51.0004
 -13779341.47849 -10683050.96648  22334527.9854   22334529.8554   22334528.116
        56.0004         51.0004
  -3494378.55847  -2699867.00546  24532489.9494   24532493.0244   24532490.601
        44.0004         40.0004
  -5315395.74147  -4087069.65446  24140689.9994   24140692.1404   24140688.815
        44.0004         39.0004
 -17569933.98549 -13629351.74048  20627468.3154   20627470.1364   20627468.359
        54.0004         49.0004
 20 11  5  2  3 30.0000000  0  8G30G05G02G15G29G07G18G13
 -10342291.94348  -8018265.87347  23281094.5284   23281099.8474   23281094.743
        48.0004         43.0004
 -22654277.81649 -17593692.26749  20639135.1714   20639137.3944   20639134.986
        60.0004         56.0004
 -15472558.88748 -12011480.64347  22174636.1484   22174637.4684   22174636.665
        51.0004         47.0004
 -16136863.54049 -12517924.41948  22306864.8074   22306867.8044   22306864.138
        55.0004         51.0004
 -13751111.97549 -10661053.97548  22339899.6124   22339901.8934   22339899.839
        56.0004         51.0004
  -3458450.88747  -2671871.44846  24539327.1044   24539331.2294   24539327.517
        45.0004         40.0004
  -5417853.45947  -4166906.81646  24121192.0174   24121195.7744   24121191.145
        44.0004         39.0004
 -17613909.58749 -13663618.43948  20619100.6224   20619102.0914   20619100.550
        54.0004         49.0004
 20 11  5  2  4  0.0000000  0  8G30G05G02G15G29G07G18G13
 -10350820.81948  -8024911.73947  23279470.6214   23279476.1974   23279471.170
        48.0004         43.0004
 -22627514.27349 -17572837.56849  20644228.0294   20644230.1824   20644228.090
        60.0004         56.0004
 -15403378.90048 -11957574.17547  22187800.0854   22187801.3914   22187800.845
        51.0004         47.0004
 -16231409.36549 -12591596.46348  22288873.0564   22288876.0614   22288872.914
        55.0004         50.0004
 -13722290.76149 -10638595.90348  22345384.0044   22345386.2614   22345383.756
        56.0004         52.0004
  -3422044.62247  -2643502.95946  24546254.3354   24546258.0824   24546254.546
        45.0004         40.0004
  -5520202.00947  -4246658.90146  24101714.8654   24101719.4344   24101714.437
        44.0004         39.0004
 -17657340.73849 -13697460.89148  20610835.1544   20610837.4324   20610835.552
        54.0004         49.0004
 20 11  5  2  4 30.0000000  0  8G30G05G02G15G29G07G18G13
 -10358805.89648  -8031133.87647  23277952.2304   23277956.8674   23277952.239
        48.0004         43.0004
 -22600444.54049 -17551744.28649  20649379.6514   20649381.4884   20649379.081
        60.0004         56.0004
 -15333830.35748 -11903380.53047  22201035.4874   22201036.2724   22201036.306
        51.0004         47.0004
 -16325636.90249 -12665020.48248  22270942.4104   22270945.1634   22270942.466
        55.0004         50.0004
 -13692879.22649 -10615677.84748  22350980.6264   22350983.0304   22350980.551
        56.0004         51.0004
  -3385160.30947  -2614761.96046  24553273.1234   24553276.7314   24553272.624
        45.0004         40.0004
  -5622439.18547  -4326324.19346  24082259.8824   24082263.3414   24082259.757
        44.0004         39.0004
 -17700226.60649 -13730878.44348  20602674.8064   20602676.4604   20602674.758
        54.0004         49.0004
 20 11  5  2  5  0.0000000  0  8G30G05G02G15G29G07G18G13
 -10366246.51148  -8036931.74747  23276535.7664   23276540.5624   23276536.508
        48.0004         43.0004
 -22573068.91349 -17530412.64249  20654589.2164   20654590.9874   20654589.264
        60.0004         56.0004
 -15263914.31048 -11848900.50547  22214339.8014   22214340.8724   22214340.253
        51.0004         47.0004
 -16419544.59349 -12738195.27448  22253072.0974   22253075.1614   22253071.873
        55.0004         51.0004
 -13662878.65949 -10592300.79348  22356689.7954   22356691.8314   22356689.843
        56.0004         51.0004
  -3347799.61647  -2585649.76646  24560381.0064   24560385.4264   24560382.538
        44.0004         40.0004
  -5724562.84447  -4405901.02646  24062827.0004   24062829.1394   24062826.512
        44.0004         39.0004
 -17742566.60449 -13763870.64248  20594617.4874   20594619.3144   20594617.449
        54.0004         49.0004
 20 11  5  2  5 30.0000000  0  8G30G05G02G15G29G07G18G13
 -10373141.89148  -8042304.76547  23275223.8294   23275229.0874   23275223.834
        48.0004         43.0004
 -22545387.66649 -17508842.85049  20659856.4544   20659858.3444   20659856.135
        60.0004         56.0004
 -15193631.60948 -11794134.79347  22227714.1644   22227715.3894   22227714.580
        51.0004         47.0004
 -16513130.65849 -12811119.44448  22235263.2794   22235265.8114   22235262.016
        55.0004         51.0004
 -13632290.63949 -10568465.99648  22362509.9854   22362512.4514   22362510.552
        56.0004         51.0004
  -3309963.42347  -2556167.05346  24567581.3324   24567585.9674   24567582.837
        44.0004         40.0004
  -5826570.81647  -4485387.73446  24043415.4574   24043418.2324   24043415.957
        44.0004         39.0004
 -17784359.76549 -13796436.73848  20586664.5144   20586666.3484   20586664.791
        54.0004         49.0004
 20 11  5  2  6  0.0000000  0  8G30G05G02G15G29G07G18G13
 -10379491.49747  -8047252.51547  23274015.1894   23274021.0284   23274015.216
        47.0004         43.0004
 -22517401.63049 -17487035.56449  20665182.1184   20665183.8654   20665182.094
        60.0004         56.0004
 -15122983.63848 -11739084.45247  22241158.1344   22241159.1944   22241158.483
        51.0004         46.0004
 -16606393.24149 -12883791.57448  22217516.4224   22217518.3954   22217515.942
        55.0004         51.0004
 -13601116.87149 -10544174.76748  22368442.2674   22368444.8104   22368441.952
        56.0004         51.0004
  -3271652.87147  -2526314.70446  24574872.8944   24574876.4354   24574872.680
        44.0004         40.0004
  -5928461.11847  -4564782.73846  24024026.6774   24024028.8344   24024026.370
        44.0004         40.0004
 -17825605.62049 -13828576.36048  20578815.6244   20578817.6094   20578815.865
        54.0004         49.0004
 20 11  5  2  6 30.0000000  0  8G30G05G02G15G29G07G18G13
 -10385294.50947  -8051774.33947  23272910.8634   23272916.0054   23272911.669
        47.0004         43.0004
 -22489110.86649 -17464990.82649  20670565.6404   20670567.7674   20670565.452
        60.0004         56.0004
 -15051971.48448 -11683750.32547  22254671.2844   22254672.9774   22254671.534
        51.0004         47.0004
 -16699330.82649 -12956210.44248  22199830.7494   22199833.3284   22199830.633
        55.0004         51.0004
 -13569358.65849 -10519428.11848  22374485.5594   22374488.3814   22374485.325
        56.0004         51.0004
  -3232868.63147  -2496093.27246  24582253.3014   24582256.6374   24582253.507
        45.0004         40.0004
  -6030231.30647  -4644084.15246  24004660.6684   24004663.0924   24004661.817
        45.0004         40.0004
 -17866303.07049 -13860288.65348  20571071.4844   20571073.1724   20571071.642
        54.0004         49.0004
 20 11  5  2  7  0.0000000  0  8G30G05G02G15G29G07G18G13
 -10390550.44147  -8055869.87147  23271910.8864   23271915.7074   23271911.819
        47.0004         43.0004
 -22460515.94349 -17442709.08549  20676007.1824   20676009.1684   20676007.000
        60.0004         56.0004
 -14980596.31648 -11628133.33347  22268253.3854   22268254.4964   22268254.141
        51.0004         46.0004
 -16791941.79449 -13028374.81848  22182207.3044   22182209.5944   22182206.600
        55.0004         51.0004
 -13537017.73049 -10494227.42048  22380640.4834   22380642.6324   22380640.030
        56.0004         51.0004
  -3193611.94347  -2465503.70746  24589723.8124   24589726.6544   24589723.548
        45.0004         40.0004
  -6131879.44247  -4723290.44546  23985316.9274   23985319.6574   23985318.011
        44.0004         40.0004
 -17906451.97749 -13891573.50648  20563431.1654   20563433.2714   20563430.981
        54.0004         49.0004
 20 11  5  2  7 30.0000000  0  8G30G05G02G15G29G07G18G13
 -10395258.66347  -8059538.60547  23271014.1884   23271019.4424   23271015.024
        47.0004         43.0004
 -22431617.07349 -17420190.50449  20681506.4714   20681508.1694   20681506.229
        60.0004         56.0004
 -14908859.17748 -11572234.28247  22281904.5674   22281906.1594   22281905.245
        51.0004         46.0004
 -16884224.66649 -13100283.53348  22164646.7194   22164648.7834   22164646.501
        56.0004         51.0004
 -13504095.47649 -10468573.72448  22386905.1924   22386907.0614   22386904.880
        56.0004         51.0004
  -3153883.66547  -2434546.67346  24597284.3864   24597286.6104   24597285.369
        45.0004         40.0004
  -6233403.26447  -4802399.85846  23965998.7064   23966001.2684   23965998.996
        45.0004         40.0004
 -17946051.36549 -13922430.16848  20555895.9574   20555897.2814   20555896.236
        54.0004         49.0004
 20 11  5  2  8  0.0000000  0  8G30G05G02G15G29G07G18G13
 -10399418.55148  -8062780.08547  23270223.4004   23270228.6564   23270223.968
        48.0004         43.0004
 -22402414.38249 -17397435.17549  20687063.3794   20687065.5044   20687062.978
        60.0004         56.0004
 -14836761.20548 -11516054.07247  22295624.4164   22295625.8554   22295625.761
        51.0004         46.0004
 -16976177.63949 -13171935.17848  22147148.3174   22147151.2434   22147148.154
        56.0004         51.0004
 -13470593.48949 -10442468.30148  22393280.1554   22393282.7334   22393279.797
        56.0004         51.0004
  -3113685.55747  -2403223.52146  24604934.2084   24604937.4324   24604933.879
        45.0004         40.0004
  -6334800.60447  -4881410.73646  23946703.6534   23946705.7924   23946703.062
        44.0004         40.0004
 -17985100.50849 -13952858.07048  20548465.0644   20548467.0144   20548465.257
        54.0004         49.0004
 20 11  5  2  8 30.0000000  0  8G30G05G02G15G29G07G18G13
 -10403029.57848  -8065593.88547  23269535.5834   23269541.7494   23269537.107
        48.0004         43.0004
 -22372908.53549 -17374443.62549  20692678.3544   20692680.1344   20692678.088
        60.0004         56.0004
 -14764303.51148 -11459593.55147  22309412.6054   22309413.8524   22309413.210
        51.0004         46.0004
 -17067798.73649 -13243328.22548  22129713.9974   22129716.2664   22129714.198
        56.0004         51.0004
 -13436513.50149 -10415912.48548  22399764.6004   22399767.9234   22399764.276
        56.0004         51.0004
  -3073018.74247  -2371535.14346  24612673.2504   24612675.5574   24612673.612
        45.0004         40.0004
  -6436069.20047  -4960321.26246  23927432.9174   23927435.4024   23927432.253
        45.0004         40.0004
 -18023598.93049 -13982856.83348  20541139.1284   20541140.9994   20541139.150
        54.0004         50.0004
 20 11  5  2  9  0.0000000  0  8G30G05G02G15G29G07G18G13
 -10406091.22448  -8067979.60147  23268953.3134   23268958.4844   23268954.045
        48.0004         43.0004
 -22343099.97049 -17351216.18249  20698350.7674   20698352.6224   20698350.099
        60.0004         56.0004
 -14691487.37048 -11402853.71547  22323268.9414   22323270.7094   22323269.330
        51.0004         46.0004
 -17159086.82349 -13314461.78548  22112342.2604   22112344.7274   22112341.763
        56.0004         51.0004
 -13401857.42149 -10388907.76648  22406359.5194   22406362.9484   22406359.614
        56.0004         51.0004
  -3031883.98847  -2339482.12546  24620500.7744   24620503.1424   24620500.718
        45.0004         40.0004
  -6537206.90047  -5039129.83246  23908186.7074   23908188.3474   23908187.638
        44.0004         40.0004
 -18061546.14249 -14012426.08348  20533917.7064   20533919.5544   20533917.964
        54.0004         50.0004
 20 11  5  2  9 30.0000000  0  8G30G05G02G15G29G07G18G13
 -10408602.97648  -8069936.82947  23268476.5224   23268480.9784   23268475.761
        48.0004         43.0004
 -22312989.07149 -17327753.15949  20704080.5324   20704082.2464   20704080.336
        60.0004         56.0004
 -14618313.89448 -11345835.44747  22337193.3894   22337194.9384   22337194.473
        51.0004         46.0004
 -17250040.15549 -13385334.48948  22095034.2714   22095036.6614   22095033.677
        56.0004         51.0004
 -13366626.70349 -10361455.28848  22413064.6424   22413067.0094   22413065.065
        56.0004         51.0004
  -2990282.62347  -2307065.52046  24628416.5944   24628420.1864   24628415.449
        45.0004         40.0004
  -6638211.53947  -5117834.70746  23888965.8064   23888968.4444   23888965.492
        44.0004         39.0004
 -18098941.37349 -14041565.21348  20526801.4464   20526803.7954   20526801.507
        54.0004         50.0004
 20 11  5  2 10  0.0000000  0  8G30G05G02G15G29G07G18G13
 -10410564.39148  -8071465.22747  23268102.9484   23268107.5874   23268104.039
        48.0004         43.0004
 -22282576.08049 -17304054.74149  20709868.1384   20709869.8564   20709867.608
        60.0004         56.0004
 -14544784.52048 -11288539.84147  22351186.0574   22351187.5634   22351186.334
        51.0004         46.0004
 -17340657.15949 -13455945.12348  22077790.2244   22077792.3594   22077790.420
        56.0004         51.0004
 -13330822.94749 -10333556.27748  22419877.6684   22419880.0164   22419877.416
        56.0004         51.0004
  -2948215.62447  -2274286.07446  24636420.7204   24636424.6834   24636419.008
        44.0004         40.0004
  -6739080.90547  -5196434.17246  23869770.1784   23869774.1734   23869770.010
        45.0004         40.0004
 -18135784.10349 -14070273.83248  20519790.6554   20519792.7914   20519790.377
        54.0004         50.0004
 20 11  5  2 10 30.0000000  0  8G30G05G02G15G29G07G18G13
 -10411974.89947  -8072564.34547  23267833.8614   23267838.6404   23267834.654
        47.0004         42.0004
 -22251860.78549 -17280120.75949  20715713.1014   20715714.7734   20715713.213
        60.0004         55.0004
 -14470899.91548 -11230967.44747  22365246.4114   22365246.8854   22365246.824
        51.0004         46.0004
 -17430936.14949 -13526292.36748  22060610.7324   22060613.2934   22060610.556
        56.0004         51.0004
 -13294447.84649 -10305212.05848  22426799.9654   22426801.8044   22426799.890
        56.0004         51.0004
  -2905684.21247  -2241144.75946  24644515.1164   24644519.0214   24644514.489
        44.0004         40.0004
  -6839812.65347  -5274926.40346  23850601.7034   23850606.2964   23850601.595
        45.0004         40.0004
 -18172073.89249 -14098551.58548  20512885.2854   20512887.0674   20512885.099
        54.0004         50.0004
 20 11  5  2 11  0.0000000  0  8G30G05G02G15G29G07G18G13
 -10412834.10847  -8073233.87947  23267670.6644   23267675.0684   23267671.539
        47.0004         42.0004
 -22220844.48949 -17255952.22949  20721615.0444   20721616.8654   20721614.664
        60.0004         55.0004
 -14396662.13448 -11173119.84147  22379373.0194   22379372.8544   22379373.241
        51.0004         46.0004
 -17520875.55049 -13596375.00248  22043496.2344   22043498.2954   22043495.879
        56.0004         51.0004
 -13257503.35649 -10276424.16448  22433830.3414   22433832.1754   22433830.363
        56.0004         51.0004
  -2862689.97247  -2207642.79846  24652696.5824   24652700.7044   24652695.908
        45.0004         40.0004
  -6940404.69847  -5353309.75646  23831459.5124   23831463.5034   23831458.709
        45.0004         40.0004
 -18207810.13949 -14126398.00748  20506084.6004   20506086.3384   20506084.567
        54.0004         49.0004
 20 11  5  2 11 30.0000000  0  8G30G05G02G15G29G07G18G13
 -10413141.64747  -8073473.53947  23267611.0464   23267615.7834   23267612.548
        47.0004         43.0004
 -22189527.31149 -17231549.24649  20727574.6544   20727576.4224   20727574.757
        60.0004         55.0004
 -14322071.83048 -11114997.54647  22393565.8044   22393568.0004   22393566.614
        50.0004         46.0004
 -17610473.65049 -13666191.67748  22026446.0554   22026447.8044   22026445.798
        56.0004         51.0004
 -13219991.37949 -10247194.07048  22440968.1774   22440970.9884   22440968.322
        56.0004         51.0004
  -2819234.01047  -2173781.04246  24660964.9614   24660969.8774   24660963.839
        44.0004         39.0004
  -7040854.69247  -5431582.45246  23812344.5804   23812348.3614   23812343.612
        45.0004         40.0004
 -18242992.32349 -14153812.69448  20499390.0144   20499391.7344   20499389.969
        54.0004         50.0004
 20 11  5  2 12  0.0000000  0  8G30G05G02G15G29G07G18G13
 -10412897.09147  -8073282.98747  23267658.8384   23267663.3574   23267659.677
        47.0004         43.0004
 -22157909.47049 -17206911.98349  20733591.0614   20733593.2834   20733590.659
        60.0004         55.0004
 -14247130.22648 -11056601.51947  22407828.1714   22407828.9564   22407828.599
        50.0004         46.0004
 -17699729.16049 -13735741.41148  22009460.8614   22009463.8354   22009461.059
        56.0004         51.0004
 -13181913.54349 -10217523.05648  22448214.3134   22448216.9694   22448214.589
        56.0004         51.0004
  -2775317.40747  -2139560.32546  24669323.8734   24669326.6804   24669323.564
        44.0004         40.0004
  -7141160.48247  -5509742.78346  23793257.7984   23793261.1374   23793257.069
        45.0004         40.0004
 -18277620.10749 -14180795.37548  20492800.0614   20492802.2664   20492799.966
        54.0004         50.0004
 20 11  5  2 12 30.0000000  0  8G30G05G02G15G29G07G18G13
 -10412100.04048  -8072661.93747  23267810.4594   23267814.9844   23267810.564
        48.0004         43.0004
 -22125991.55249 -17182040.88949  20739664.9264   20739667.2044   20739664.630
        60.0004         55.0004
 -14171838.72548 -10997932.83247  22422154.3284   22422156.5134   22422156.150
        50.0004         46.0004
 -17788640.59749 -13805023.02348  21992541.8754   21992544.2264   21992541.660
        56.0004         51.0004
 -13143271.46149 -10187412.36948  22455567.8434   22455570.2934   22455567.854
        56.0004         51.0004
  -2730941.49847  -2104981.72146  24677769.0074   24677771.7644   24677767.409
        44.0004         40.0004
  -7241319.76547  -5587788.94646  23774198.7024   23774201.9514   23774197.755
        45.0004         40.0004
 -18311692.94249 -14207345.63548  20486316.4164   20486318.4014   20486316.438
        54.0004         50.0004
 20 11  5  2 13  0.0000000  0  8G30G05G02G15G29G07G18G13
 -10410750.12048  -8071610.05947  23268066.9834   23268072.0984   23268068.469
        48.0004         43.0004
 -22093773.57649 -17156935.98149  20745795.8094   20745798.0724   20745795.455
        60.0004         55.0004
 -14096198.48748 -10938992.41247  22436549.5054   22436550.8974   22436550.213
        50.0004         46.0004
 -17877205.92349 -13874034.93948  21975688.5074   21975690.9984   21975687.902
        56.0004         52.0004
 -13104067.01549 -10156863.47148  22463027.8234   22463030.8044   22463028.100
        56.0004         51.0004
  -2686107.63447  -2070046.27546  24686298.3974   24686303.0754   24686298.001
        44.0004         39.0004
  -7341330.24147  -5665719.16346  23755166.5514   23755169.5304   23755166.899
        45.0004         41.0004
 -18345210.38949 -14233463.12048  20479938.2714   20479940.1794   20479938.286
        54.0004         50.0004
 20 11  5  2 13 30.0000000  0  8G30G05G02G15G29G07G18G13
 -10408847.07348  -8070127.19147  23268428.7554   23268433.2994   23268429.090
        48.0004         43.0004
 -22061256.00049 -17131597.62249  20751983.6374   20751985.9664   20751983.410
        60.0004         55.0004
 -14020210.90848 -10879781.33947  22451009.3114   22451010.6454   22451009.742
        50.0004         46.0004
 -17965423.90249 -13942776.20148  21958901.0544   21958903.2814   21958901.321
        56.0004         51.0004
 -13064302.23649 -10125877.95548  22470595.1834   22470597.3694   22470594.864
        56.0004         51.0004
  -2640817.23447  -2034755.06446  24694918.6064   24694920.8844   24694918.153
        44.0004         40.0004
  -7441189.70647  -5743531.71146  23736163.6034   23736166.9344   23736164.465
        45.0004         41.0004
 -18378171.80749 -14259147.33848  20473666.0864   20473667.6774   20473665.891
        54.0004         50.0004
 20 11  5  2 14  0.0000000  0  8G30G05G02G15G29G07G18G13
 -10406390.67048  -8068213.11847  23268896.5734   23268902.0074   23268896.331
        48.0004         43.0004
 -22028439.44149 -17106026.28749  20758228.4554   20758230.9384   20758228.192
        60.0004         55.0004
 -13943877.63348 -10820300.89047  22465534.9264   22465535.9874   22465535.695
        50.0004         46.0004
 -18053292.83449 -14011245.48348  21942180.0674   21942182.5614   21942180.024
        56.0004         51.0004
 -13023978.88149 -10094457.17748  22478268.5194   22478271.2734   22478268.552
        56.0004         51.0004
  -2595071.30847  -1999108.93446  24703622.2694   24703624.6654   24703623.450
        44.0004         40.0004
  -7540895.89347  -5821224.82046  23717190.4694   23717194.0674   23717190.257
        45.0004         41.0004
 -18410577.14449 -14284398.24248  20467499.1344   20467500.8654   20467499.391
        54.0004         50.0004
 20 11  5  2 14 30.0000000  0  8G30G05G02G15G29G07G18G13
 -10403380.45948  -8065867.51247  23269469.0844   23269475.3674   23269468.778
        48.0004         43.0004
 -21995323.91149 -17080221.99149  20764530.0044   20764532.6304   20764529.419
        60.0004         55.0004
 -13867199.58148 -10760551.78047  22480126.1004   22480127.2964   22480126.939
        50.0004         46.0004
 -18140811.13249 -14079441.54848  21925525.8864   21925528.2464   21925525.255
        56.0004         51.0004
 -12983098.93249 -10062602.69448  22486047.6034   22486050.0074   22486047.825
        56.0004         51.0004
  -2548871.62647  -1963109.22846  24712414.5624   24712417.3674   24712413.298
        44.0004         40.0004
  -7640446.45347  -5898796.66746  23698246.7194   23698250.1524   23698246.289
        45.0004         41.0004
 -18442426.14949 -14309215.64348  20461438.7564   20461440.5344   20461438.676
        54.0004         50.0004
 20 11  5  2 15  0.0000000  0  8G30G05G02G15G29G07G18G13
 -10399816.23348  -8063090.19647  23270146.9554   23270153.2464   23270148.022
        48.0004         43.0004
 -21961910.22649 -17054185.37049  20770888.3344   20770890.8504   20770888.227
        60.0004         55.0004
 -13790177.96048 -10700534.95747  22494783.2394   22494784.2964   22494783.828
        50.0004         46.0004
 -18227977.57449 -14147363.42948  21908938.6634   21908941.1684   21908937.990
        56.0004         51.0004
 -12941664.36149 -10030316.04148  22493931.8314   22493934.9224   22493932.254
        55.0004         51.0004
  -2502219.22247  -1926756.71446  24721292.0414   24721293.8474   24721292.052
        44.0004         40.0004
  -7739839.15447  -5976245.49946  23679332.7464   23679335.0564   23679332.268
        46.0004         41.0004
 -18473718.25449 -14333599.10148  20455484.2234   20455485.9314   20455483.926
        54.0004         50.0004
 20 11  5  2 15 30.0000000  0  8G30G05G02G15G29G07G18G13
 -10395697.83648  -8059881.05747  23270931.2874   23270936.7234   23270931.359
        48.0004         43.0004
 -21928198.46249 -17027916.47549  20777303.7714   20777305.9464   20777303.501
        60.0004         55.0004
 -13712814.23548 -10640251.56147  22509505.2354   22509505.5424   22509504.811
        50.0004         45.0004
 -18314790.64149 -14215009.95148  21892418.8274   21892421.2474   21892418.848
        56.0004         52.0004
 -12899677.18749  -9997598.78848  22501922.2034   22501925.1474   22501922.870
        55.0004         51.0004
  -2455115.44847  -1890052.51946  24730255.1034   24730258.3544   24730256.172
        44.0004         40.0004
  -7839071.67547  -6053569.50646  23660449.6734   23660452.8204   23660448.970
        46.0004         41.0004
 -18504453.13349 -14357548.35348  20449635.1304   20449636.9714   20449635.463
        54.0004         50.0004
 20 11  5  2 16  0.0000000  0  8G30G05G02G15G29G07G18G13
 -10391025.02048  -8056239.90047  23271820.3734   23271826.8234   23271820.509
        48.0004         43.0004
 -21894188.95449 -17001415.58049  20783775.6784   20783777.9504   20783775.443
        60.0004         55.0004
 -13635109.38748 -10579702.35247  22524291.3704   22524293.7014   22524292.054
        50.0004         46.0004
 -18401248.54349 -14282379.72948  21875966.6224   21875968.5414   21875966.126
        56.0004         52.0004
 -12857139.29749  -9964452.40348  22510017.1984   22510019.4104   22510017.244
        56.0004         51.0004
  -2407561.50447  -1852997.55246  24739304.7994   24739306.6624   24739303.619
        44.0004         39.0004
  -7938141.71347  -6130766.91746  23641597.3054   23641601.2914   23641597.299
        46.0004         41.0004
 -18534630.39449 -14381063.10148  20443892.6464   20443894.7524   20443892.571
        54.0004         50.0004
 20 11  5  2 16 30.0000000  0  8G30G05G02G15G29G07G18G13
 -10385797.57448  -8052166.58247  23272815.4704   23272821.6614   23272815.092
        48.0004         43.0004
 -21859882.30549 -16974683.13949  20790303.8124   20790306.2124   20790303.390
        60.0004         55.0004
 -13557065.66948 -10518889.09347  22539143.4644   22539143.8584   22539143.727
        50.0004         45.0004
 -18487349.61549 -14349471.45548  21859581.4794   21859584.1244   21859581.828
        56.0004         52.0004
 -12814052.67849  -9930878.42948  22518216.3504   22518218.5624   22518216.217
        56.0004         51.0004
  -2359559.31647  -1815593.28346  24748440.3224   24748441.2144   24748439.572
        44.0004         39.0004
  -8037046.97247  -6207835.91546  23622776.4394   23622778.9504   23622777.287
        46.0004         41.0004
 -18564249.70449 -14404143.08348  20438256.5534   20438258.2114   20438256.387
        54.0004         50.0004
 20 11  5  2 17  0.0000000  0  8G30G05G02G15G29G07G18G13
 -10380015.37748  -8047660.97747  23273914.9274   23273921.6814   23273914.966
        48.0004         43.0004
 -21825278.73949 -16947719.33549  20796888.8534   20796890.9234   20796888.677
        60.0004         55.0004
 -13478683.52548 -10457812.12847  22554057.6834   22554059.4474   22554058.763
        50.0004         45.0004
 -18573093.06549 -14416284.50748  21843265.2324   21843268.1594   21843264.553
        56.0004         52.0004
 -12770419.29649  -9896878.40448  22526519.0924   22526521.5984   22526519.835
        56.0004         51.0004
  -2311110.42447  -1777840.96246  24757659.0544   24757661.3584   24757658.566
        44.0004         39.0004
  -8135785.17447  -6284774.75846  23603987.0224   23603988.9064   23603987.768
        46.0004         41.0004
 -18593311.10549 -14426788.32648  20432726.2454   20432728.0084   20432726.102
        54.0004         50.0004
 20 11  5  2 17 30.0000000  0  8G30G05G02G15G29G07G18G13
 -10373678.29248  -8042722.98447  23275120.8474   23275127.1964   23275120.976
        48.0004         43.0004
 -21790378.59549 -16920524.42549  20803530.0524   20803531.9514   20803529.781
        60.0004         55.0004
 -13399964.90648 -10396472.95747  22569037.6234   22569039.4264   22569038.247
        50.0004         45.0004
 -18658477.02849 -14482817.44548  21827017.0324   21827019.9734   21827016.564
        56.0004         52.0004
 -12726241.05449  -9862453.83348  22534926.1984   22534928.7904   22534926.742
        55.0004         51.0004
  -2262215.77947  -1739741.29746  24766965.1554   24766966.1254   24766965.030
        44.0004         40.0004
  -8234353.90347  -6361581.53246  23585229.8294   23585231.3474   23585230.020
        46.0004         41.0004
 -18621814.32749 -14448998.63248  20427302.2544   20427303.9734   20427302.272
        54.0004         50.0004
 20 11  5  2 18  0.0000000  0  8G30G05G02G15G29G07G18G13
 -10366786.16348  -8037352.49547  23276433.2664   23276438.4014   23276432.009
        48.0004         43.0004
 -21755182.32549 -16893098.77949  20810227.7284   20810230.1324   20810227.431
        59.0004         55.0004
 -13320911.13348 -10334872.64747  22584081.4964   22584082.9894   22584082.375
        50.0004         45.0004
 -18743500.03249 -14549069.10948  21810837.6444   21810840.3304   21810837.925
        57.0004         52.0004
 -12681520.20949  -9827606.43648  22543435.6754   22543438.6724   22543435.275
        55.0004         50.0004
  -2212876.78147  -1701295.37846  24776353.7684   24776356.0474   24776352.443
        45.0004         40.0004
  -8332750.89147  -6438254.47646  23566506.4474   23566507.2994   23566505.602
        46.0004         41.0004
 -18649758.87149 -14470773.59648  20421984.4404   20421986.6154   20421984.640
        54.0004         50.0004
 20 11  5  2 18 30.0000000  0  8G30G05G02G15G29G07G18G13
 -10359338.90648  -8031549.45347  23277849.6724   23277855.7304   23277850.338
        48.0004         43.0004
 -21719690.24249 -16865442.62249  20816981.8804   20816983.7224   20816981.563
        60.0004         55.0004
 -13241523.44848 -10273012.13747  22599188.6454   22599189.8534   22599189.512
        50.0004         45.0004
 -18828160.34749 -14615038.16848  21794727.8284   21794730.2114   21794727.427
        57.0004         52.0004
 -12636258.78949  -9792337.80348  22552048.5794   22552051.6004   22552049.417
        55.0004         50.0004
  -2163094.93547  -1662504.36446  24785826.3724   24785829.1384   24785826.263
        45.0004         40.0004
  -8430973.76247  -6514791.74446  23547813.8254   23547816.2074   23547813.691
        46.0004         41.0004
 -18677144.63149 -14492113.14648  20416773.3184   20416775.2134   20416772.836
        54.0004         50.0004
 20 11  5  2 19  0.0000000  0  8G30G05G02G15G29G07G18G13
 -10351336.49348  -8025313.81147  23279373.0174   23279378.0374   23279373.659
        48.0004         43.0004
 -21683902.91949 -16837556.40449  20823791.6094   20823793.5224   20823791.227
        59.0004         55.0004
 -13161803.22348 -10210892.51647  22614358.4684   22614360.1354   22614359.690
        50.0004         45.0004
 -18912457.08449 -14680723.91448  21778686.3254   21778689.0784   21778685.952
        57.0004         52.0004
 -12590459.07049  -9756649.73148  22560764.5974   22560767.0924   22560764.318
        55.0004         51.0004
  -2112871.55247  -1623369.30546  24795383.9674   24795386.7074   24795384.756
        45.0004         40.0004
  -8529020.25647  -6591191.57846  23529155.8844   23529158.4634   23529156.220
        46.0004         41.0004
 -18703971.45149 -14513017.16348  20411668.5884   20411669.7514   20411668.378
        54.0004         50.0004
 20 11  5  2 19 30.0000000  0  8G30G05G02G15G29G07G18G13
 -10342778.86148  -8018645.54647  23281001.7304   23281007.3384   23281003.032
        48.0004         43.0004
 -21647820.67449 -16809440.38649  20830658.2644   20830659.9694   20830658.062
        59.0004         55.0004
 -13081751.84448 -10148514.85047  22629592.4584   22629593.4244   22629593.221
        50.0004         45.0004
 -18996388.27649 -14746124.82648  21762714.7484   21762717.1134   21762714.731
        57.0004         52.0004
 -12544122.95149  -9720543.68848  22569581.7084   22569584.8524   22569581.285
        55.0004         51.0004
  -2062208.50047  -1583891.65246  24805024.3934   24805027.1934   24805023.383
        45.0004         40.0004
  -8626887.97547  -6667452.10746  23510532.4364   23510535.7064   23510532.880
        46.0004         41.0004
 -18730238.93049 -14533485.32748  20406669.7564   20406671.4044   20406669.685
        54.0004         50.0004
 20 11  5  2 20  0.0000000  0  8G30G05G02G15G29G07G18G13
 -10333666.00248  -8011544.61447  23282735.2374   23282740.8864   23282736.333
        48.0004         43.0004
 -21611443.67849 -16781094.68849  20837580.3294   20837582.2264   20837580.150
        59.0004         55.0004
 -13001370.90648 -10085880.37647  22644887.6774   22644888.6214   22644889.149
        50.0004         45.0004
 -19079952.63449 -14811239.88648  21746812.6094   21746815.4354   21746812.575
        57.0004         52.0004
 -12497252.77149  -9684021.48148  22578500.7144   22578503.8124   22578501.302
        55.0004         51.0004
  -2011107.22047  -1544072.51246  24814747.2784   24814751.8304   24814746.745
        44.0004         39.0004
  -8724574.55647  -6743571.48946  23491943.4014   23491945.3094   23491943.108
        46.0004         41.0004
 -18755947.59449 -14553518.05048  20401777.5824   20401779.4224   20401777.362
        54.0004         50.0004
 20 11  5  2 20 30.0000000  0  8G30G05G02G15G29G07G18G13
 -10323997.80048  -8004010.96447  23284576.1274   23284580.8804   23284575.274
        48.0004         43.0004
 -21574772.25049 -16752519.56349  20844558.6674   20844560.7394   20844558.483
        59.0004         55.0004
 -12920661.98048 -10022990.32747  22660246.5614   22660248.2114   22660247.243
        50.0004         45.0004
 -19163148.98649 -14876068.19348  21730981.3244   21730983.7904   21730981.041
        57.0004         52.0004
 -12449850.61449  -9647084.76148  22587521.4504   22587524.2734   22587521.432
        55.0004         51.0004
  -1959569.09547  -1503912.94746  24824555.5994   24824558.3564   24824555.260
        44.0004         39.0004
  -8822077.61547  -6819547.87346  23473388.9794   23473392.5214   23473389.501
        46.0004         41.0004
 -18781096.64949 -14573114.71348  20396991.6214   20396993.6794   20396992.184
        54.0004         50.0004
 20 11  5  2 21  0.0000000  0  8G30G05G02G15G29G07G18G13
 -10313774.38148  -7996044.66447  23286521.2314   23286525.9174   23286521.138
        48.0004         43.0004
 -21537807.16649 -16723715.61649  20851592.9064   20851595.1624   20851592.882
        59.0004         55.0004
 -12839626.15848  -9959845.55847  22675667.1374   22675668.6394   22675668.322
        50.0004         45.0004
 -19245975.78349 -14940608.53648  21715219.7534   21715222.6664   21715219.595
        57.0004         52.0004
 -12401918.63649  -9609735.18148  22596642.4254   22596645.2494   22596642.500
        55.0004         51.0004
  -1907595.85647  -1463414.35346  24834445.8794   24834450.4504   24834444.602
        44.0004         39.0004
  -8919394.78747  -6895379.40246  23454870.0924   23454873.7404   23454871.009
        46.0004         41.0004
 -18805686.54149 -14592275.66848  20392312.7724   20392314.3504   20392312.523
        54.0004         50.0004
 20 11  5  2 21 30.0000000  0  8G30G05G02G15G29G07G18G13
 -10302995.89348  -7987645.85347  23288571.9494   23288577.5754   23288572.332
        48.0004         43.0004
 -21500548.52049 -16694682.91849  20858682.8094   20858685.1664   20858682.509
        59.0004         55.0004
 -12758265.29048  -9896447.49547  22691149.7224   22691151.4574   22691150.544
        50.0004         45.0004
 -19328431.73149 -15004859.90548  21699528.9244   21699531.6944   21699528.336
        57.0004         52.0004
 -12353459.27349  -9571974.66848  22605864.3614   22605866.5824   22605864.678
        55.0004         51.0004
  -1855188.86547  -1422577.76146  24844417.5314   24844420.8624   24844417.701
        44.0004         39.0004
  -9016523.85247  -6971064.36547  23436387.0124   23436389.7274   23436386.371
        46.0004         42.0004
 -18829717.08449 -14611000.76448  20387739.9344   20387741.4954   20387739.767
        54.0004         50.0004
 20 11  5  2 22  0.0000000  0  8G30G05G02G15G29G07G18G13
 -10291662.23048  -7978814.43347  23290729.4944   23290733.6744   23290729.258
        48.0004         43.0004
 -21462996.28949 -16665421.45449  20865828.8044   20865831.0044   20865828.851
        59.0004         55.0004
 -12676580.61348  -9832797.12947  22706693.8044   22706695.7284   22706694.509
        50.0004         45.0004
 -19410515.20349 -15068821.02948  21683908.8414   21683911.8544   21683908.626
        57.0004         53.0004
 -12304474.40749  -9533804.65748  22615186.0914   22615188.3924   22615185.738
        55.0004         51.0004
  -1802349.51247  -1381404.22646  24854473.1154   24854476.8394   24854472.146
        44.0004         39.0004
  -9113462.24447  -7046600.73847  23417940.4164   23417943.9924   23417940.595
        46.0004         42.0004
 -18853187.76149 -14629289.60048  20383273.5504   20383275.2394   20383273.224
        54.0004         50.0004
 20 11  5  2 22 30.0000000  0  8G30G05G02G15G29G07G18G13
 -10279773.54548  -7969550.54047  23292990.5294   23292995.7234   23292991.765
        48.0004         43.0004
 -21425151.52349 -16635932.03449  20873030.6014   20873032.6834   20873030.499
        59.0004         55.0004
 -12594573.54248  -9768895.53947  22722298.8774   22722300.2624   22722299.765
        50.0004         45.0004
 -19492225.04849 -15132491.02448  21668360.1214   21668362.5024   21668359.807
        57.0004         53.0004
 -12254966.37349  -9495226.98548  22624607.3134   22624609.3384   22624607.439
        55.0004         51.0004
  -1749079.77447  -1339895.35546  24864610.4434   24864613.8594   24864610.732
        44.0004         39.0004
  -9210207.67647  -7121986.76247  23399530.1794   23399532.9984   23399529.960
        46.0004         42.0004
 -18876098.95049 -14647142.47348  20378913.8234   20378915.2274   20378913.511
        54.0004         50.0004
 20 11  5  2 23  0.0000000  0  8G30G05G02G15G29G07G18G13
 -10267329.95348  -7959854.25047  23295359.3594   23295363.9274   23295360.375
        48.0004         43.0004
 -21387014.16249 -16606214.62349  20880287.9984   20880290.0544   20880287.918
        59.0004         55.0004
 -12512245.62348  -9704743.94747  22737966.4944   22737966.9634   22737966.292
        49.0004         45.0004
 -19573559.38649 -15195868.42048  21652882.6414   21652885.2254   21652882.312
        57.0004         53.0004
 -12204937.36549  -9456243.36148  22634126.8344   22634130.1374   22634127.154
        55.0004         51.0004
  -1695380.92847  -1298052.11146  24874830.1624   24874832.4774   24874829.698
        44.0004         40.0004
  -9306757.75047  -7197220.57247  23381157.6574   23381160.0144   23381157.329
        46.0004         42.0004
 -18898450.43749 -14664559.21348  20374660.1244   20374661.7904   20374660.088
        54.0004         50.0004
 20 11  5  2 23 30.0000000  0  8G30G05G02G15G29G07G18G13
 -10254331.57647  -7949725.67447  23297833.3384   23297836.8004   23297833.940
        47.0004         43.0004
 -21348584.68049 -16576269.58549  20887601.1174   20887603.2484   20887600.812
        59.0004         55.0004
 -12429598.37848  -9640343.52147  22753692.3864   22753694.8884   22753693.670
        50.0004         45.0004
 -19654517.21049 -15258952.43248  21637477.1354   21637479.5714   21637476.436
        57.0004         53.0004
 -12154389.77249  -9416855.64648  22643745.7864   22643748.9354   22643745.807
        55.0004         51.0004
  -1641254.63847  -1255875.79946  24885129.2994   24885131.8574   24885128.241
        44.0004         39.0004
  -9403110.03047  -7272300.24147  23362821.9324   23362824.6954   23362821.830
        47.0004         42.0004
 -18920242.32549 -14681539.90748  20370513.3794   20370515.2054   20370513.216
        54.0004         50.0004
 20 11  5  2 24  0.0000000  0  8G30G05G02G15G29G07G18G13
 -10240778.61947  -7939164.94647  23300411.7534   23300416.2254   23300412.678
        47.0004         43.0004
 -21309863.63649 -16546097.35249  20894969.5754   20894971.4764   20894969.429
        59.0004         55.0004
 -12346633.17548  -9575695.34347  22769480.4654   22769482.0194   22769481.978
        49.0004         45.0004
 -19735097.29849 -15321742.09848  21622143.3124   21622145.4134   21622142.549
        57.0004         53.0004
 -12103325.90149  -9377065.65948  22653462.8954   22653465.9294   22653463.455
        55.0004         51.0004
  -1586701.99847  -1213367.27346  24895510.8154   24895510.0404   24895510.419
        44.0004         39.0004
  -9499262.11947  -7347223.91347  23344525.8234   23344528.6424   23344524.867
        47.0004         42.0004
 -18941474.45049 -14698084.42048  20366473.1854   20366474.9494   20366473.270
        54.0004         50.0004
 20 11  5  2 24 30.0000000  0  8G30G05G02G15G29G07G18G13
 -10226671.24347  -7928172.20347  23303096.7154   23303101.1394   23303096.382
        47.0004         42.0004
 -21270851.44749 -16515698.25849  20902393.0274   20902395.3164   20902392.566
        59.0004         55.0004
 -12263351.98548  -9510800.93547  22785329.2144   22785330.2244   22785329.143
        49.0004         44.0004
 -19815298.10949 -15384236.22648  21606881.4434   21606884.1884   21606881.290
        57.0004         53.0004
 -12051748.08649  -9336875.18948  22663278.3604   22663280.8844   22663278.724
        55.0004         50.0004
  -1531725.62447  -1170528.57446  24905972.9094   24905973.1174   24905972.021
        44.0004         39.0004
  -9595211.64347  -7421989.75147  23326267.3354   23326269.5444   23326266.639
        47.0004         42.0004
 -18962147.13749 -14714193.00948  20362538.9954   20362541.1464   20362538.967
        54.0004         50.0004
 20 11  5  2 25  0.0000000  0  8G30G05G02G15G29G07G18G13
 -10212009.68947  -7916747.62647  23305885.6054   23305891.0364   23305886.905
        47.0004         43.0004
 -21231548.19249 -16485072.36249  20909872.0834   20909874.2924   20909872.071
        59.0004         55.0004
 -12179756.05348  -9445661.28447  22801236.9964   22801238.3274   22801237.772
        49.0004         45.0004
 -19895118.47749 -15446433.91448  21591692.1064   21591694.8374   21591691.702
        57.0004         53.0004
 -11999658.67949  -9296286.06448  22673190.3484   22673193.4774   22673189.260
        55.0004         50.0004
  -1476326.94747  -1127360.82346  24916515.5814   24916515.1934   24916514.199
        44.0004         39.0004
  -9690956.24447  -7496595.92347  23308047.1774   23308049.1384   23308047.554
        47.0004         42.0004
 -18982260.49349 -14729865.75648  20358711.7904   20358713.4784   20358711.555
        54.0004         50.0004
 20 11  5  2 25 30.0000000  0  8G30G05G02G15G29G07G18G13
 -10196794.09747  -7904891.32947  23308781.8984   23308787.4814   23308782.117
        47.0004         43.0004
 -21191954.53249 -16454220.17249  20917406.8734   20917408.8954   20917406.900
        59.0004         55.0004
 -12095847.00848  -9380277.63647  22817203.4514   22817205.2584   22817205.098
        49.0004         44.0004
 -19974557.09449 -15508334.12448  21576575.3554   21576577.9934   21576575.314
        57.0004         53.0004
 -11947060.02549  -9255300.12248  22683199.9204   22683202.1364   22683199.898
        55.0004         50.0004
  -1420507.31347  -1083865.07346  24927135.0734   24927137.8014   24927135.413
        44.0004         39.0004
  -9786493.39547  -7571040.43347  23289866.1134   23289869.0464   23289867.093
        47.0004         42.0004
 -19001814.40449 -14745102.56748  20354990.7924   20354992.5974   20354990.523
        54.0004         50.0004
 20 11  5  2 26  0.0000000  0  8G30G05G02G15G29G07G18G13
 -10181024.73347  -7892603.53347  23311782.5464   23311787.9144   23311783.047
        47.0004         43.0004
 -21152070.42149 -16423141.66049  20924996.6934   20924998.7264   20924996.349
        59.0004         55.0004
 -12011626.28648  -9314651.12847  22833231.1994   22833231.6544   22833231.666
        49.0004         44.0004
 -20053612.53949 -15569935.76348  21561531.9124   21561534.1304   21561531.292
        57.0004         53.0004
 -11893954.41449  -9213919.15648  22693305.5344   22693307.4394   22693305.326
        55.0004         50.0004
  -1364268.31147  -1040042.53146  24937837.8014   24937839.7454   24937837.172
        44.0004         39.0004
  -9881820.70647  -7645321.43947  23271726.7174   23271729.2144   23271726.883
        47.0004         42.0004
 -19020808.88849 -14759903.46748  20351375.9224   20351378.2414   20351376.147
        54.0004         50.0004
 20 11  5  2 26 30.0000000  0  8G30G05G02G15G29G07G18G13
 -10164701.93747  -7879884.47147  23314888.2974   23314894.2944   23314888.685
        47.0004         43.0004
 -21111896.69349 -16391837.47249  20932641.3984   20932643.1624   20932641.215
        59.0004         55.0004
 -11927095.51548  -9248783.02247  22849316.7494   22849317.0984   22849316.828
        49.0004         44.0004
 -20132283.50249 -15631237.80248  21546561.0184   21546563.6264   21546561.023
        57.0004         53.0004
 -11840344.25249  -9172145.01648  22703507.0744   22703509.0934   22703507.094
        55.0004         50.0004
  -1307611.91847   -995894.75246  24948617.6014   24948621.9744   24948617.208
        43.0004         39.0004
  -9976935.77747  -7719437.06347  23253626.2854   23253629.9294   23253625.593
        47.0004         42.0004
 -19039244.35049 -14774268.76348  20347868.2024   20347869.9624   20347868.052
        54.0004         50.0004
 20 11  5  2 27  0.0000000  0  8G30G05G02G15G29G07G18G13
 -10147825.96248  -7866734.37347  23318099.7584   23318106.1534   23318099.375
        48.0004         43.0004
 -21071433.78049 -16360307.93849  20940340.9514   20940343.2264   20940340.646
        59.0004         55.0004
 -11842256.23948  -9182674.52547  22865460.9374   22865461.9654   22865461.100
        49.0004         44.0004
 -20210568.71849 -15692239.25848  21531663.8124   21531666.4194   21531663.801
        57.0004         53.0004
 -11786232.00549  -9129979.65748  22713804.0954   22713807.1774   22713803.527
        55.0004         50.0004
  -1250539.61147   -951422.90546  24959477.4234   24959481.6204   24959477.325
        43.0004         38.0004
 -10071836.17447  -7793385.39947  23235567.3464   23235570.6644   23235566.868
        47.0004         42.0004
 -19057120.62449 -14788198.33148  20344466.2524   20344467.9074   20344466.294
        54.0004         50.0004
 20 11  5  2 27 30.0000000  0  8G30G05G02G15G29G07G18G13
 -10130397.15348  -7853153.48847  23321416.8524   23321422.8454   23321416.689
        48.0004         43.0004
 -21030681.57049 -16328552.98249  20948095.9314   20948097.9344   20948095.473
        59.0004         55.0004
 -11757110.23648  -9116327.01947  22881663.9624   22881665.3414   22881664.389
        49.0004         44.0004
 -20288466.83749 -15752939.08548  21516840.1974   21516842.4824   21516839.568
        57.0004         53.0004
 -11731620.17349  -9087425.00948  22724196.3674   22724199.5444   22724195.955
        55.0004         50.0004
  -1193052.78147   -906628.06146  24970418.3994   24970421.5894   24970417.210
        43.0004         39.0004
 -10166519.45147  -7867164.56447  23217549.1504   23217552.2534   23217549.684
        47.0004         42.0004
 -19074438.09649 -14801692.46648  20341170.7544   20341172.1124   20341171.108
        54.0004         50.0004
 20 11  5  2 28  0.0000000  0  8G30G05G02G15G29G07G18G13
 -10112415.83348  -7839142.07547  23324837.8484   23324844.1604   23324838.108
        48.0004         43.0004
 -20989640.81949 -16296573.19549  20955905.7864   20955907.5694   20955905.745
        59.0004         55.0004
 -11671658.80848  -9049741.51147  22897924.2534   22897925.0964   22897925.290
        49.0004         44.0004
 -20365976.36749 -15813336.11848  21502090.8024   21502092.6534   21502090.009
        57.0004         53.0004
 -11676511.10049  -9044482.90448  22734683.3354   22734685.9204   22734683.724
        55.0004         50.0004
  -1135153.79147   -861512.05246  24981437.3564   24981440.0954   24981436.663
        43.0004         38.0004
 -10260983.13647  -7940772.63047  23199574.0724   23199576.9474   23199573.554
        47.0004         42.0004
 -19091197.05649 -14814751.40248  20337981.8814   20337983.3214   20337981.777
        54.0004         50.0004
 20 11  5  2 28 30.0000000  0  8G30G05G02G15G29G07G18G13
 -10093882.39548  -7824700.43647  23328364.6034   23328371.4764   23328364.468
        48.0004         43.0004
 -20948311.73049 -16264368.71949  20963770.2424   20963772.5034   20963770.028
        59.0004         55.0004
 -11585903.73048  -8982919.40947  22914243.2444   22914245.6914   22914242.180
        49.0004         44.0004
 -20443096.53249 -15873429.74848  21487415.0734   21487417.4944   21487415.011
        57.0004         53.0004
 -11620907.35849  -9001155.33848  22745264.5684   22745267.2834   22745264.861
        55.0004         50.0004
  -1076843.97247   -816075.89446  24992533.5644   24992536.4484   24992534.027
        43.0004         38.0004
 -10355224.79247  -8014207.67547  23181640.0784   23181642.8784   23181639.561
        47.0004         43.0004
 -19107397.69749 -14827375.28248  20334899.0084   20334900.6664   20334898.867
        54.0004         50.0004
 20 11  5  2 29  0.0000000  0  8G30G05G02G15G29G07G18G13
 -10074797.22947  -7809828.89747  23331996.7314   23332001.7874   23331996.935
        47.0004         43.0004
 -20906694.39649 -16231939.64649  20971690.0494   20971692.0374   20971690.057
        59.0004         55.0004
 -11499846.80248  -8915862.08447  22930619.3954   22930621.0844   22930620.128
        49.0004         44.0004
 -20519825.83949 -15933218.81448  21472814.2334   21472816.3874   21472814.581
        58.0004         53.0004
 -11564811.20549  -8957444.07148  22755939.2194   22755941.7894   22755939.660
        55.0004         50.0004
  -1018125.24747   -770321.10046  25003707.0854   25003710.8144   25003706.246
        43.0004         39.0004
 -10449242.02247  -8087467.84347  23163749.1904   23163752.5694   23163748.734
        47.0004         43.0004
 -19123040.17649 -14839564.23548  20331922.3864   20331924.0134   20331922.403
        54.0004         50.0004
